,"Interval|""ms""|0|0|1","Utc|""ms""|0|0|1","Analog4|""Volts""|0.0|5.0|500","Analog5|""Volts""|0.0|5.0|500","Battery|""Volts""|0.0|20.0|1","AccelX|""G""|-3.0|3.0|200","AccelY|""G""|-3.0|3.0|200","AccelZ|""G""|-3.0|3.0|200","Yaw|""Deg/Sec""|-120|120|200","Pitch|""Deg/Sec""|-120|120|200","Roll|""Deg/Sec""|-120|120|200","Gsum|""G""|0.0|3.0|200","RPM|""rpm""|0|8000|500","RPM2|""rpm""|0|8000|500","GPIO1|""""|0.0|1.0|50","Latitude|Degrees|-180.0|180.0|25","Longitude|Degrees|-180.0|180.0|25","Speed|mph|0.0|150.0|25","Altitude|""ft""|0.0|4000.0|25","GPSSats|""""|0|20|25","GPSQual|""""|0|5|25","GPSDOP|""""|0.0|20.0|25"
0,217,0,1.47,1.87,,,,,,,,,0,140,,,,,,,,
1,219,0,1.45,1.87,,,,,,,,,0,140,,,,,,,,
2,221,0,1.44,1.85,,,,,,,,,0,140,,,,,,,,
3,223,0,1.41,1.86,,0.07,0.4,1.12,1.0,5.0,7.0,0.4,0,140,0.0,,,,,,,
4,225,0,1.45,1.88,,,,,,,,,0,140,,,,,,,,
5,227,0,1.45,1.86,,,,,,,,,0,140,,,,,,,,
6,229,0,1.45,1.89,,,,,,,,,0,140,,,,,,,,
7,231,0,1.44,1.86,,,,,,,,,0,140,,,,,,,,
8,233,0,1.46,1.86,,0.07,0.34,0.96,2.0,0.0,2.0,0.35,0,140,,,,,,,,
9,235,0,1.44,1.83,,,,,,,,,0,140,,,,,,,,
10,237,0,1.44,1.86,,,,,,,,,0,140,,,,,,,,
11,239,0,1.43,1.86,,,,,,,,,0,140,,,,,,,,
12,241,0,1.47,1.87,,,,,,,,,0,140,,,,,,,,
13,243,0,1.47,1.84,,0.07,0.19,0.76,2.0,0.0,0.0,0.2,0,140,0.0,0.0,0.0,0.0,0.0,0.0,0.0,0.0
14,245,0,1.47,1.89,,,,,,,,,0,140,,,,,,,,
15,247,0,1.41,1.87,,,,,,,,,0,140,,,,,,,,
16,249,0,1.42,1.84,,,,,,,,,0,140,,,,,,,,
17,251,0,1.45,1.86,,,,,,,,,0,140,,,,,,,,
18,253,0,1.43,1.87,,0.12,0.07,0.82,1.0,0.0,-4.0,0.14,0,136,,,,,,,,
19,255,0,1.44,1.88,,,,,,,,,0,136,,,,,,,,
20,257,0,1.46,1.88,,,,,,,,,0,136,,,,,,,,
21,259,0,1.45,1.88,,,,,,,,,0,136,,,,,,,,
22,261,0,1.45,1.85,,,,,,,,,0,136,,,,,,,,
23,263,0,1.41,1.83,,0.13,0.19,1.07,-3.0,6.0,-4.0,0.23,0,136,0.0,,,,,,,
24,265,0,1.45,1.87,,,,,,,,,0,136,,,,,,,,
25,267,0,1.46,1.88,,,,,,,,,0,136,,,,,,,,
26,269,0,1.44,1.86,,,,,,,,,0,136,,,,,,,,
27,271,0,1.42,1.83,,,,,,,,,0,136,,,,,,,,
28,273,0,1.45,1.86,,0.26,0.32,1.27,-1.0,6.0,-4.0,0.42,0,136,,,,,,,,
29,275,0,1.46,1.88,,,,,,,,,0,136,,,,,,,,
30,277,0,1.46,1.88,,,,,,,,,0,136,,,,,,,,
31,279,0,1.46,1.87,,,,,,,,,0,136,,,,,,,,
32,281,0,1.42,1.84,,,,,,,,,0,136,,,,,,,,
33,283,0,1.42,1.84,,0.17,0.29,1.2,1.0,2.0,-6.0,0.34,0,136,0.0,0.0,0.0,0.0,0.0,0.0,0.0,0.0
34,285,0,1.44,1.86,,,,,,,,,0,136,,,,,,,,
35,287,0,1.46,1.87,,,,,,,,,0,136,,,,,,,,
36,289,0,1.46,1.88,,,,,,,,,0,136,,,,,,,,
37,291,0,1.46,1.87,,,,,,,,,0,136,,,,,,,,
38,293,0,1.46,1.87,,0.16,0.16,1.34,2.0,9.0,-6.0,0.22,0,136,,,,,,,,
39,295,0,1.44,1.85,,,,,,,,,0,136,,,,,,,,
40,297,0,1.42,1.83,,,,,,,,,0,136,,,,,,,,
41,299,0,1.44,1.86,,,,,,,,,0,136,,,,,,,,
42,301,0,1.46,1.87,,,,,,,,,0,136,,,,,,,,
43,303,0,1.46,1.88,,0.06,0.18,1.13,2.0,7.0,-6.0,0.19,0,136,0.0,,,,,,,
44,305,0,1.46,1.88,,,,,,,,,0,136,,,,,,,,
45,307,0,1.44,1.85,,,,,,,,,0,136,,,,,,,,
46,309,0,1.42,1.83,,,,,,,,,0,136,,,,,,,,
47,311,0,1.43,1.85,,,,,,,,,0,136,,,,,,,,
48,313,0,1.45,1.87,,-0.06,0.15,0.96,4.0,1.0,-7.0,0.16,0,136,,,,,,,,
49,315,0,1.46,1.88,,,,,,,,,0,136,,,,,,,,
50,317,0,1.46,1.88,,,,,,,,,0,136,,,,,,,,
51,319,0,1.43,1.85,,,,,,,,,0,136,,,,,,,,
52,321,0,1.43,1.85,,,,,,,,,0,136,,,,,,,,
53,323,0,1.46,1.88,,-0.04,-0.04,0.78,3.0,1.0,-10.0,0.06,0,136,0.0,0.0,0.0,0.0,0.0,0.0,0.0,0.0
54,325,0,1.46,1.88,,,,,,,,,0,136,,,,,,,,
55,327,0,1.44,1.84,,,,,,,,,0,136,,,,,,,,
56,329,0,1.41,1.85,,,,,,,,,0,136,,,,,,,,
57,331,0,1.45,1.88,,,,,,,,,0,136,,,,,,,,
58,333,0,1.45,1.88,,0.01,-0.07,0.54,2.0,-6.0,-10.0,0.07,0,136,,,,,,,,
59,335,0,1.45,1.88,,,,,,,,,0,136,,,,,,,,
60,337,0,1.41,1.84,,,,,,,,,0,136,,,,,,,,
61,339,0,1.44,1.86,,,,,,,,,0,136,,,,,,,,
62,341,0,1.45,1.88,,,,,,,,,0,132,,,,,,,,
63,343,0,1.45,1.89,,-0.08,0.01,0.36,2.0,-1.0,-9.0,0.09,0,132,0.0,,,,,,,
64,345,0,1.42,1.85,,,,,,,,,0,132,,,,,,,,
65,347,0,1.42,1.85,,,,,,,,,0,132,,,,,,,,
66,349,0,1.45,1.88,,,,,,,,,0,132,,,,,,,,
67,351,0,1.45,1.88,,,,,,,,,0,132,,,,,,,,
68,353,0,1.43,1.87,,-0.08,0.09,0.52,1.0,5.0,-5.0,0.12,0,132,,,,,,,,
69,355,0,1.41,1.84,,,,,,,,,0,132,,,,,,,,
70,357,0,1.44,1.87,,,,,,,,,0,132,,,,,,,,
71,359,0,1.45,1.88,,,,,,,,,0,132,,,,,,,,
72,361,0,1.45,1.88,,,,,,,,,0,132,,,,,,,,
73,363,0,1.42,1.86,,0.07,0.03,0.53,2.0,-10.0,-5.0,0.07,0,132,0.0,0.0,0.0,0.0,0.0,0.0,0.0,0.0
74,365,0,1.42,1.85,,,,,,,,,0,132,,,,,,,,
75,367,0,1.45,1.88,,,,,,,,,0,132,,,,,,,,
76,369,0,1.45,1.88,,,,,,,,,0,132,,,,,,,,
77,371,0,1.45,1.88,,,,,,,,,0,132,,,,,,,,
78,373,0,1.42,1.85,,-0.07,-0.21,0.51,4.0,-1.0,-1.0,0.22,0,128,,,,,,,,
79,375,0,1.43,1.86,,,,,,,,,0,128,,,,,,,,
80,377,0,1.45,1.88,,,,,,,,,0,128,,,,,,,,
81,379,0,1.45,1.89,,,,,,,,,0,128,,,,,,,,
82,381,0,1.44,1.87,,,,,,,,,0,128,,,,,,,,
83,383,0,1.42,1.84,,0.02,-0.04,1.05,1.0,-4.0,0.0,0.05,0,128,0.0,,,,,,,
84,385,0,1.42,1.84,,,,,,,,,0,128,,,,,,,,
85,387,0,1.44,1.88,,,,,,,,,0,128,,,,,,,,
86,389,0,1.46,1.89,,,,,,,,,0,128,,,,,,,,
87,391,0,1.4,1.84,,,,,,,,,0,128,,,,,,,,
88,393,0,1.44,1.88,,0.3,-0.02,1.11,1.0,-4.0,1.0,0.3,0,128,,,,,,,,
89,395,0,1.46,1.89,,,,,,,,,0,128,,,,,,,,
90,397,0,1.45,1.88,,,,,,,,,0,128,,,,,,,,
91,399,0,1.42,1.85,,,,,,,,,0,128,,,,,,,,
92,401,0,1.43,1.86,,,,,,,,,0,128,,,,,,,,
93,403,0,1.45,1.88,,0.28,-0.01,1.32,1.0,-1.0,1.0,0.28,0,132,0.0,0.0,0.0,0.0,0.0,0.0,0.0,0.0
94,405,0,1.46,1.88,,,,,,,,,0,132,,,,,,,,
95,407,0,1.46,1.88,,,,,,,,,0,132,,,,,,,,
96,409,0,1.46,1.88,,,,,,,,,0,132,,,,,,,,
97,411,0,1.44,1.86,,,,,,,,,0,132,,,,,,,,
98,413,0,1.42,1.83,,0.32,-0.03,1.48,1.0,2.0,3.0,0.32,0,132,,,,,,,,
99,415,0,1.45,1.86,,,,,,,,,0,132,,,,,,,,
100,417,0,1.46,1.88,,,,,,,,,0,132,,,,,,,,
101,419,0,1.47,1.88,,,,,,,,,0,132,,,,,,,,
102,421,0,1.46,1.88,,,,,,,,,0,132,,,,,,,,
103,423,0,1.46,1.87,,0.38,-0.13,1.42,1.0,6.0,6.0,0.4,0,132,0.0,,,,,,,
104,425,0,1.45,1.86,,,,,,,,,0,132,,,,,,,,
105,427,0,1.45,1.85,,,,,,,,,0,132,,,,,,,,
106,429,0,1.44,1.84,,,,,,,,,0,132,,,,,,,,
107,431,0,1.43,1.83,,,,,,,,,0,132,,,,,,,,
108,433,0,1.43,1.82,,0.26,-0.16,1.2,2.0,1.0,6.0,0.3,0,128,,,,,,,,
109,435,0,1.45,1.85,,,,,,,,,0,128,,,,,,,,
110,437,0,1.46,1.87,,,,,,,,,0,128,,,,,,,,
111,439,0,1.46,1.87,,,,,,,,,0,128,,,,,,,,
112,441,0,1.46,1.87,,,,,,,,,0,128,,,,,,,,
113,443,0,1.44,1.85,,0.04,-0.1,1.25,1.0,10.0,9.0,0.1,0,128,0.0,0.0,0.0,0.0,0.0,0.0,0.0,0.0
114,445,0,1.42,1.82,,,,,,,,,0,128,,,,,,,,
115,447,0,1.45,1.84,,,,,,,,,0,128,,,,,,,,
116,449,0,1.46,1.86,,,,,,,,,0,128,,,,,,,,
117,451,0,1.47,1.87,,,,,,,,,0,128,,,,,,,,
118,453,0,1.46,1.87,,-0.0,-0.0,0.82,2.0,-4.0,8.0,0.0,0,128,,,,,,,,
119,455,0,1.45,1.86,,,,,,,,,0,128,,,,,,,,
120,457,0,1.42,1.82,,,,,,,,,0,128,,,,,,,,
121,459,0,1.42,1.85,,,,,,,,,0,128,,,,,,,,
122,461,0,1.45,1.87,,,,,,,,,0,128,,,,,,,,
123,463,0,1.46,1.87,,-0.07,-0.04,0.56,1.0,1.0,8.0,0.08,0,128,0.0,,,,,,,
124,465,0,1.45,1.86,,,,,,,,,0,128,,,,,,,,
125,467,0,1.42,1.83,,,,,,,,,0,128,,,,,,,,
126,469,0,1.45,1.85,,,,,,,,,0,128,,,,,,,,
127,471,0,1.46,1.87,,,,,,,,,0,128,,,,,,,,
128,473,0,1.46,1.87,,-0.13,-0.0,0.78,-2.0,10.0,13.0,0.13,0,128,,,,,,,,
129,475,0,1.45,1.86,,,,,,,,,0,128,,,,,,,,
130,477,0,1.42,1.83,,,,,,,,,0,128,,,,,,,,
131,479,0,1.45,1.85,,,,,,,,,0,128,,,,,,,,
132,481,0,1.46,1.87,,,,,,,,,0,128,,,,,,,,
133,483,0,1.46,1.88,,0.07,0.01,0.89,-2.0,-8.0,13.0,0.07,0,128,0.0,0.0,0.0,0.0,0.0,0.0,0.0,0.0
134,485,0,1.44,1.85,,,,,,,,,0,128,,,,,,,,
135,487,0,1.42,1.83,,,,,,,,,0,128,,,,,,,,
136,489,0,1.46,1.87,,,,,,,,,0,128,,,,,,,,
137,491,0,1.46,1.87,,,,,,,,,0,128,,,,,,,,
138,493,0,1.45,1.86,,0.09,0.11,0.91,-1.0,3.0,13.0,0.14,0,128,,,,,,,,
139,495,0,1.42,1.83,,,,,,,,,0,132,,,,,,,,
140,497,0,1.46,1.87,,,,,,,,,0,132,,,,,,,,
141,499,0,1.47,1.88,,,,,,,,,0,132,,,,,,,,
142,501,0,1.46,1.87,,,,,,,,,0,132,,,,,,,,
143,503,0,1.43,1.84,,0.07,0.2,1.26,0.0,0.0,10.0,0.21,0,132,0.0,,,,,,,
144,505,0,1.45,1.86,,,,,,,,,0,132,,,,,,,,
145,507,0,1.47,1.88,,,,,,,,,0,132,,,,,,,,
146,509,0,1.46,1.88,,,,,,,,,0,132,,,,,,,,
147,511,0,1.43,1.84,,,,,,,,,0,132,,,,,,,,
148,513,0,1.46,1.87,,0.11,0.22,1.0,1.0,-4.0,7.0,0.24,0,132,,,,,,,,
149,515,0,1.46,1.88,,,,,,,,,0,132,,,,,,,,
150,517,0,1.47,1.88,,,,,,,,,0,132,,,,,,,,
151,519,0,1.43,1.84,,,,,,,,,0,132,,,,,,,,
152,521,0,1.44,1.85,,,,,,,,,0,132,,,,,,,,
153,523,0,1.46,1.88,,0.01,0.3,0.99,1.0,-2.0,3.0,0.3,0,132,0.0,0.0,0.0,0.0,0.0,0.0,0.0,0.0
154,525,0,1.46,1.88,,,,,,,,,0,132,,,,,,,,
155,527,0,1.45,1.84,,,,,,,,,0,128,,,,,,,,
156,529,0,1.46,1.87,,,,,,,,,0,128,,,,,,,,
157,531,0,1.43,1.84,,,,,,,,,0,128,,,,,,,,
158,533,0,1.44,1.85,,0.06,0.3,1.08,1.0,0.0,-1.0,0.31,0,128,,,,,,,,
159,535,0,1.46,1.87,,,,,,,,,0,128,,,,,,,,
160,537,0,1.46,1.87,,,,,,,,,0,128,,,,,,,,
161,539,0,1.43,1.84,,,,,,,,,0,128,,,,,,,,
162,541,0,1.44,1.85,,,,,,,,,0,128,,,,,,,,
163,543,0,1.46,1.87,,0.13,0.2,1.14,0.0,-6.0,-5.0,0.24,0,128,0.0,,,,,,,
164,545,0,1.46,1.87,,,,,,,,,0,128,,,,,,,,
165,547,0,1.45,1.86,,,,,,,,,0,128,,,,,,,,
166,549,0,1.42,1.82,,,,,,,,,0,128,,,,,,,,
167,551,0,1.45,1.86,,,,,,,,,0,128,,,,,,,,
168,553,0,1.46,1.87,,0.12,0.31,1.25,0.0,-2.0,-7.0,0.34,0,128,,,,,,,,
169,555,0,1.46,1.87,,,,,,,,,0,128,,,,,,,,
170,557,0,1.43,1.84,,,,,,,,,0,128,,,,,,,,
171,559,0,1.43,1.84,,,,,,,,,0,128,,,,,,,,
172,561,0,1.46,1.87,,,,,,,,,0,128,,,,,,,,
173,563,0,1.46,1.87,,0.07,0.35,1.28,0.0,-3.0,-11.0,0.35,0,128,0.0,0.0,0.0,0.0,0.0,0.0,0.0,0.0
174,565,0,1.45,1.86,,,,,,,,,0,128,,,,,,,,
175,567,0,1.41,1.83,,,,,,,,,0,128,,,,,,,,
176,569,0,1.45,1.86,,,,,,,,,0,128,,,,,,,,
177,571,0,1.46,1.87,,,,,,,,,0,128,,,,,,,,
178,573,0,1.46,1.88,,0.12,0.36,1.05,1.0,-9.0,-16.0,0.38,0,128,,,,,,,,
179,575,0,1.45,1.86,,,,,,,,,0,128,,,,,,,,
180,577,0,1.41,1.83,,,,,,,,,0,128,,,,,,,,
181,579,0,1.45,1.87,,,,,,,,,0,128,,,,,,,,
182,581,0,1.46,1.88,,,,,,,,,0,128,,,,,,,,
183,583,0,1.46,1.88,,0.03,0.32,0.88,2.0,-2.0,-18.0,0.32,0,128,0.0,,,,,,,
184,585,0,1.41,1.83,,,,,,,,,0,128,,,,,,,,
185,587,0,1.44,1.86,,,,,,,,,0,128,,,,,,,,
186,589,0,1.46,1.88,,,,,,,,,0,124,,,,,,,,
187,591,0,1.45,1.87,,,,,,,,,0,124,,,,,,,,
188,593,0,1.41,1.83,,-0.06,0.15,0.83,2.0,-5.0,-19.0,0.16,0,124,,,,,,,,
189,595,0,1.43,1.87,,,,,,,,,0,124,,,,,,,,
190,597,0,1.45,1.88,,,,,,,,,0,124,,,,,,,,
191,599,0,1.45,1.88,,,,,,,,,0,124,,,,,,,,
192,601,0,1.42,1.84,,,,,,,,,0,124,,,,,,,,
193,603,0,1.43,1.85,,0.07,-0.14,0.66,0.0,-7.0,-18.0,0.15,0,124,0.0,0.0,0.0,0.0,0.0,0.0,0.0,0.0
194,605,0,1.45,1.88,,,,,,,,,0,124,,,,,,,,
195,607,0,1.45,1.88,,,,,,,,,0,124,,,,,,,,
196,609,0,1.44,1.86,,,,,,,,,0,124,,,,,,,,
197,611,0,1.4,1.83,,,,,,,,,0,124,,,,,,,,
198,613,0,1.43,1.85,,0.06,-0.13,0.66,0.0,1.0,-13.0,0.14,0,124,,,,,,,,
199,615,0,1.45,1.87,,,,,,,,,0,124,,,,,,,,
200,617,0,1.45,1.87,,,,,,,,,0,124,,,,,,,,
201,619,0,1.45,1.87,,,,,,,,,0,124,,,,,,,,
202,621,0,1.4,1.83,,,,,,,,,0,124,,,,,,,,
203,623,0,1.44,1.86,,-0.08,-0.2,0.8,1.0,-5.0,-10.0,0.22,0,124,0.0,,,,,,,
204,625,0,1.45,1.87,,,,,,,,,0,124,,,,,,,,
205,627,0,1.45,1.87,,,,,,,,,0,124,,,,,,,,
206,629,0,1.44,1.86,,,,,,,,,0,124,,,,,,,,
207,631,0,1.46,1.89,,,,,,,,,0,124,,,,,,,,
208,633,0,1.45,1.87,,0.05,-0.34,0.73,1.0,-5.0,-6.0,0.34,0,124,,,,,,,,
209,635,0,1.44,1.87,,,,,,,,,0,124,,,,,,,,
210,637,0,1.44,1.86,,,,,,,,,0,124,,,,,,,,
211,639,0,1.41,1.83,,,,,,,,,0,124,,,,,,,,
212,641,0,1.43,1.85,,,,,,,,,0,124,,,,,,,,
213,643,0,1.44,1.87,,0.13,-0.34,0.78,0.0,-2.0,-1.0,0.36,0,124,0.0,0.0,0.0,0.0,0.0,0.0,0.0,0.0
214,645,0,1.45,1.87,,,,,,,,,0,124,,,,,,,,
215,647,0,1.45,1.86,,,,,,,,,0,124,,,,,,,,
216,649,0,1.41,1.83,,,,,,,,,0,124,,,,,,,,
217,651,0,1.43,1.85,,,,,,,,,0,124,,,,,,,,
218,653,0,1.45,1.87,,0.04,-0.25,1.01,1.0,-3.0,3.0,0.25,0,124,,,,,,,,
219,655,0,1.45,1.88,,,,,,,,,0,124,,,,,,,,
220,657,0,1.42,1.84,,,,,,,,,0,124,,,,,,,,
221,659,0,1.43,1.86,,,,,,,,,0,124,,,,,,,,
222,661,0,1.45,1.87,,,,,,,,,0,124,,,,,,,,
223,663,0,1.46,1.86,,0.1,-0.02,1.26,1.0,-1.0,6.0,0.1,0,124,0.0,,,,,,,
224,665,0,1.44,1.84,,,,,,,,,0,124,,,,,,,,
225,667,0,1.42,1.83,,,,,,,,,0,124,,,,,,,,
226,669,0,1.45,1.87,,,,,,,,,0,124,,,,,,,,
227,671,0,1.46,1.87,,,,,,,,,0,124,,,,,,,,
228,673,0,1.45,1.86,,0.2,0.01,1.18,3.0,-3.0,5.0,0.2,0,124,,,,,,,,
229,675,0,1.42,1.83,,,,,,,,,0,124,,,,,,,,
230,677,0,1.45,1.86,,,,,,,,,0,124,,,,,,,,
231,679,0,1.46,1.87,,,,,,,,,0,124,,,,,,,,
232,681,0,1.45,1.87,,,,,,,,,0,124,,,,,,,,
233,683,0,1.41,1.83,,0.1,0.12,1.23,4.0,-4.0,3.0,0.16,0,124,0.0,0.0,0.0,0.0,0.0,0.0,0.0,0.0
234,685,0,1.44,1.85,,,,,,,,,0,124,,,,,,,,
235,687,0,1.46,1.87,,,,,,,,,0,124,,,,,,,,
236,689,0,1.45,1.87,,,,,,,,,0,116,,,,,,,,
237,691,0,1.44,1.86,,,,,,,,,0,116,,,,,,,,
238,693,0,1.41,1.82,,0.09,0.1,1.16,4.0,-2.0,0.0,0.13,0,116,,,,,,,,
239,695,0,1.45,1.86,,,,,,,,,0,116,,,,,,,,
240,697,0,1.46,1.87,,,,,,,,,0,116,,,,,,,,
241,699,0,1.46,1.87,,,,,,,,,0,116,,,,,,,,
242,701,0,1.43,1.85,,,,,,,,,0,116,,,,,,,,
243,703,0,1.42,1.82,,0.19,0.09,1.01,3.0,-9.0,-2.0,0.21,0,116,0.0,,,,,,,
244,705,0,1.45,1.86,,,,,,,,,0,116,,,,,,,,
245,707,0,1.46,1.87,,,,,,,,,0,116,,,,,,,,
246,709,0,1.45,1.86,,,,,,,,,0,116,,,,,,,,
247,711,0,1.41,1.82,,,,,,,,,0,116,,,,,,,,
248,713,0,1.44,1.86,,0.15,0.09,1.04,2.0,2.0,-1.0,0.17,0,116,,,,,,,,
249,715,0,1.46,1.87,,,,,,,,,0,116,,,,,,,,
250,717,0,1.46,1.87,,,,,,,,,0,116,,,,,,,,
251,719,0,1.44,1.85,,,,,,,,,0,116,,,,,,,,
252,721,0,1.42,1.83,,,,,,,,,0,120,,,,,,,,
253,723,0,1.45,1.86,,0.1,-0.12,1.27,2.0,-2.0,1.0,0.16,0,120,0.0,0.0,0.0,0.0,0.0,0.0,0.0,0.0
254,725,0,1.46,1.87,,,,,,,,,0,120,,,,,,,,
255,727,0,1.46,1.86,,,,,,,,,0,120,,,,,,,,
256,729,0,1.44,1.83,,,,,,,,,0,120,,,,,,,,
257,731,0,1.43,1.85,,,,,,,,,0,120,,,,,,,,
258,733,0,1.42,1.83,,0.21,-0.17,1.22,1.0,-3.0,4.0,0.27,0,120,,,,,,,,
259,735,0,1.43,1.84,,,,,,,,,0,120,,,,,,,,
260,737,0,1.45,1.86,,,,,,,,,0,120,,,,,,,,
261,739,0,1.46,1.87,,,,,,,,,0,120,,,,,,,,
262,741,0,1.46,1.87,,,,,,,,,0,120,,,,,,,,
263,743,0,1.45,1.86,,0.3,-0.04,1.33,1.0,5.0,7.0,0.3,0,120,0.0,,,,,,,
264,745,0,1.42,1.83,,,,,,,,,0,120,,,,,,,,
265,747,0,1.44,1.85,,,,,,,,,0,120,,,,,,,,
266,749,0,1.46,1.87,,,,,,,,,0,120,,,,,,,,
267,751,0,1.46,1.87,,,,,,,,,0,120,,,,,,,,
268,753,0,1.46,1.87,,0.18,0.03,1.25,3.0,2.0,7.0,0.19,0,120,,,,,,,,
269,755,0,1.43,1.84,,,,,,,,,0,120,,,,,,,,
270,757,0,1.43,1.84,,,,,,,,,0,120,,,,,,,,
271,759,0,1.46,1.86,,,,,,,,,0,120,,,,,,,,
272,761,0,1.46,1.87,,,,,,,,,0,120,,,,,,,,
273,763,0,1.46,1.87,,0.02,0.07,1.19,1.0,9.0,9.0,0.08,0,120,0.0,0.0,0.0,0.0,0.0,0.0,0.0,0.0
274,765,0,1.44,1.85,,,,,,,,,0,120,,,,,,,,
275,767,0,1.42,1.83,,,,,,,,,0,120,,,,,,,,
276,769,0,1.45,1.86,,,,,,,,,0,120,,,,,,,,
277,771,0,1.46,1.87,,,,,,,,,0,120,,,,,,,,
278,773,0,1.45,1.86,,0.0,-0.01,0.85,3.0,3.0,9.0,0.01,0,120,,,,,,,,
279,775,0,1.41,1.83,,,,,,,,,0,120,,,,,,,,
280,777,0,1.43,1.84,,,,,,,,,0,120,,,,,,,,
281,779,0,1.45,1.86,,,,,,,,,0,120,,,,,,,,
282,781,0,1.45,1.87,,,,,,,,,0,120,,,,,,,,
283,783,0,1.45,1.87,,-0.19,-0.01,0.64,3.0,5.0,7.0,0.19,0,120,0.0,,,,,,,
284,785,0,1.44,1.86,,,,,,,,,0,120,,,,,,,,
285,787,0,1.41,1.83,,,,,,,,,0,120,,,,,,,,
286,789,0,1.41,1.83,,,,,,,,,0,124,,,,,,,,
287,791,0,1.44,1.86,,,,,,,,,0,124,,,,,,,,
288,793,0,1.45,1.87,,-0.3,-0.01,0.52,1.0,5.0,7.0,0.3,0,124,,,,,,,,
289,795,0,1.45,1.86,,,,,,,,,0,124,,,,,,,,
290,797,0,1.42,1.83,,,,,,,,,0,124,,,,,,,,
291,799,0,1.41,1.85,,,,,,,,,0,124,,,,,,,,
292,801,0,1.44,1.87,,,,,,,,,0,124,,,,,,,,
293,803,0,1.44,1.88,,-0.16,0.03,0.37,-1.0,-4.0,3.0,0.17,0,124,0.0,0.0,0.0,0.0,0.0,0.0,0.0,0.0
294,805,0,1.43,1.86,,,,,,,,,0,124,,,,,,,,
295,807,0,1.39,1.83,,,,,,,,,0,124,,,,,,,,
296,809,0,1.41,1.85,,,,,,,,,0,124,,,,,,,,
297,811,0,1.44,1.87,,,,,,,,,0,124,,,,,,,,
298,813,0,1.44,1.88,,-0.08,0.16,0.26,-1.0,-1.0,6.0,0.18,0,124,,,,,,,,
299,815,0,1.44,1.88,,,,,,,,,0,124,,,,,,,,
300,817,0,1.41,1.85,,,,,,,,,0,124,,,,,,,,
301,819,0,1.41,1.85,,,,,,,,,0,124,,,,,,,,
302,821,0,1.44,1.88,,,,,,,,,0,124,,,,,,,,
303,823,0,1.44,1.88,,-0.19,0.28,0.68,0.0,3.0,5.0,0.34,0,56,0.0,,,,,,,
304,825,0,1.43,1.87,,,,,,,,,0,56,,,,,,,,
305,827,0,1.4,1.83,,,,,,,,,0,56,,,,,,,,
306,829,0,1.43,1.86,,,,,,,,,0,56,,,,,,,,
307,831,0,1.44,1.88,,,,,,,,,0,56,,,,,,,,
308,833,0,1.44,1.88,,-0.0,0.22,0.67,2.0,-13.0,1.0,0.22,0,56,,,,,,,,
309,835,0,1.44,1.88,,,,,,,,,0,56,,,,,,,,
310,837,0,1.44,1.88,,,,,,,,,0,56,,,,,,,,
311,839,0,1.43,1.87,,,,,,,,,0,56,,,,,,,,
312,841,0,1.4,1.84,,,,,,,,,0,56,,,,,,,,
313,843,0,1.41,1.84,,0.08,0.09,0.69,1.0,-4.0,0.0,0.12,0,56,0.0,0.0,0.0,0.0,0.0,0.0,0.0,0.0
314,845,0,1.44,1.88,,,,,,,,,0,56,,,,,,,,
315,847,0,1.44,1.88,,,,,,,,,0,56,,,,,,,,
316,849,0,1.44,1.88,,,,,,,,,0,56,,,,,,,,
317,851,0,1.45,1.88,,,,,,,,,0,56,,,,,,,,
318,853,0,1.43,1.87,,0.03,0.08,0.99,2.0,-9.0,0.0,0.08,0,56,,,,,,,,
319,855,0,1.41,1.85,,,,,,,,,0,56,,,,,,,,
320,857,0,1.4,1.83,,,,,,,,,0,116,,,,,,,,
321,859,0,1.43,1.87,,,,,,,,,0,116,,,,,,,,
322,861,0,1.44,1.89,,,,,,,,,0,116,,,,,,,,
323,863,0,1.45,1.89,,0.06,0.11,1.19,1.0,-4.0,2.0,0.12,0,116,0.0,,,,,,,
324,865,0,1.45,1.89,,,,,,,,,0,116,,,,,,,,
325,867,0,1.43,1.87,,,,,,,,,0,116,,,,,,,,
326,869,0,1.41,1.85,,,,,,,,,0,116,,,,,,,,
327,871,0,1.42,1.85,,,,,,,,,0,116,,,,,,,,
328,873,0,1.44,1.88,,0.17,0.14,1.14,2.0,-10.0,1.0,0.22,0,116,,,,,,,,
329,875,0,1.45,1.9,,,,,,,,,0,116,,,,,,,,
330,877,0,1.46,1.9,,,,,,,,,0,116,,,,,,,,
331,879,0,1.46,1.9,,,,,,,,,0,116,,,,,,,,
332,881,0,1.45,1.9,,,,,,,,,0,116,,,,,,,,
333,883,0,1.44,1.89,,0.26,0.17,1.25,2.0,-3.0,0.0,0.3,0,116,0.0,0.0,0.0,0.0,0.0,0.0,0.0,0.0
334,885,0,1.43,1.88,,,,,,,,,0,116,,,,,,,,
335,887,0,1.42,1.86,,,,,,,,,0,116,,,,,,,,
336,889,0,1.43,1.87,,,,,,,,,0,116,,,,,,,,
337,891,0,1.45,1.9,,,,,,,,,0,112,,,,,,,,
338,893,0,1.46,1.91,,0.18,0.04,1.27,3.0,-3.0,0.0,0.19,0,112,,,,,,,,
339,895,0,1.47,1.91,,,,,,,,,0,112,,,,,,,,
340,897,0,1.47,1.91,,,,,,,,,0,112,,,,,,,,
341,899,0,1.47,1.91,,,,,,,,,0,112,,,,,,,,
342,901,0,1.46,1.91,,,,,,,,,0,112,,,,,,,,
343,903,0,1.46,1.9,,0.31,0.06,1.38,2.0,2.0,1.0,0.32,0,112,0.0,,,,,,,
344,905,0,1.46,1.9,,,,,,,,,0,112,,,,,,,,
345,907,0,1.44,1.88,,,,,,,,,0,112,,,,,,,,
346,909,0,1.43,1.87,,,,,,,,,0,112,,,,,,,,
347,911,0,1.46,1.9,,,,,,,,,0,112,,,,,,,,
348,913,0,1.47,1.91,,0.29,-0.01,1.28,3.0,5.0,3.0,0.29,0,112,,,,,,,,
349,915,0,1.48,1.92,,,,,,,,,0,112,,,,,,,,
350,917,0,1.48,1.92,,,,,,,,,0,112,,,,,,,,
351,919,0,1.48,1.92,,,,,,,,,0,112,,,,,,,,
352,921,0,1.46,1.9,,,,,,,,,0,112,,,,,,,,
353,923,0,1.44,1.87,,0.16,-0.14,1.27,3.0,4.0,4.0,0.21,0,112,0.0,0.0,0.0,0.0,0.0,0.0,0.0,0.0
354,925,0,1.45,1.88,,,,,,,,,0,112,,,,,,,,
355,927,0,1.47,1.92,,,,,,,,,0,112,,,,,,,,
356,929,0,1.48,1.92,,,,,,,,,0,112,,,,,,,,
357,931,0,1.48,1.92,,,,,,,,,0,112,,,,,,,,
358,933,0,1.48,1.89,,0.1,-0.11,1.29,2.0,9.0,7.0,0.15,0,112,,,,,,,,
359,935,0,1.43,1.86,,,,,,,,,0,112,,,,,,,,
360,937,0,1.44,1.88,,,,,,,,,0,112,,,,,,,,
361,939,0,1.44,1.87,,,,,,,,,0,112,,,,,,,,
362,941,0,1.46,1.89,,,,,,,,,0,112,,,,,,,,
363,943,0,1.48,1.91,,0.17,-0.07,1.14,2.0,11.0,9.0,0.18,0,112,0.0,,,,,,,
364,945,0,1.48,1.92,,,,,,,,,0,112,,,,,,,,
365,947,0,1.48,1.91,,,,,,,,,0,112,,,,,,,,
366,949,0,1.45,1.88,,,,,,,,,0,112,,,,,,,,
367,951,0,1.45,1.88,,,,,,,,,0,112,,,,,,,,
368,953,0,1.48,1.91,,0.15,0.01,1.18,3.0,12.0,10.0,0.15,0,112,,,,,,,,
369,955,0,1.49,1.92,,,,,,,,,0,112,,,,,,,,
370,957,0,1.49,1.91,,,,,,,,,0,112,,,,,,,,
371,959,0,1.48,1.9,,,,,,,,,0,112,,,,,,,,
372,961,0,1.45,1.87,,,,,,,,,0,112,,,,,,,,
373,963,0,1.46,1.89,,-0.09,-0.06,1.07,5.0,11.0,9.0,0.1,0,112,0.0,0.0,0.0,0.0,0.0,0.0,0.0,0.0
374,965,0,1.49,1.91,,,,,,,,,0,112,,,,,,,,
375,967,0,1.49,1.91,,,,,,,,,0,112,,,,,,,,
376,969,0,1.49,1.91,,,,,,,,,0,112,,,,,,,,
377,971,0,1.46,1.88,,,,,,,,,0,112,,,,,,,,
378,973,0,1.46,1.88,,0.02,0.01,1.01,4.0,7.0,7.0,0.02,0,112,,,,,,,,
379,975,0,1.49,1.91,,,,,,,,,0,112,,,,,,,,
380,977,0,1.49,1.91,,,,,,,,,0,112,,,,,,,,
381,979,0,1.49,1.91,,,,,,,,,0,112,,,,,,,,
382,981,0,1.47,1.89,,,,,,,,,0,112,,,,,,,,
383,983,0,1.44,1.86,,-0.02,0.19,0.83,3.0,13.0,5.0,0.2,0,112,0.0,,,,,,,
384,985,0,1.47,1.89,,,,,,,,,0,112,,,,,,,,
385,987,0,1.49,1.91,,,,,,,,,0,112,,,,,,,,
386,989,0,1.48,1.91,,,,,,,,,0,112,,,,,,,,
387,991,0,1.48,1.92,,,,,,,,,0,112,,,,,,,,
388,993,0,1.45,1.88,,-0.17,0.18,0.89,5.0,6.0,2.0,0.24,0,112,,,,,,,,
389,995,0,1.45,1.9,,,,,,,,,0,112,,,,,,,,
390,997,0,1.48,1.91,,,,,,,,,0,112,,,,,,,,
391,999,0,1.49,1.92,,,,,,,,,0,112,,,,,,,,
392,1001,0,1.49,1.91,,,,,,,,,0,112,,,,,,,,
393,1003,0,1.48,1.9,,-0.18,0.18,0.86,4.0,5.0,-1.0,0.25,0,112,0.0,0.0,0.0,0.0,0.0,0.0,0.0,0.0
394,1005,0,1.44,1.87,,,,,,,,,0,112,,,,,,,,
395,1007,0,1.46,1.89,,,,,,,,,0,112,,,,,,,,
396,1009,0,1.48,1.91,,,,,,,,,0,112,,,,,,,,
397,1011,0,1.49,1.91,,,,,,,,,0,112,,,,,,,,
398,1013,0,1.49,1.91,,-0.02,0.06,0.68,4.0,-3.0,-4.0,0.06,0,112,,,,,,,,
399,1015,0,1.45,1.87,,,,,,,,,0,112,,,,,,,,
400,1017,0,1.47,1.89,,,,,,,,,0,112,,,,,,,,
401,1019,0,1.48,1.91,,,,,,,,,0,112,,,,,,,,
402,1021,0,1.48,1.91,,,,,,,,,0,112,,,,,,,,
403,1023,0,1.46,1.88,,0.03,0.12,0.76,3.0,6.0,-2.0,0.12,0,112,0.0,,,,,,,
404,1025,0,1.44,1.86,,,,,,,,,0,112,,,,,,,,
405,1027,0,1.46,1.88,,,,,,,,,0,112,,,,,,,,
406,1029,0,1.48,1.9,,,,,,,,,0,112,,,,,,,,
407,1031,0,1.49,1.9,,,,,,,,,0,112,,,,,,,,
408,1033,0,1.49,1.9,,-0.19,0.03,0.78,5.0,-4.0,-2.0,0.19,0,56,,,,,,,,
409,1035,0,1.47,1.89,,,,,,,,,0,56,,,,,,,,
410,1037,0,1.44,1.85,,,,,,,,,0,56,,,,,,,,
411,1039,0,1.46,1.88,,,,,,,,,0,56,,,,,,,,
412,1041,0,1.44,1.86,,,,,,,,,0,56,,,,,,,,
413,1043,0,1.46,1.88,13.15,-0.06,0.02,0.88,4.0,-4.0,0.0,0.07,0,56,0.0,0.0,0.0,0.0,0.0,0.0,0.0,0.0
414,1045,0,1.48,1.9,,,,,,,,,0,56,,,,,,,,
415,1047,0,1.49,1.9,,,,,,,,,0,56,,,,,,,,
416,1049,0,1.48,1.9,,,,,,,,,0,56,,,,,,,,
417,1051,0,1.46,1.88,,,,,,,,,0,56,,,,,,,,
418,1053,0,1.44,1.86,,0.05,0.09,0.86,4.0,-8.0,0.0,0.11,0,56,,,,,,,,
419,1055,0,1.47,1.89,,,,,,,,,0,56,,,,,,,,
420,1057,0,1.49,1.9,,,,,,,,,0,56,,,,,,,,
421,1059,0,1.48,1.9,,,,,,,,,0,56,,,,,,,,
422,1061,0,1.47,1.87,,,,,,,,,0,56,,,,,,,,
423,1063,0,1.44,1.87,,-0.06,0.0,1.06,4.0,-4.0,1.0,0.06,0,56,0.0,,,,,,,
424,1065,0,1.48,1.9,,,,,,,,,0,56,,,,,,,,
425,1067,0,1.49,1.9,,,,,,,,,0,56,,,,,,,,
426,1069,0,1.47,1.9,,,,,,,,,0,112,,,,,,,,
427,1071,0,1.45,1.87,,,,,,,,,0,112,,,,,,,,
428,1073,0,1.44,1.86,,-0.01,0.04,1.21,3.0,-6.0,1.0,0.04,0,112,,,,,,,,
429,1075,0,1.47,1.89,,,,,,,,,0,112,,,,,,,,
430,1077,0,1.49,1.91,,,,,,,,,0,112,,,,,,,,
431,1079,0,1.49,1.91,,,,,,,,,0,112,,,,,,,,
432,1081,0,1.49,1.91,,,,,,,,,0,112,,,,,,,,
433,1083,0,1.46,1.89,,0.14,0.01,1.17,2.0,-9.0,0.0,0.14,0,112,0.0,0.0,0.0,0.0,0.0,0.0,0.0,0.0
434,1085,0,1.45,1.87,,,,,,,,,0,112,,,,,,,,
435,1087,0,1.48,1.91,,,,,,,,,0,112,,,,,,,,
436,1089,0,1.49,1.92,,,,,,,,,0,112,,,,,,,,
437,1091,0,1.49,1.91,,,,,,,,,0,112,,,,,,,,
438,1093,0,1.49,1.92,,0.29,0.18,1.31,1.0,0.0,0.0,0.34,0,112,,,,,,,,
439,1095,0,1.49,1.92,,,,,,,,,0,112,,,,,,,,
440,1097,0,1.47,1.9,,,,,,,,,0,112,,,,,,,,
441,1099,0,1.45,1.87,,,,,,,,,0,112,,,,,,,,
442,1101,0,1.48,1.91,,,,,,,,,0,112,,,,,,,,
443,1103,0,1.49,1.92,,0.21,0.14,1.36,3.0,3.0,-1.0,0.25,0,112,0.0,,,,,,,
444,1105,0,1.5,1.92,,,,,,,,,0,112,,,,,,,,
445,1107,0,1.5,1.92,,,,,,,,,0,108,,,,,,,,
446,1109,0,1.49,1.92,,,,,,,,,0,108,,,,,,,,
447,1111,0,1.46,1.89,,,,,,,,,0,108,,,,,,,,
448,1113,0,1.45,1.88,,0.32,0.06,1.49,2.0,5.0,0.0,0.33,0,108,,,,,,,,
449,1115,0,1.47,1.9,,,,,,,,,0,108,,,,,,,,
450,1117,0,1.5,1.92,,,,,,,,,0,108,,,,,,,,
451,1119,0,1.5,1.92,,,,,,,,,0,108,,,,,,,,
452,1121,0,1.5,1.92,,,,,,,,,0,108,,,,,,,,
453,1123,0,1.49,1.91,,0.36,-0.04,1.24,4.0,8.0,0.0,0.36,0,108,0.0,0.0,0.0,0.0,0.0,0.0,0.0,0.0
454,1125,0,1.46,1.88,,,,,,,,,0,108,,,,,,,,
455,1127,0,1.46,1.88,,,,,,,,,0,108,,,,,,,,
456,1129,0,1.49,1.92,,,,,,,,,0,108,,,,,,,,
457,1131,0,1.49,1.92,,,,,,,,,0,108,,,,,,,,
458,1133,0,1.49,1.9,,0.19,-0.04,1.35,3.0,17.0,2.0,0.2,0,108,,,,,,,,
459,1135,0,1.45,1.87,,,,,,,,,0,108,,,,,,,,
460,1137,0,1.47,1.88,,,,,,,,,0,108,,,,,,,,
461,1139,0,1.49,1.9,,,,,,,,,0,108,,,,,,,,
462,1141,0,1.49,1.91,,,,,,,,,0,108,,,,,,,,
463,1143,0,1.47,1.88,,0.01,-0.02,1.24,3.0,14.0,2.0,0.02,0,108,0.0,,,,,,,
464,1145,0,1.49,1.91,,,,,,,,,0,108,,,,,,,,
465,1147,0,1.49,1.91,,,,,,,,,0,108,,,,,,,,
466,1149,0,1.49,1.91,,,,,,,,,0,108,,,,,,,,
467,1151,0,1.48,1.9,,,,,,,,,0,108,,,,,,,,
468,1153,0,1.46,1.88,,-0.0,-0.04,1.0,1.0,12.0,0.0,0.04,0,108,,,,,,,,
469,1155,0,1.45,1.86,,,,,,,,,0,108,,,,,,,,
470,1157,0,1.48,1.9,,,,,,,,,0,108,,,,,,,,
471,1159,0,1.49,1.91,,,,,,,,,0,108,,,,,,,,
472,1161,0,1.49,1.91,,,,,,,,,0,108,,,,,,,,
473,1163,0,1.47,1.89,,0.01,0.3,0.87,1.0,18.0,-1.0,0.3,0,108,0.0,0.0,0.0,0.0,0.0,0.0,0.0,0.0
474,1165,0,1.44,1.85,,,,,,,,,0,108,,,,,,,,
475,1167,0,1.47,1.88,,,,,,,,,0,108,,,,,,,,
476,1169,0,1.49,1.9,,,,,,,,,0,108,,,,,,,,
477,1171,0,1.48,1.9,,,,,,,,,0,108,,,,,,,,
478,1173,0,1.48,1.9,,-0.1,0.2,0.78,2.0,11.0,-5.0,0.23,0,108,,,,,,,,
479,1175,0,1.46,1.88,,,,,,,,,0,108,,,,,,,,
480,1177,0,1.44,1.85,,,,,,,,,0,108,,,,,,,,
481,1179,0,1.48,1.89,,,,,,,,,0,108,,,,,,,,
482,1181,0,1.48,1.9,,,,,,,,,0,108,,,,,,,,
483,1183,0,1.47,1.88,,-0.24,0.03,0.61,1.0,11.0,-3.0,0.24,0,108,0.0,,,,,,,
484,1185,0,1.45,1.86,,,,,,,,,0,108,,,,,,,,
485,1187,0,1.48,1.89,,,,,,,,,0,108,,,,,,,,
486,1189,0,1.48,1.89,,,,,,,,,0,108,,,,,,,,
487,1191,0,1.46,1.88,,,,,,,,,0,108,,,,,,,,
488,1193,0,1.44,1.85,,-0.07,-0.0,0.59,0.0,4.0,-3.0,0.07,0,108,,,,,,,,
489,1195,0,1.47,1.89,,,,,,,,,0,108,,,,,,,,
490,1197,0,1.48,1.89,,,,,,,,,0,108,,,,,,,,
491,1199,0,1.47,1.87,,,,,,,,,0,108,,,,,,,,
492,1201,0,1.43,1.85,,,,,,,,,0,108,,,,,,,,
493,1203,0,1.48,1.88,,-0.04,0.02,0.48,0.0,7.0,-2.0,0.05,0,108,0.0,0.0,0.0,0.0,0.0,0.0,0.0,0.0
494,1205,0,1.48,1.89,,,,,,,,,0,108,,,,,,,,
495,1207,0,1.44,1.85,,,,,,,,,0,108,,,,,,,,
496,1209,0,1.46,1.87,,,,,,,,,0,108,,,,,,,,
497,1211,0,1.48,1.88,,,,,,,,,0,108,,,,,,,,
498,1213,0,1.48,1.88,,-0.16,0.04,0.85,0.0,6.0,-1.0,0.17,0,108,,,,,,,,
499,1215,0,1.44,1.84,,,,,,,,,0,108,,,,,,,,
500,1217,0,1.47,1.87,,,,,,,,,0,52,,,,,,,,
501,1219,0,1.48,1.88,,,,,,,,,0,52,,,,,,,,
502,1221,0,1.47,1.88,,,,,,,,,0,52,,,,,,,,
503,1223,0,1.46,1.86,,-0.01,-0.03,0.92,0.0,0.0,0.0,0.03,0,52,0.0,,,,,,,
504,1225,0,1.45,1.84,,,,,,,,,0,52,,,,,,,,
505,1227,0,1.48,1.88,,,,,,,,,0,52,,,,,,,,
506,1229,0,1.47,1.87,,,,,,,,,0,52,,,,,,,,
507,1231,0,1.43,1.83,,,,,,,,,0,52,,,,,,,,
508,1233,0,1.47,1.86,,0.12,-0.05,0.94,-1.0,3.0,3.0,0.13,0,52,,,,,,,,
509,1235,0,1.48,1.87,,,,,,,,,0,52,,,,,,,,
510,1237,0,1.47,1.86,,,,,,,,,0,52,,,,,,,,
511,1239,0,1.43,1.82,,,,,,,,,0,52,,,,,,,,
512,1241,0,1.47,1.86,,,,,,,,,0,52,,,,,,,,
513,1243,0,1.47,1.86,,0.09,0.02,1.19,-1.0,3.0,4.0,0.09,0,52,0.0,0.0,0.0,0.0,0.0,0.0,0.0,0.0
514,1245,0,1.48,1.86,,,,,,,,,0,52,,,,,,,,
515,1247,0,1.47,1.86,,,,,,,,,0,52,,,,,,,,
516,1249,0,1.43,1.82,,,,,,,,,0,52,,,,,,,,
517,1251,0,1.47,1.86,,,,,,,,,0,52,,,,,,,,
518,1253,0,1.48,1.86,,-0.08,-0.1,1.11,-1.0,-1.0,5.0,0.13,0,52,,,,,,,,
519,1255,0,1.45,1.83,,,,,,,,,0,108,,,,,,,,
520,1257,0,1.46,1.84,,,,,,,,,0,108,,,,,,,,
521,1259,0,1.48,1.86,,,,,,,,,0,108,,,,,,,,
522,1261,0,1.48,1.87,,,,,,,,,0,108,,,,,,,,
523,1263,0,1.45,1.82,,0.09,-0.05,1.18,-2.0,2.0,7.0,0.1,0,108,0.0,,,,,,,
524,1265,0,1.44,1.84,,,,,,,,,0,108,,,,,,,,
525,1267,0,1.47,1.86,,,,,,,,,0,108,,,,,,,,
526,1269,0,1.48,1.86,,,,,,,,,0,108,,,,,,,,
527,1271,0,1.45,1.84,,,,,,,,,0,108,,,,,,,,
528,1273,0,1.45,1.83,,0.15,0.06,1.03,-2.0,1.0,7.0,0.16,0,108,,,,,,,,
529,1275,0,1.48,1.86,,,,,,,,,0,108,,,,,,,,
530,1277,0,1.48,1.86,,,,,,,,,0,108,,,,,,,,
531,1279,0,1.46,1.85,,,,,,,,,0,108,,,,,,,,
532,1281,0,1.44,1.82,,,,,,,,,0,108,,,,,,,,
533,1283,0,1.47,1.85,,-0.0,0.03,1.22,-2.0,7.0,7.0,0.03,0,108,0.0,0.0,0.0,0.0,0.0,0.0,0.0,0.0
534,1285,0,1.48,1.86,,,,,,,,,0,108,,,,,,,,
535,1287,0,1.46,1.85,,,,,,,,,0,108,,,,,,,,
536,1289,0,1.44,1.82,,,,,,,,,0,108,,,,,,,,
537,1291,0,1.47,1.86,,,,,,,,,0,108,,,,,,,,
538,1293,0,1.47,1.86,,-0.09,0.19,1.1,-1.0,1.0,5.0,0.21,0,104,,,,,,,,
539,1295,0,1.47,1.85,,,,,,,,,0,104,,,,,,,,
540,1297,0,1.43,1.81,,,,,,,,,0,104,,,,,,,,
541,1299,0,1.47,1.86,,,,,,,,,0,104,,,,,,,,
542,1301,0,1.47,1.86,,,,,,,,,0,104,,,,,,,,
543,1303,0,1.47,1.85,,-0.03,0.08,0.98,0.0,2.0,5.0,0.08,0,104,0.0,,,,,,,
544,1305,0,1.43,1.82,,,,,,,,,0,104,,,,,,,,
545,1307,0,1.47,1.85,,,,,,,,,0,104,,,,,,,,
546,1309,0,1.47,1.86,,,,,,,,,0,104,,,,,,,,
547,1311,0,1.45,1.84,,,,,,,,,0,104,,,,,,,,
548,1313,0,1.45,1.83,,0.02,0.08,0.9,-1.0,7.0,5.0,0.08,0,104,,,,,,,,
549,1315,0,1.47,1.86,,,,,,,,,0,104,,,,,,,,
550,1317,0,1.48,1.87,,,,,,,,,0,104,,,,,,,,
551,1319,0,1.44,1.83,,,,,,,,,0,104,,,,,,,,
552,1321,0,1.46,1.85,,,,,,,,,0,104,,,,,,,,
553,1323,0,1.47,1.86,,-0.09,0.18,0.97,0.0,0.0,2.0,0.21,0,104,0.0,0.0,0.0,0.0,0.0,0.0,0.0,0.0
554,1325,0,1.47,1.86,,,,,,,,,0,104,,,,,,,,
555,1327,0,1.43,1.83,,,,,,,,,0,104,,,,,,,,
556,1329,0,1.46,1.85,,,,,,,,,0,104,,,,,,,,
557,1331,0,1.48,1.86,,,,,,,,,0,104,,,,,,,,
558,1333,0,1.44,1.82,,-0.13,0.34,1.0,0.0,4.0,-1.0,0.36,0,104,,,,,,,,
559,1335,0,1.47,1.86,,,,,,,,,0,104,,,,,,,,
560,1337,0,1.47,1.86,,,,,,,,,0,104,,,,,,,,
561,1339,0,1.44,1.81,,,,,,,,,0,104,,,,,,,,
562,1341,0,1.47,1.86,,,,,,,,,0,104,,,,,,,,
563,1343,0,1.47,1.86,,0.05,0.24,1.05,0.0,-2.0,-5.0,0.25,0,104,0.0,,,,,,,
564,1345,0,1.43,1.82,,,,,,,,,0,104,,,,,,,,
565,1347,0,1.47,1.86,,,,,,,,,0,104,,,,,,,,
566,1349,0,1.46,1.85,,,,,,,,,0,104,,,,,,,,
567,1351,0,1.43,1.82,,,,,,,,,0,104,,,,,,,,
568,1353,0,1.47,1.85,,0.11,0.18,0.85,0.0,2.0,-7.0,0.21,0,104,,,,,,,,
569,1355,0,1.47,1.86,,,,,,,,,0,104,,,,,,,,
570,1357,0,1.44,1.84,,,,,,,,,0,104,,,,,,,,
571,1359,0,1.42,1.81,,,,,,,,,0,104,,,,,,,,
572,1361,0,1.46,1.85,,,,,,,,,0,104,,,,,,,,
573,1363,0,1.47,1.86,,-0.16,0.16,1.03,1.0,3.0,-7.0,0.23,0,104,0.0,0.0,0.0,0.0,0.0,0.0,0.0,0.0
574,1365,0,1.45,1.85,,,,,,,,,0,104,,,,,,,,
575,1367,0,1.42,1.81,,,,,,,,,0,104,,,,,,,,
576,1369,0,1.46,1.86,,,,,,,,,0,104,,,,,,,,
577,1371,0,1.47,1.86,,,,,,,,,0,96,,,,,,,,
578,1373,0,1.47,1.86,,-0.07,0.08,0.94,-1.0,0.0,-8.0,0.11,0,96,,,,,,,,
579,1375,0,1.45,1.84,,,,,,,,,0,96,,,,,,,,
580,1377,0,1.42,1.81,,,,,,,,,0,96,,,,,,,,
581,1379,0,1.46,1.85,,,,,,,,,0,96,,,,,,,,
582,1381,0,1.46,1.86,,,,,,,,,0,96,,,,,,,,
583,1383,0,1.46,1.86,,-0.03,0.04,0.81,-1.0,-3.0,-7.0,0.04,0,96,0.0,,,,,,,
584,1385,0,1.44,1.84,,,,,,,,,0,96,,,,,,,,
585,1387,0,1.42,1.81,,,,,,,,,0,96,,,,,,,,
586,1389,0,1.45,1.85,,,,,,,,,0,96,,,,,,,,
587,1391,0,1.46,1.86,,,,,,,,,0,96,,,,,,,,
588,1393,0,1.46,1.87,,-0.01,0.1,0.77,0.0,2.0,-6.0,0.1,0,96,,,,,,,,
589,1395,0,1.46,1.85,,,,,,,,,0,96,,,,,,,,
590,1397,0,1.42,1.81,,,,,,,,,0,96,,,,,,,,
591,1399,0,1.43,1.82,,,,,,,,,0,96,,,,,,,,
592,1401,0,1.46,1.86,,,,,,,,,0,96,,,,,,,,
593,1403,0,1.46,1.86,,-0.07,0.14,0.91,1.0,-2.0,-7.0,0.15,0,96,0.0,0.0,0.0,0.0,0.0,0.0,0.0,0.0
594,1405,0,1.46,1.86,,,,,,,,,0,96,,,,,,,,
595,1407,0,1.43,1.83,,,,,,,,,0,96,,,,,,,,
596,1409,0,1.41,1.82,,,,,,,,,0,96,,,,,,,,
597,1411,0,1.45,1.85,,,,,,,,,0,104,,,,,,,,
598,1413,0,1.46,1.86,,0.02,0.13,1.0,0.0,0.0,-7.0,0.13,0,104,,,,,,,,
599,1415,0,1.46,1.86,,,,,,,,,0,104,,,,,,,,
600,1417,0,1.45,1.85,,,,,,,,,0,104,,,,,,,,
601,1419,0,1.41,1.81,,,,,,,,,0,104,,,,,,,,
602,1421,0,1.45,1.84,,,,,,,,,0,104,,,,,,,,
603,1423,0,1.46,1.86,,0.09,0.09,0.92,2.0,-5.0,-7.0,0.13,0,104,0.0,,,,,,,
604,1425,0,1.46,1.86,,,,,,,,,0,104,,,,,,,,
605,1427,0,1.43,1.83,,,,,,,,,0,104,,,,,,,,
606,1429,0,1.43,1.82,,,,,,,,,0,104,,,,,,,,
607,1431,0,1.45,1.85,,,,,,,,,0,104,,,,,,,,
608,1433,0,1.45,1.85,,0.04,0.08,0.95,0.0,2.0,-7.0,0.09,0,104,,,,,,,,
609,1435,0,1.45,1.85,,,,,,,,,0,104,,,,,,,,
610,1437,0,1.42,1.81,,,,,,,,,0,104,,,,,,,,
611,1439,0,1.43,1.82,,,,,,,,,0,104,,,,,,,,
612,1441,0,1.45,1.85,,,,,,,,,0,104,,,,,,,,
613,1443,0,1.45,1.85,,-0.15,0.13,0.98,1.0,-6.0,-9.0,0.2,0,104,0.0,0.0,0.0,0.0,0.0,0.0,0.0,0.0
614,1445,0,1.45,1.86,,,,,,,,,0,104,,,,,,,,
615,1447,0,1.44,1.84,,,,,,,,,0,104,,,,,,,,
616,1449,0,1.4,1.8,,,,,,,,,0,96,,,,,,,,
617,1451,0,1.44,1.84,,,,,,,,,0,96,,,,,,,,
618,1453,0,1.44,1.85,,-0.16,0.15,0.84,1.0,-3.0,-8.0,0.22,0,96,,,,,,,,
619,1455,0,1.45,1.85,,,,,,,,,0,96,,,,,,,,
620,1457,0,1.44,1.85,,,,,,,,,0,96,,,,,,,,
621,1459,0,1.41,1.81,,,,,,,,,0,96,,,,,,,,
622,1461,0,1.42,1.81,,,,,,,,,0,96,,,,,,,,
623,1463,0,1.44,1.85,,-0.1,0.16,0.61,0.0,-12.0,-9.0,0.19,0,96,0.0,,,,,,,
624,1465,0,1.44,1.85,,,,,,,,,0,96,,,,,,,,
625,1467,0,1.43,1.82,,,,,,,,,0,96,,,,,,,,
626,1469,0,1.39,1.8,,,,,,,,,0,96,,,,,,,,
627,1471,0,1.44,1.84,,,,,,,,,0,96,,,,,,,,
628,1473,0,1.44,1.85,,-0.14,0.07,0.54,1.0,-1.0,-9.0,0.16,0,96,,,,,,,,
629,1475,0,1.4,1.81,,,,,,,,,0,96,,,,,,,,
630,1477,0,1.43,1.84,,,,,,,,,0,96,,,,,,,,
631,1479,0,1.44,1.85,,,,,,,,,0,96,,,,,,,,
632,1481,0,1.44,1.82,,,,,,,,,0,96,,,,,,,,
633,1483,0,1.38,1.79,,-0.34,-0.01,0.74,1.0,-16.0,-9.0,0.34,0,96,0.0,0.0,0.0,0.0,0.0,0.0,0.0,0.0
634,1485,0,1.43,1.85,,,,,,,,,0,96,,,,,,,,
635,1487,0,1.43,1.83,,,,,,,,,0,96,,,,,,,,
636,1489,0,1.39,1.8,,,,,,,,,0,96,,,,,,,,
637,1491,0,1.45,1.86,,,,,,,,,0,96,,,,,,,,
638,1493,0,1.44,1.85,,-0.11,-0.14,0.62,-2.0,-13.0,-6.0,0.18,0,96,,,,,,,,
639,1495,0,1.44,1.85,,,,,,,,,0,96,,,,,,,,
640,1497,0,1.43,1.84,,,,,,,,,0,96,,,,,,,,
641,1499,0,1.4,1.81,,,,,,,,,0,96,,,,,,,,
642,1501,0,1.41,1.82,,,,,,,,,0,96,,,,,,,,
643,1503,0,1.44,1.84,,0.01,-0.14,0.8,-1.0,-14.0,-2.0,0.14,0,96,0.0,,,,,,,
644,1505,0,1.44,1.85,,,,,,,,,0,96,,,,,,,,
645,1507,0,1.44,1.85,,,,,,,,,0,96,,,,,,,,
646,1509,0,1.43,1.84,,,,,,,,,0,96,,,,,,,,
647,1511,0,1.41,1.82,,,,,,,,,0,96,,,,,,,,
648,1513,0,1.41,1.81,,0.07,-0.1,0.8,0.0,-10.0,2.0,0.12,0,96,,,,,,,,
649,1515,0,1.43,1.84,,,,,,,,,0,96,,,,,,,,
650,1517,0,1.44,1.85,,,,,,,,,0,96,,,,,,,,
651,1519,0,1.45,1.86,,,,,,,,,0,96,,,,,,,,
652,1521,0,1.44,1.86,,,,,,,,,0,96,,,,,,,,
653,1523,0,1.44,1.85,,-0.19,-0.15,1.2,1.0,-12.0,6.0,0.24,0,96,0.0,0.0,0.0,0.0,0.0,0.0,0.0,0.0
654,1525,0,1.43,1.84,,,,,,,,,0,96,,,,,,,,
655,1527,0,1.41,1.82,,,,,,,,,0,96,,,,,,,,
656,1529,0,1.4,1.81,,,,,,,,,0,96,,,,,,,,
657,1531,0,1.43,1.85,,,,,,,,,0,96,,,,,,,,
658,1533,0,1.45,1.86,,0.1,0.0,1.1,0.0,-20.0,8.0,0.1,0,96,,,,,,,,
659,1535,0,1.45,1.86,,,,,,,,,0,96,,,,,,,,
660,1537,0,1.45,1.85,,,,,,,,,0,96,,,,,,,,
661,1539,0,1.43,1.82,,,,,,,,,0,96,,,,,,,,
662,1541,0,1.41,1.81,,,,,,,,,0,96,,,,,,,,
663,1543,0,1.44,1.85,,0.19,0.0,1.15,2.0,-4.0,9.0,0.19,0,96,0.0,,,,,,,
664,1545,0,1.45,1.86,,,,,,,,,0,96,,,,,,,,
665,1547,0,1.45,1.86,,,,,,,,,0,96,,,,,,,,
666,1549,0,1.44,1.85,,,,,,,,,0,96,,,,,,,,
667,1551,0,1.43,1.84,,,,,,,,,0,96,,,,,,,,
668,1553,0,1.4,1.81,,0.13,-0.01,1.34,2.0,-9.0,6.0,0.13,0,96,,,,,,,,
669,1555,0,1.41,1.82,,,,,,,,,0,96,,,,,,,,
670,1557,0,1.44,1.85,,,,,,,,,0,96,,,,,,,,
671,1559,0,1.45,1.86,,,,,,,,,0,96,,,,,,,,
672,1561,0,1.45,1.86,,,,,,,,,0,96,,,,,,,,
673,1563,0,1.44,1.85,,0.11,0.04,1.24,2.0,-7.0,5.0,0.12,0,96,0.0,0.0,0.0,0.0,0.0,0.0,0.0,0.0
674,1565,0,1.43,1.84,,,,,,,,,0,96,,,,,,,,
675,1567,0,1.4,1.81,,,,,,,,,0,96,,,,,,,,
676,1569,0,1.44,1.84,,,,,,,,,0,96,,,,,,,,
677,1571,0,1.45,1.86,,,,,,,,,0,96,,,,,,,,
678,1573,0,1.45,1.86,,0.15,0.21,1.3,2.0,-3.0,1.0,0.25,0,96,,,,,,,,
679,1575,0,1.44,1.85,,,,,,,,,0,96,,,,,,,,
680,1577,0,1.41,1.82,,,,,,,,,0,96,,,,,,,,
681,1579,0,1.41,1.81,,,,,,,,,0,96,,,,,,,,
682,1581,0,1.44,1.84,,,,,,,,,0,96,,,,,,,,
683,1583,0,1.45,1.86,,0.18,0.27,1.23,3.0,-7.0,-4.0,0.33,0,96,0.0,,,,,,,
684,1585,0,1.45,1.85,,,,,,,,,0,96,,,,,,,,
685,1587,0,1.45,1.86,,,,,,,,,0,96,,,,,,,,
686,1589,0,1.44,1.85,,,,,,,,,0,96,,,,,,,,
687,1591,0,1.42,1.83,,,,,,,,,0,96,,,,,,,,
688,1593,0,1.41,1.81,,0.14,0.21,1.14,2.0,0.0,-7.0,0.26,0,96,,,,,,,,
689,1595,0,1.44,1.84,,,,,,,,,0,96,,,,,,,,
690,1597,0,1.45,1.85,,,,,,,,,0,96,,,,,,,,
691,1599,0,1.45,1.85,,,,,,,,,0,96,,,,,,,,
692,1601,0,1.43,1.82,,,,,,,,,0,96,,,,,,,,
693,1603,0,1.4,1.82,,-0.01,0.08,1.24,3.0,-6.0,-9.0,0.08,0,96,0.0,0.0,0.0,0.0,0.0,0.0,0.0,0.0
694,1605,0,1.45,1.85,,,,,,,,,0,96,,,,,,,,
695,1607,0,1.45,1.85,,,,,,,,,0,96,,,,,,,,
696,1609,0,1.45,1.84,,,,,,,,,0,96,,,,,,,,
697,1611,0,1.4,1.8,,,,,,,,,0,96,,,,,,,,
698,1613,0,1.43,1.83,,-0.01,0.01,1.14,1.0,-1.0,-5.0,0.01,0,96,,,,,,,,
699,1615,0,1.45,1.85,,,,,,,,,0,100,,,,,,,,
700,1617,0,1.45,1.85,,,,,,,,,0,100,,,,,,,,
701,1619,0,1.45,1.85,,,,,,,,,0,100,,,,,,,,
702,1621,0,1.42,1.82,,,,,,,,,0,100,,,,,,,,
703,1623,0,1.42,1.81,,0.11,-0.08,1.13,2.0,-8.0,-3.0,0.14,0,100,0.0,,,,,,,
704,1625,0,1.45,1.85,,,,,,,,,0,100,,,,,,,,
705,1627,0,1.41,1.8,,,,,,,,,0,100,,,,,,,,
706,1629,0,1.44,1.84,,,,,,,,,0,100,,,,,,,,
707,1631,0,1.45,1.85,,,,,,,,,0,100,,,,,,,,
708,1633,0,1.45,1.85,,0.05,-0.12,0.95,2.0,0.0,3.0,0.14,0,100,,,,,,,,
709,1635,0,1.44,1.84,,,,,,,,,0,100,,,,,,,,
710,1637,0,1.41,1.81,,,,,,,,,0,100,,,,,,,,
711,1639,0,1.42,1.81,,,,,,,,,0,100,,,,,,,,
712,1641,0,1.45,1.85,,,,,,,,,0,100,,,,,,,,
713,1643,0,1.45,1.85,,-0.02,-0.19,1.1,2.0,-6.0,7.0,0.19,0,100,0.0,0.0,0.0,0.0,0.0,0.0,0.0,0.0
714,1645,0,1.45,1.85,,,,,,,,,0,100,,,,,,,,
715,1647,0,1.43,1.83,,,,,,,,,0,100,,,,,,,,
716,1649,0,1.4,1.8,,,,,,,,,0,100,,,,,,,,
717,1651,0,1.43,1.83,,,,,,,,,0,100,,,,,,,,
718,1653,0,1.45,1.85,,-0.02,-0.13,0.92,1.0,-1.0,11.0,0.13,0,100,,,,,,,,
719,1655,0,1.45,1.85,,,,,,,,,0,100,,,,,,,,
720,1657,0,1.43,1.83,,,,,,,,,0,100,,,,,,,,
721,1659,0,1.41,1.81,,,,,,,,,0,100,,,,,,,,
722,1661,0,1.43,1.83,,,,,,,,,0,100,,,,,,,,
723,1663,0,1.44,1.85,,0.1,-0.06,1.07,1.0,-3.0,11.0,0.11,0,100,0.0,,,,,,,
724,1665,0,1.45,1.85,,,,,,,,,0,100,,,,,,,,
725,1667,0,1.45,1.84,,,,,,,,,0,100,,,,,,,,
726,1669,0,1.42,1.82,,,,,,,,,0,100,,,,,,,,
727,1671,0,1.41,1.83,,,,,,,,,0,100,,,,,,,,
728,1673,0,1.44,1.85,,0.1,-0.01,0.86,1.0,-2.0,9.0,0.1,0,100,,,,,,,,
729,1675,0,1.45,1.86,,,,,,,,,0,100,,,,,,,,
730,1677,0,1.44,1.85,,,,,,,,,0,100,,,,,,,,
731,1679,0,1.42,1.83,,,,,,,,,0,100,,,,,,,,
732,1681,0,1.4,1.8,,,,,,,,,0,100,,,,,,,,
733,1683,0,1.42,1.83,,-0.06,0.11,1.1,1.0,2.0,7.0,0.13,0,100,0.0,0.0,0.0,0.0,0.0,0.0,0.0,0.0
734,1685,0,1.44,1.85,,,,,,,,,0,100,,,,,,,,
735,1687,0,1.45,1.86,,,,,,,,,0,100,,,,,,,,
736,1689,0,1.45,1.86,,,,,,,,,0,100,,,,,,,,
737,1691,0,1.45,1.86,,,,,,,,,0,100,,,,,,,,
738,1693,0,1.43,1.84,,-0.03,0.27,0.96,1.0,-5.0,2.0,0.27,0,100,,,,,,,,
739,1695,0,1.4,1.81,,,,,,,,,0,100,,,,,,,,
740,1697,0,1.42,1.83,,,,,,,,,0,100,,,,,,,,
741,1699,0,1.44,1.85,,,,,,,,,0,100,,,,,,,,
742,1701,0,1.45,1.86,,,,,,,,,0,100,,,,,,,,
743,1703,0,1.44,1.86,,0.03,0.31,0.96,1.0,-3.0,-3.0,0.31,0,100,0.0,,,,,,,
744,1705,0,1.44,1.86,,,,,,,,,0,100,,,,,,,,
745,1707,0,1.44,1.86,,,,,,,,,0,100,,,,,,,,
746,1709,0,1.42,1.83,,,,,,,,,0,100,,,,,,,,
747,1711,0,1.4,1.81,,,,,,,,,0,100,,,,,,,,
748,1713,0,1.43,1.84,,-0.06,0.33,0.7,3.0,-5.0,-8.0,0.33,0,100,,,,,,,,
749,1715,0,1.44,1.86,,,,,,,,,0,100,,,,,,,,
750,1717,0,1.44,1.86,,,,,,,,,0,100,,,,,,,,
751,1719,0,1.44,1.86,,,,,,,,,0,100,,,,,,,,
752,1721,0,1.42,1.84,,,,,,,,,0,100,,,,,,,,
753,1723,0,1.4,1.81,,-0.13,0.17,0.84,2.0,-3.0,-11.0,0.22,0,100,0.0,0.0,0.0,0.0,0.0,0.0,0.0,0.0
754,1725,0,1.4,1.81,,,,,,,,,0,100,,,,,,,,
755,1727,0,1.42,1.84,,,,,,,,,0,100,,,,,,,,
756,1729,0,1.43,1.85,,,,,,,,,0,100,,,,,,,,
757,1731,0,1.45,1.87,,,,,,,,,0,100,,,,,,,,
758,1733,0,1.41,1.85,,-0.06,0.12,0.71,1.0,-8.0,-12.0,0.14,0,100,,,,,,,,
759,1735,0,1.42,1.86,,,,,,,,,0,100,,,,,,,,
760,1737,0,1.44,1.86,,,,,,,,,0,100,,,,,,,,
761,1739,0,1.44,1.86,,,,,,,,,0,100,,,,,,,,
762,1741,0,1.44,1.86,,,,,,,,,0,100,,,,,,,,
763,1743,0,1.42,1.84,,0.07,0.11,0.93,1.0,-5.0,-11.0,0.13,0,100,0.0,,,,,,,
764,1745,0,1.41,1.84,,,,,,,,,0,100,,,,,,,,
765,1747,0,1.4,1.81,,,,,,,,,0,100,,,,,,,,
766,1749,0,1.39,1.82,,,,,,,,,0,100,,,,,,,,
767,1751,0,1.45,1.87,,,,,,,,,0,100,,,,,,,,
768,1753,0,1.44,1.86,,0.25,0.01,0.82,2.0,-7.0,-11.0,0.25,0,100,,,,,,,,
769,1755,0,1.44,1.86,,,,,,,,,0,100,,,,,,,,
770,1757,0,1.42,1.84,,,,,,,,,0,100,,,,,,,,
771,1759,0,1.4,1.81,,,,,,,,,0,100,,,,,,,,
772,1761,0,1.42,1.84,,,,,,,,,0,100,,,,,,,,
773,1763,0,1.44,1.86,,0.08,0.03,1.15,3.0,4.0,-7.0,0.08,0,100,0.0,0.0,0.0,0.0,0.0,0.0,0.0,0.0
774,1765,0,1.45,1.87,,,,,,,,,0,100,,,,,,,,
775,1767,0,1.45,1.87,,,,,,,,,0,100,,,,,,,,
776,1769,0,1.44,1.86,,,,,,,,,0,100,,,,,,,,
777,1771,0,1.43,1.85,,,,,,,,,0,100,,,,,,,,
778,1773,0,1.4,1.82,,0.06,0.0,1.19,3.0,-7.0,-7.0,0.06,0,100,,,,,,,,
779,1775,0,1.42,1.84,,,,,,,,,0,100,,,,,,,,
780,1777,0,1.44,1.86,,,,,,,,,0,100,,,,,,,,
781,1779,0,1.45,1.87,,,,,,,,,0,100,,,,,,,,
782,1781,0,1.45,1.86,,,,,,,,,0,100,,,,,,,,
783,1783,0,1.46,1.88,,0.2,0.0,1.25,3.0,3.0,-4.0,0.2,0,100,0.0,,,,,,,
784,1785,0,1.45,1.87,,,,,,,,,0,100,,,,,,,,
785,1787,0,1.45,1.87,,,,,,,,,0,100,,,,,,,,
786,1789,0,1.45,1.86,,,,,,,,,0,100,,,,,,,,
787,1791,0,1.45,1.87,,,,,,,,,0,100,,,,,,,,
788,1793,0,1.45,1.87,,0.18,-0.02,1.12,4.0,0.0,-3.0,0.18,0,100,,,,,,,,
789,1795,0,1.45,1.86,,,,,,,,,0,100,,,,,,,,
790,1797,0,1.43,1.85,,,,,,,,,0,100,,,,,,,,
791,1799,0,1.41,1.83,,,,,,,,,0,100,,,,,,,,
792,1801,0,1.45,1.86,,,,,,,,,0,100,,,,,,,,
793,1803,0,1.45,1.86,,0.09,0.04,1.36,3.0,9.0,-2.0,0.1,0,100,0.0,0.0,0.0,0.0,0.0,0.0,0.0,0.0
794,1805,0,1.38,1.81,,,,,,,,,0,100,,,,,,,,
795,1807,0,1.44,1.86,,,,,,,,,0,100,,,,,,,,
796,1809,0,1.38,1.85,,,,,,,,,0,100,,,,,,,,
797,1811,0,1.44,1.86,,,,,,,,,0,100,,,,,,,,
798,1813,0,1.44,1.86,,0.05,0.12,1.04,5.0,-1.0,-3.0,0.13,0,100,,,,,,,,
799,1815,0,1.41,1.82,,,,,,,,,0,100,,,,,,,,
800,1817,0,1.44,1.86,,,,,,,,,0,100,,,,,,,,
801,1819,0,1.45,1.87,,,,,,,,,0,100,,,,,,,,
802,1821,0,1.45,1.88,,,,,,,,,0,100,,,,,,,,
803,1823,0,1.44,1.86,,0.05,0.08,0.95,4.0,11.0,-3.0,0.09,0,100,0.0,,,,,,,
804,1825,0,1.41,1.83,,,,,,,,,0,24,,,,,,,,
805,1827,0,1.44,1.87,,,,,,,,,0,24,,,,,,,,
806,1829,0,1.46,1.89,,,,,,,,,0,24,,,,,,,,
807,1831,0,1.41,1.84,,,,,,,,,0,24,,,,,,,,
808,1833,0,1.43,1.86,,0.04,0.1,0.91,4.0,3.0,-6.0,0.11,0,24,,,,,,,,
809,1835,0,1.45,1.88,,,,,,,,,0,24,,,,,,,,
810,1837,0,1.45,1.88,,,,,,,,,0,24,,,,,,,,
811,1839,0,1.44,1.87,,,,,,,,,0,24,,,,,,,,
812,1841,0,1.41,1.84,,,,,,,,,0,24,,,,,,,,
813,1843,0,1.41,1.84,,0.02,0.1,0.6,5.0,6.0,-7.0,0.1,0,24,0.0,0.0,0.0,0.0,0.0,0.0,0.0,0.0
814,1845,0,1.44,1.87,,,,,,,,,0,24,,,,,,,,
815,1847,0,1.45,1.88,,,,,,,,,0,24,,,,,,,,
816,1849,0,1.45,1.88,,,,,,,,,0,24,,,,,,,,
817,1851,0,1.42,1.85,,,,,,,,,0,24,,,,,,,,
818,1853,0,1.42,1.86,,-0.17,0.13,0.76,5.0,9.0,-6.0,0.22,0,24,,,,,,,,
819,1855,0,1.45,1.88,,,,,,,,,0,24,,,,,,,,
820,1857,0,1.45,1.89,,,,,,,,,0,24,,,,,,,,
821,1859,0,1.43,1.87,,,,,,,,,0,24,,,,,,,,
822,1861,0,1.41,1.85,,,,,,,,,0,24,,,,,,,,
823,1863,0,1.44,1.88,,-0.15,0.11,0.53,5.0,-1.0,-7.0,0.18,0,24,0.0,,,,,,,
824,1865,0,1.44,1.89,,,,,,,,,0,24,,,,,,,,
825,1867,0,1.41,1.84,,,,,,,,,0,24,,,,,,,,
826,1869,0,1.41,1.84,,,,,,,,,0,24,,,,,,,,
827,1871,0,1.44,1.88,,,,,,,,,0,24,,,,,,,,
828,1873,0,1.44,1.88,,-0.11,-0.05,0.49,4.0,6.0,-5.0,0.12,0,24,,,,,,,,
829,1875,0,1.42,1.86,,,,,,,,,0,24,,,,,,,,
830,1877,0,1.41,1.84,,,,,,,,,0,24,,,,,,,,
831,1879,0,1.43,1.87,,,,,,,,,0,24,,,,,,,,
832,1881,0,1.44,1.88,,,,,,,,,0,24,,,,,,,,
833,1883,0,1.42,1.86,,-0.15,-0.03,0.49,3.0,1.0,-4.0,0.15,0,24,0.0,0.0,0.0,0.0,0.0,0.0,0.0,0.0
834,1885,0,1.4,1.84,,,,,,,,,0,24,,,,,,,,
835,1887,0,1.43,1.87,,,,,,,,,0,24,,,,,,,,
836,1889,0,1.44,1.88,,,,,,,,,0,24,,,,,,,,
837,1891,0,1.43,1.87,,,,,,,,,0,24,,,,,,,,
838,1893,0,1.41,1.85,,-0.15,-0.07,0.7,3.0,1.0,-2.0,0.16,0,24,,,,,,,,
839,1895,0,1.4,1.84,,,,,,,,,0,24,,,,,,,,
840,1897,0,1.43,1.87,,,,,,,,,0,24,,,,,,,,
841,1899,0,1.44,1.88,,,,,,,,,0,24,,,,,,,,
842,1901,0,1.44,1.88,,,,,,,,,0,24,,,,,,,,
843,1903,0,1.41,1.85,,-0.07,-0.07,0.67,2.0,-4.0,1.0,0.1,0,24,0.0,,,,,,,
844,1905,0,1.41,1.85,,,,,,,,,0,24,,,,,,,,
845,1907,0,1.44,1.88,,,,,,,,,0,24,,,,,,,,
846,1909,0,1.44,1.88,,,,,,,,,0,24,,,,,,,,
847,1911,0,1.41,1.85,,,,,,,,,0,24,,,,,,,,
848,1913,0,1.42,1.85,,0.11,-0.03,1.0,0.0,2.0,3.0,0.12,0,24,,,,,,,,
849,1915,0,1.44,1.87,,,,,,,,,0,24,,,,,,,,
850,1917,0,1.44,1.87,,,,,,,,,0,24,,,,,,,,
851,1919,0,1.43,1.87,,,,,,,,,0,24,,,,,,,,
852,1921,0,1.4,1.83,,,,,,,,,0,24,,,,,,,,
853,1923,0,1.43,1.86,,0.12,0.06,0.95,1.0,-7.0,2.0,0.13,0,24,0.0,0.0,0.0,0.0,0.0,0.0,0.0,0.0
854,1925,0,1.44,1.87,,,,,,,,,0,24,,,,,,,,
855,1927,0,1.44,1.87,,,,,,,,,0,24,,,,,,,,
856,1929,0,1.4,1.83,,,,,,,,,0,24,,,,,,,,
857,1931,0,1.42,1.85,,,,,,,,,0,24,,,,,,,,
858,1933,0,1.44,1.87,,0.03,0.23,1.12,1.0,7.0,2.0,0.24,0,24,,,,,,,,
859,1935,0,1.44,1.87,,,,,,,,,0,24,,,,,,,,
860,1937,0,1.42,1.84,,,,,,,,,0,24,,,,,,,,
861,1939,0,1.4,1.83,,,,,,,,,0,24,,,,,,,,
862,1941,0,1.44,1.87,,,,,,,,,0,24,,,,,,,,
863,1943,0,1.44,1.87,,-0.05,0.19,1.26,1.0,-7.0,-4.0,0.2,0,24,0.0,,,,,,,
864,1945,0,1.44,1.88,,,,,,,,,0,24,,,,,,,,
865,1947,0,1.44,1.88,,,,,,,,,0,24,,,,,,,,
866,1949,0,1.44,1.87,,,,,,,,,0,24,,,,,,,,
867,1951,0,1.44,1.87,,,,,,,,,0,24,,,,,,,,
868,1953,0,1.44,1.87,,0.1,0.13,1.13,0.0,1.0,-5.0,0.16,0,24,,,,,,,,
869,1955,0,1.43,1.86,,,,,,,,,0,24,,,,,,,,
870,1957,0,1.42,1.85,,,,,,,,,0,24,,,,,,,,
871,1959,0,1.4,1.83,,,,,,,,,0,24,,,,,,,,
872,1961,0,1.39,1.81,,,,,,,,,0,24,,,,,,,,
873,1963,0,1.4,1.82,,0.04,0.12,1.06,0.0,-2.0,-8.0,0.13,0,24,0.0,0.0,0.0,0.0,0.0,0.0,0.0,0.0
874,1965,0,1.41,1.83,,,,,,,,,0,24,,,,,,,,
875,1967,0,1.42,1.85,,,,,,,,,0,24,,,,,,,,
876,1969,0,1.44,1.86,,,,,,,,,0,24,,,,,,,,
877,1971,0,1.44,1.86,,,,,,,,,0,24,,,,,,,,
878,1973,0,1.44,1.87,,-0.12,0.17,1.21,-1.0,3.0,-9.0,0.2,0,24,,,,,,,,
879,1975,0,1.44,1.87,,,,,,,,,0,24,,,,,,,,
880,1977,0,1.44,1.87,,,,,,,,,0,24,,,,,,,,
881,1979,0,1.44,1.86,,,,,,,,,0,24,,,,,,,,
882,1981,0,1.44,1.86,,,,,,,,,0,24,,,,,,,,
883,1983,0,1.43,1.86,,-0.06,0.11,0.96,0.0,-8.0,-13.0,0.13,0,24,0.0,,,,,,,
884,1985,0,1.43,1.85,,,,,,,,,0,24,,,,,,,,
885,1987,0,1.4,1.83,,,,,,,,,0,24,,,,,,,,
886,1989,0,1.39,1.81,,,,,,,,,0,24,,,,,,,,
887,1991,0,1.41,1.83,,,,,,,,,0,24,,,,,,,,
888,1993,0,1.44,1.85,,-0.04,0.01,0.92,-1.0,4.0,-11.0,0.04,0,24,,,,,,,,
889,1995,0,1.44,1.86,,,,,,,,,0,16,,,,,,,,
890,1997,0,1.44,1.86,,,,,,,,,0,16,,,,,,,,
891,1999,0,1.43,1.85,,,,,,,,,0,16,,,,,,,,
892,2001,0,1.39,1.81,,,,,,,,,0,16,,,,,,,,
893,2003,0,1.41,1.84,,-0.02,-0.05,0.95,-1.0,-8.0,-9.0,0.05,0,16,0.0,0.0,0.0,0.0,0.0,0.0,0.0,0.0
894,2005,0,1.43,1.85,,,,,,,,,0,16,,,,,,,,
895,2007,0,1.44,1.85,,,,,,,,,0,16,,,,,,,,
896,2009,0,1.44,1.85,,,,,,,,,0,16,,,,,,,,
897,2011,0,1.41,1.83,,,,,,,,,0,16,,,,,,,,
898,2013,0,1.4,1.81,,-0.02,-0.2,0.84,-1.0,-2.0,-5.0,0.2,0,16,,,,,,,,
899,2015,0,1.39,1.8,,,,,,,,,0,16,,,,,,,,
900,2017,0,1.43,1.84,,,,,,,,,0,16,,,,,,,,
901,2019,0,1.44,1.85,,,,,,,,,0,16,,,,,,,,
902,2021,0,1.44,1.85,,,,,,,,,0,16,,,,,,,,
903,2023,0,1.44,1.85,,-0.08,-0.22,0.99,0.0,-6.0,-1.0,0.23,0,16,0.0,,,,,,,
904,2025,0,1.4,1.81,,,,,,,,,0,16,,,,,,,,
905,2027,0,1.43,1.84,,,,,,,,,0,16,,,,,,,,
906,2029,0,1.44,1.85,,,,,,,,,0,16,,,,,,,,
907,2031,0,1.43,1.84,,,,,,,,,0,16,,,,,,,,
908,2033,0,1.39,1.8,,-0.08,-0.25,1.03,0.0,-3.0,4.0,0.26,0,16,,,,,,,,
909,2035,0,1.43,1.84,,,,,,,,,0,16,,,,,,,,
910,2037,0,1.44,1.85,,,,,,,,,0,20,,,,,,,,
911,2039,0,1.41,1.83,,,,,,,,,0,20,,,,,,,,
912,2041,0,1.44,1.85,,,,,,,,,0,20,,,,,,,,
913,2043,0,1.4,1.81,13.1,0.01,-0.18,1.07,1.0,-7.0,6.0,0.18,0,20,0.0,0.0,0.0,0.0,0.0,0.0,0.0,0.0
914,2045,0,1.43,1.84,,,,,,,,,0,20,,,,,,,,
915,2047,0,1.44,1.85,,,,,,,,,0,20,,,,,,,,
916,2049,0,1.44,1.85,,,,,,,,,0,20,,,,,,,,
917,2051,0,1.44,1.85,,,,,,,,,0,20,,,,,,,,
918,2053,0,1.44,1.85,,0.02,-0.15,1.02,1.0,-3.0,8.0,0.15,0,20,,,,,,,,
919,2055,0,1.44,1.85,,,,,,,,,0,20,,,,,,,,
920,2057,0,1.42,1.83,,,,,,,,,0,20,,,,,,,,
921,2059,0,1.42,1.83,,,,,,,,,0,20,,,,,,,,
922,2061,0,1.41,1.82,,,,,,,,,0,20,,,,,,,,
923,2063,0,1.39,1.8,,0.03,0.02,1.22,1.0,-6.0,6.0,0.03,0,20,0.0,,,,,,,
924,2065,0,1.39,1.8,,,,,,,,,0,20,,,,,,,,
925,2067,0,1.4,1.83,,,,,,,,,0,20,,,,,,,,
926,2069,0,1.42,1.83,,,,,,,,,0,20,,,,,,,,
927,2071,0,1.44,1.85,,,,,,,,,0,20,,,,,,,,
928,2073,0,1.44,1.85,,0.1,0.04,1.13,1.0,-3.0,5.0,0.11,0,20,,,,,,,,
929,2075,0,1.43,1.84,,,,,,,,,0,20,,,,,,,,
930,2077,0,1.4,1.81,,,,,,,,,0,20,,,,,,,,
931,2079,0,1.4,1.82,,,,,,,,,0,20,,,,,,,,
932,2081,0,1.44,1.85,,,,,,,,,0,20,,,,,,,,
933,2083,0,1.44,1.85,,0.12,0.06,1.45,0.0,-3.0,3.0,0.13,0,20,0.0,0.0,0.0,0.0,0.0,0.0,0.0,0.0
934,2085,0,1.44,1.85,,,,,,,,,0,20,,,,,,,,
935,2087,0,1.41,1.81,,,,,,,,,0,20,,,,,,,,
936,2089,0,1.43,1.83,,,,,,,,,0,20,,,,,,,,
937,2091,0,1.45,1.85,,,,,,,,,0,20,,,,,,,,
938,2093,0,1.45,1.85,,0.27,0.06,1.22,0.0,-4.0,2.0,0.28,0,20,,,,,,,,
939,2095,0,1.44,1.84,,,,,,,,,0,20,,,,,,,,
940,2097,0,1.4,1.8,,,,,,,,,0,20,,,,,,,,
941,2099,0,1.43,1.84,,,,,,,,,0,20,,,,,,,,
942,2101,0,1.45,1.85,,,,,,,,,0,20,,,,,,,,
943,2103,0,1.45,1.86,,0.18,0.03,1.38,1.0,4.0,2.0,0.19,0,20,0.0,,,,,,,
944,2105,0,1.43,1.83,,,,,,,,,0,20,,,,,,,,
945,2107,0,1.41,1.81,,,,,,,,,0,20,,,,,,,,
946,2109,0,1.44,1.85,,,,,,,,,0,20,,,,,,,,
947,2111,0,1.45,1.86,,,,,,,,,0,20,,,,,,,,
948,2113,0,1.45,1.86,,0.07,0.03,1.29,2.0,-1.0,0.0,0.08,0,20,,,,,,,,
949,2115,0,1.45,1.86,,,,,,,,,0,20,,,,,,,,
950,2117,0,1.45,1.85,,,,,,,,,0,20,,,,,,,,
951,2119,0,1.45,1.86,,,,,,,,,0,20,,,,,,,,
952,2121,0,1.45,1.85,,,,,,,,,0,20,,,,,,,,
953,2123,0,1.45,1.86,,0.09,0.04,1.38,0.0,7.0,2.0,0.1,0,20,0.0,0.0,0.0,0.0,0.0,0.0,0.0,0.0
954,2125,0,1.45,1.86,,,,,,,,,0,20,,,,,,,,
955,2127,0,1.45,1.86,,,,,,,,,0,88,,,,,,,,
956,2129,0,1.45,1.86,,,,,,,,,0,88,,,,,,,,
957,2131,0,1.45,1.86,,,,,,,,,0,88,,,,,,,,
958,2133,0,1.45,1.86,,0.21,0.08,1.12,2.0,0.0,0.0,0.23,0,88,,,,,,,,
959,2135,0,1.46,1.86,,,,,,,,,0,88,,,,,,,,
960,2137,0,1.45,1.86,,,,,,,,,0,88,,,,,,,,
961,2139,0,1.45,1.85,,,,,,,,,0,88,,,,,,,,
962,2141,0,1.45,1.86,,,,,,,,,0,88,,,,,,,,
963,2143,0,1.45,1.86,,0.0,-0.03,1.03,1.0,12.0,2.0,0.03,0,88,0.0,,,,,,,
964,2145,0,1.45,1.86,,,,,,,,,0,88,,,,,,,,
965,2147,0,1.45,1.86,,,,,,,,,0,88,,,,,,,,
966,2149,0,1.44,1.86,,,,,,,,,0,88,,,,,,,,
967,2151,0,1.45,1.85,,,,,,,,,0,88,,,,,,,,
968,2153,0,1.44,1.85,,-0.03,0.13,1.09,1.0,4.0,1.0,0.14,0,88,,,,,,,,
969,2155,0,1.42,1.83,,,,,,,,,0,88,,,,,,,,
970,2157,0,1.41,1.82,,,,,,,,,0,88,,,,,,,,
971,2159,0,1.4,1.8,,,,,,,,,0,88,,,,,,,,
972,2161,0,1.4,1.8,,,,,,,,,0,88,,,,,,,,
973,2163,0,1.4,1.8,,-0.01,0.09,0.76,1.0,5.0,1.0,0.09,0,88,0.0,0.0,0.0,0.0,0.0,0.0,0.0,0.0
974,2165,0,1.4,1.8,,,,,,,,,0,88,,,,,,,,
975,2167,0,1.4,1.8,,,,,,,,,0,88,,,,,,,,
976,2169,0,1.4,1.81,,,,,,,,,0,88,,,,,,,,
977,2171,0,1.4,1.8,,,,,,,,,0,44,,,,,,,,
978,2173,0,1.41,1.81,,-0.0,0.09,0.94,1.0,5.0,1.0,0.09,0,44,,,,,,,,
979,2175,0,1.42,1.82,,,,,,,,,0,44,,,,,,,,
980,2177,0,1.37,1.77,,,,,,,,,0,44,,,,,,,,
981,2179,0,1.43,1.84,,,,,,,,,0,44,,,,,,,,
982,2181,0,1.43,1.83,,,,,,,,,0,44,,,,,,,,
983,2183,0,1.43,1.84,,0.09,-0.0,0.72,1.0,1.0,0.0,0.09,0,44,0.0,,,,,,,
984,2185,0,1.44,1.84,,,,,,,,,0,44,,,,,,,,
985,2187,0,1.44,1.85,,,,,,,,,0,44,,,,,,,,
986,2189,0,1.44,1.85,,,,,,,,,0,44,,,,,,,,
987,2191,0,1.44,1.85,,,,,,,,,0,44,,,,,,,,
988,2193,0,1.44,1.85,,-0.09,0.06,0.89,1.0,8.0,2.0,0.11,0,44,,,,,,,,
989,2195,0,1.44,1.85,,,,,,,,,0,44,,,,,,,,
990,2197,0,1.44,1.85,,,,,,,,,0,44,,,,,,,,
991,2199,0,1.43,1.84,,,,,,,,,0,44,,,,,,,,
992,2201,0,1.43,1.82,,,,,,,,,0,44,,,,,,,,
993,2203,0,1.43,1.82,,-0.1,0.01,0.86,1.0,-6.0,0.0,0.1,0,44,0.0,0.0,0.0,0.0,0.0,0.0,0.0,0.0
994,2205,0,1.44,1.83,,,,,,,,,0,44,,,,,,,,
995,2207,0,1.44,1.84,,,,,,,,,0,44,,,,,,,,
996,2209,0,1.44,1.85,,,,,,,,,0,44,,,,,,,,
997,2211,0,1.43,1.84,,,,,,,,,0,44,,,,,,,,
998,2213,0,1.43,1.84,,-0.05,0.03,0.81,0.0,3.0,1.0,0.06,0,44,,,,,,,,
999,2215,0,1.44,1.84,,,,,,,,,0,44,,,,,,,,
1000,2217,0,1.44,1.85,,,,,,,,,0,44,,,,,,,,
1001,2219,0,1.44,1.85,,,,,,,,,0,44,,,,,,,,
1002,2221,0,1.43,1.84,,,,,,,,,0,44,,,,,,,,
1003,2223,0,1.44,1.84,,-0.03,-0.04,0.79,1.0,-8.0,2.0,0.05,0,44,0.0,,,,,,,
1004,2225,0,1.44,1.85,,,,,,,,,0,44,,,,,,,,
1005,2227,0,1.45,1.86,,,,,,,,,0,44,,,,,,,,
1006,2229,0,1.45,1.86,,,,,,,,,0,44,,,,,,,,
1007,2231,0,1.45,1.86,,,,,,,,,0,44,,,,,,,,
1008,2233,0,1.45,1.86,,-0.13,-0.09,0.73,0.0,0.0,5.0,0.16,0,44,,,,,,,,
1009,2235,0,1.45,1.86,,,,,,,,,0,44,,,,,,,,
1010,2237,0,1.45,1.85,,,,,,,,,0,44,,,,,,,,
1011,2239,0,1.44,1.86,,,,,,,,,0,44,,,,,,,,
1012,2241,0,1.45,1.86,,,,,,,,,0,44,,,,,,,,
1013,2243,0,1.45,1.86,,-0.02,0.0,0.88,0.0,-7.0,7.0,0.02,0,44,0.0,0.0,0.0,0.0,0.0,0.0,0.0,0.0
1014,2245,0,1.45,1.86,,,,,,,,,0,44,,,,,,,,
1015,2247,0,1.44,1.86,,,,,,,,,0,44,,,,,,,,
1016,2249,0,1.44,1.85,,,,,,,,,0,44,,,,,,,,
1017,2251,0,1.44,1.86,,,,,,,,,0,44,,,,,,,,
1018,2253,0,1.44,1.86,,-0.06,0.03,0.89,1.0,-2.0,8.0,0.07,0,44,,,,,,,,
1019,2255,0,1.44,1.85,,,,,,,,,0,44,,,,,,,,
1020,2257,0,1.43,1.85,,,,,,,,,0,44,,,,,,,,
1021,2259,0,1.43,1.85,,,,,,,,,0,44,,,,,,,,
1022,2261,0,1.43,1.85,,,,,,,,,0,88,,,,,,,,
1023,2263,0,1.43,1.85,,0.08,-0.0,0.99,0.0,-10.0,7.0,0.08,0,88,0.0,,,,,,,
1024,2265,0,1.42,1.84,,,,,,,,,0,88,,,,,,,,
1025,2267,0,1.42,1.84,,,,,,,,,0,88,,,,,,,,
1026,2269,0,1.42,1.85,,,,,,,,,0,88,,,,,,,,
1027,2271,0,1.43,1.83,,,,,,,,,0,88,,,,,,,,
1028,2273,0,1.44,1.84,,0.12,-0.02,0.81,1.0,0.0,7.0,0.12,0,88,,,,,,,,
1029,2275,0,1.44,1.85,,,,,,,,,0,88,,,,,,,,
1030,2277,0,1.42,1.85,,,,,,,,,0,88,,,,,,,,
1031,2279,0,1.45,1.88,,,,,,,,,0,88,,,,,,,,
1032,2281,0,1.45,1.88,,,,,,,,,0,88,,,,,,,,
1033,2283,0,1.45,1.88,,0.04,-0.04,1.08,1.0,-2.0,8.0,0.05,0,88,0.0,0.0,0.0,0.0,0.0,0.0,0.0,0.0
1034,2285,0,1.45,1.88,,,,,,,,,0,88,,,,,,,,
1035,2287,0,1.45,1.88,,,,,,,,,0,88,,,,,,,,
1036,2289,0,1.45,1.88,,,,,,,,,0,88,,,,,,,,
1037,2291,0,1.45,1.88,,,,,,,,,0,88,,,,,,,,
1038,2293,0,1.45,1.88,,-0.05,-0.02,0.9,1.0,-2.0,6.0,0.05,0,88,,,,,,,,
1039,2295,0,1.45,1.88,,,,,,,,,0,88,,,,,,,,
1040,2297,0,1.45,1.89,,,,,,,,,0,88,,,,,,,,
1041,2299,0,1.45,1.88,,,,,,,,,0,88,,,,,,,,
1042,2301,0,1.45,1.88,,,,,,,,,0,88,,,,,,,,
1043,2303,0,1.44,1.88,,0.11,-0.03,1.01,1.0,2.0,7.0,0.12,0,88,0.0,,,,,,,
1044,2305,0,1.44,1.87,,,,,,,,,0,44,,,,,,,,
1045,2307,0,1.43,1.87,,,,,,,,,0,44,,,,,,,,
1046,2309,0,1.43,1.87,,,,,,,,,0,44,,,,,,,,
1047,2311,0,1.43,1.86,,,,,,,,,0,44,,,,,,,,
1048,2313,0,1.42,1.86,,0.03,-0.03,0.83,2.0,2.0,6.0,0.04,0,44,,,,,,,,
1049,2315,0,1.41,1.85,,,,,,,,,0,44,,,,,,,,
1050,2317,0,1.42,1.84,,,,,,,,,0,44,,,,,,,,
1051,2319,0,1.4,1.83,,,,,,,,,0,44,,,,,,,,
1052,2321,0,1.4,1.84,,,,,,,,,0,44,,,,,,,,
1053,2323,0,1.42,1.86,,0.03,0.05,0.92,1.0,5.0,6.0,0.05,0,44,0.0,0.0,0.0,0.0,0.0,0.0,0.0,0.0
1054,2325,0,1.41,1.86,,,,,,,,,0,44,,,,,,,,
1055,2327,0,1.41,1.85,,,,,,,,,0,44,,,,,,,,
1056,2329,0,1.41,1.85,,,,,,,,,0,44,,,,,,,,
1057,2331,0,1.42,1.86,,,,,,,,,0,44,,,,,,,,
1058,2333,0,1.42,1.86,,-0.02,0.13,0.85,3.0,2.0,4.0,0.13,0,44,,,,,,,,
1059,2335,0,1.43,1.87,,,,,,,,,0,44,,,,,,,,
1060,2337,0,1.43,1.85,,,,,,,,,0,44,,,,,,,,
1061,2339,0,1.42,1.87,,,,,,,,,0,44,,,,,,,,
1062,2341,0,1.42,1.84,,,,,,,,,0,44,,,,,,,,
1063,2343,0,1.4,1.85,,0.02,0.13,0.73,2.0,5.0,3.0,0.14,0,44,0.0,,,,,,,
1064,2345,0,1.4,1.84,,,,,,,,,0,44,,,,,,,,
1065,2347,0,1.4,1.85,,,,,,,,,0,44,,,,,,,,
1066,2349,0,1.42,1.85,,,,,,,,,0,44,,,,,,,,
1067,2351,0,1.4,1.85,,,,,,,,,0,44,,,,,,,,
1068,2353,0,1.4,1.85,,0.01,0.26,0.9,3.0,2.0,-1.0,0.26,0,44,,,,,,,,
1069,2355,0,1.4,1.85,,,,,,,,,0,44,,,,,,,,
1070,2357,0,1.4,1.85,,,,,,,,,0,44,,,,,,,,
1071,2359,0,1.41,1.86,,,,,,,,,0,44,,,,,,,,
1072,2361,0,1.41,1.86,,,,,,,,,0,44,,,,,,,,
1073,2363,0,1.42,1.86,,0.04,0.18,0.69,4.0,1.0,-3.0,0.18,0,44,0.0,0.0,0.0,0.0,0.0,0.0,0.0,0.0
1074,2365,0,1.42,1.87,,,,,,,,,0,44,,,,,,,,
1075,2367,0,1.42,1.87,,,,,,,,,0,44,,,,,,,,
1076,2369,0,1.42,1.86,,,,,,,,,0,44,,,,,,,,
1077,2371,0,1.42,1.87,,,,,,,,,0,44,,,,,,,,
1078,2373,0,1.41,1.86,,-0.1,0.29,0.91,4.0,6.0,-5.0,0.31,0,44,,,,,,,,
1079,2375,0,1.41,1.85,,,,,,,,,0,44,,,,,,,,
1080,2377,0,1.41,1.85,,,,,,,,,0,44,,,,,,,,
1081,2379,0,1.42,1.86,,,,,,,,,0,44,,,,,,,,
1082,2381,0,1.42,1.86,,,,,,,,,0,44,,,,,,,,
1083,2383,0,1.42,1.87,,-0.15,0.27,0.74,4.0,-8.0,-9.0,0.31,0,44,0.0,,,,,,,
1084,2385,0,1.42,1.86,,,,,,,,,0,44,,,,,,,,
1085,2387,0,1.42,1.87,,,,,,,,,0,44,,,,,,,,
1086,2389,0,1.41,1.86,,,,,,,,,0,44,,,,,,,,
1087,2391,0,1.41,1.86,,,,,,,,,0,44,,,,,,,,
1088,2393,0,1.4,1.85,,-0.1,0.29,0.77,3.0,1.0,-11.0,0.31,0,44,,,,,,,,
1089,2395,0,1.4,1.85,,,,,,,,,0,44,,,,,,,,
1090,2397,0,1.38,1.83,,,,,,,,,0,44,,,,,,,,
1091,2399,0,1.44,1.89,,,,,,,,,0,44,,,,,,,,
1092,2401,0,1.44,1.89,,,,,,,,,0,44,,,,,,,,
1093,2403,0,1.44,1.89,,-0.04,0.13,0.73,4.0,-10.0,-13.0,0.14,0,44,0.0,0.0,0.0,0.0,0.0,0.0,0.0,0.0
1094,2405,0,1.44,1.89,,,,,,,,,0,44,,,,,,,,
1095,2407,0,1.44,1.89,,,,,,,,,0,44,,,,,,,,
1096,2409,0,1.44,1.89,,,,,,,,,0,44,,,,,,,,
1097,2411,0,1.44,1.89,,,,,,,,,0,44,,,,,,,,
1098,2413,0,1.44,1.89,,-0.15,0.03,0.87,3.0,1.0,-10.0,0.16,0,44,,,,,,,,
1099,2415,0,1.44,1.89,,,,,,,,,0,44,,,,,,,,
1100,2417,0,1.44,1.89,,,,,,,,,0,44,,,,,,,,
1101,2419,0,1.45,1.89,,,,,,,,,0,44,,,,,,,,
1102,2421,0,1.44,1.89,,,,,,,,,0,44,,,,,,,,
1103,2423,0,1.44,1.89,,0.0,-0.04,1.01,3.0,-11.0,-9.0,0.04,0,44,0.0,,,,,,,
1104,2425,0,1.44,1.89,,,,,,,,,0,44,,,,,,,,
1105,2427,0,1.45,1.89,,,,,,,,,0,44,,,,,,,,
1106,2429,0,1.45,1.89,,,,,,,,,0,44,,,,,,,,
1107,2431,0,1.45,1.89,,,,,,,,,0,44,,,,,,,,
1108,2433,0,1.45,1.89,,0.03,-0.03,1.02,3.0,-1.0,-5.0,0.04,0,44,,,,,,,,
1109,2435,0,1.45,1.89,,,,,,,,,0,44,,,,,,,,
1110,2437,0,1.45,1.89,,,,,,,,,0,44,,,,,,,,
1111,2439,0,1.45,1.89,,,,,,,,,0,44,,,,,,,,
1112,2441,0,1.45,1.89,,,,,,,,,0,84,,,,,,,,
1113,2443,0,1.45,1.89,,0.07,-0.02,1.28,3.0,-8.0,-2.0,0.07,0,84,0.0,0.0,0.0,0.0,0.0,0.0,0.0,0.0
1114,2445,0,1.46,1.89,,,,,,,,,0,84,,,,,,,,
1115,2447,0,1.45,1.89,,,,,,,,,0,84,,,,,,,,
1116,2449,0,1.45,1.89,,,,,,,,,0,84,,,,,,,,
1117,2451,0,1.44,1.88,,,,,,,,,0,84,,,,,,,,
1118,2453,0,1.43,1.86,,0.13,-0.01,1.03,3.0,-1.0,1.0,0.13,0,84,,,,,,,,
1119,2455,0,1.41,1.85,,,,,,,,,0,84,,,,,,,,
1120,2457,0,1.41,1.84,,,,,,,,,0,84,,,,,,,,
1121,2459,0,1.43,1.86,,,,,,,,,0,84,,,,,,,,
1122,2461,0,1.45,1.88,,,,,,,,,0,84,,,,,,,,
1123,2463,0,1.45,1.89,,0.02,-0.1,1.23,3.0,-1.0,4.0,0.1,0,84,0.0,,,,,,,
1124,2465,0,1.46,1.89,,,,,,,,,0,84,,,,,,,,
1125,2467,0,1.46,1.9,,,,,,,,,0,84,,,,,,,,
1126,2469,0,1.46,1.89,,,,,,,,,0,84,,,,,,,,
1127,2471,0,1.45,1.89,,,,,,,,,0,84,,,,,,,,
1128,2473,0,1.46,1.88,,-0.05,-0.08,1.08,3.0,-1.0,5.0,0.1,0,84,,,,,,,,
1129,2475,0,1.46,1.88,,,,,,,,,0,84,,,,,,,,
1130,2477,0,1.43,1.87,,,,,,,,,0,84,,,,,,,,
1131,2479,0,1.44,1.88,,,,,,,,,0,84,,,,,,,,
1132,2481,0,1.42,1.85,,,,,,,,,0,84,,,,,,,,
1133,2483,0,1.41,1.84,,-0.0,-0.02,1.2,2.0,1.0,7.0,0.02,0,84,0.0,0.0,0.0,0.0,0.0,0.0,0.0,0.0
1134,2485,0,1.47,1.91,,,,,,,,,0,28,,,,,,,,
1135,2487,0,1.44,1.88,,,,,,,,,0,28,,,,,,,,
1136,2489,0,1.45,1.88,,,,,,,,,0,28,,,,,,,,
1137,2491,0,1.46,1.89,,,,,,,,,0,28,,,,,,,,
1138,2493,0,1.46,1.89,,0.01,0.01,1.05,3.0,0.0,5.0,0.02,0,28,,,,,,,,
1139,2495,0,1.46,1.89,,,,,,,,,0,28,,,,,,,,
1140,2497,0,1.45,1.88,,,,,,,,,0,28,,,,,,,,
1141,2499,0,1.44,1.87,,,,,,,,,0,28,,,,,,,,
1142,2501,0,1.42,1.85,,,,,,,,,0,28,,,,,,,,
1143,2503,0,1.41,1.84,,-0.01,-0.01,1.1,2.0,1.0,5.0,0.01,0,28,0.0,,,,,,,
1144,2505,0,1.44,1.87,,,,,,,,,0,28,,,,,,,,
1145,2507,0,1.46,1.88,,,,,,,,,0,28,,,,,,,,
1146,2509,0,1.46,1.89,,,,,,,,,0,28,,,,,,,,
1147,2511,0,1.46,1.89,,,,,,,,,0,28,,,,,,,,
1148,2513,0,1.46,1.89,,0.02,0.02,1.13,2.0,2.0,4.0,0.03,0,28,,,,,,,,
1149,2515,0,1.46,1.89,,,,,,,,,0,28,,,,,,,,
1150,2517,0,1.46,1.88,,,,,,,,,0,28,,,,,,,,
1151,2519,0,1.44,1.87,,,,,,,,,0,28,,,,,,,,
1152,2521,0,1.42,1.85,,,,,,,,,0,28,,,,,,,,
1153,2523,0,1.42,1.84,,0.01,-0.0,1.14,1.0,0.0,3.0,0.01,0,28,0.0,0.0,0.0,0.0,0.0,0.0,0.0,0.0
1154,2525,0,1.44,1.86,,,,,,,,,0,28,,,,,,,,
1155,2527,0,1.45,1.87,,,,,,,,,0,28,,,,,,,,
1156,2529,0,1.46,1.88,,,,,,,,,0,28,,,,,,,,
1157,2531,0,1.47,1.89,,,,,,,,,0,28,,,,,,,,
1158,2533,0,1.46,1.88,,0.09,0.1,1.27,1.0,1.0,2.0,0.14,0,84,,,,,,,,
1159,2535,0,1.47,1.89,,,,,,,,,0,84,,,,,,,,
1160,2537,0,1.46,1.87,,,,,,,,,0,84,,,,,,,,
1161,2539,0,1.45,1.87,,,,,,,,,0,84,,,,,,,,
1162,2541,0,1.43,1.84,,,,,,,,,0,84,,,,,,,,
1163,2543,0,1.42,1.86,,0.2,0.08,1.21,1.0,-1.0,-1.0,0.22,0,84,0.0,,,,,,,
1164,2545,0,1.46,1.88,,,,,,,,,0,84,,,,,,,,
1165,2547,0,1.47,1.88,,,,,,,,,0,84,,,,,,,,
1166,2549,0,1.47,1.88,,,,,,,,,0,84,,,,,,,,
1167,2551,0,1.46,1.88,,,,,,,,,0,84,,,,,,,,
1168,2553,0,1.47,1.88,,0.06,0.04,1.19,1.0,5.0,1.0,0.07,0,84,,,,,,,,
1169,2555,0,1.46,1.87,,,,,,,,,0,84,,,,,,,,
1170,2557,0,1.45,1.86,,,,,,,,,0,84,,,,,,,,
1171,2559,0,1.44,1.85,,,,,,,,,0,84,,,,,,,,
1172,2561,0,1.43,1.84,,,,,,,,,0,84,,,,,,,,
1173,2563,0,1.42,1.83,,-0.08,0.07,1.3,1.0,-3.0,-2.0,0.1,0,84,0.0,0.0,0.0,0.0,0.0,0.0,0.0,0.0
1174,2565,0,1.44,1.85,,,,,,,,,0,84,,,,,,,,
1175,2567,0,1.46,1.87,,,,,,,,,0,84,,,,,,,,
1176,2569,0,1.47,1.88,,,,,,,,,0,84,,,,,,,,
1177,2571,0,1.47,1.88,,,,,,,,,0,84,,,,,,,,
1178,2573,0,1.47,1.88,,0.01,0.06,1.12,0.0,1.0,0.0,0.06,0,84,,,,,,,,
1179,2575,0,1.47,1.88,,,,,,,,,0,84,,,,,,,,
1180,2577,0,1.46,1.88,,,,,,,,,0,84,,,,,,,,
1181,2579,0,1.46,1.87,,,,,,,,,0,84,,,,,,,,
1182,2581,0,1.44,1.84,,,,,,,,,0,84,,,,,,,,
1183,2583,0,1.43,1.84,,0.03,0.02,1.27,1.0,-2.0,-1.0,0.04,0,84,0.0,,,,,,,
1184,2585,0,1.43,1.84,,,,,,,,,0,84,,,,,,,,
1185,2587,0,1.47,1.88,,,,,,,,,0,84,,,,,,,,
1186,2589,0,1.47,1.88,,,,,,,,,0,84,,,,,,,,
1187,2591,0,1.46,1.87,,,,,,,,,0,84,,,,,,,,
1188,2593,0,1.46,1.87,,-0.02,-0.03,1.03,1.0,0.0,0.0,0.04,0,84,,,,,,,,
1189,2595,0,1.45,1.86,,,,,,,,,0,84,,,,,,,,
1190,2597,0,1.44,1.85,,,,,,,,,0,84,,,,,,,,
1191,2599,0,1.42,1.84,,,,,,,,,0,84,,,,,,,,
1192,2601,0,1.43,1.83,,,,,,,,,0,84,,,,,,,,
1193,2603,0,1.44,1.85,,-0.1,-0.01,1.24,1.0,-2.0,0.0,0.1,0,84,0.0,0.0,0.0,0.0,0.0,0.0,0.0,0.0
1194,2605,0,1.46,1.88,,,,,,,,,0,84,,,,,,,,
1195,2607,0,1.46,1.88,,,,,,,,,0,84,,,,,,,,
1196,2609,0,1.46,1.88,,,,,,,,,0,84,,,,,,,,
1197,2611,0,1.47,1.88,,,,,,,,,0,84,,,,,,,,
1198,2613,0,1.46,1.87,,0.01,0.0,0.85,1.0,-7.0,1.0,0.01,0,84,,,,,,,,
1199,2615,0,1.44,1.85,,,,,,,,,0,84,,,,,,,,
1200,2617,0,1.42,1.83,,,,,,,,,0,84,,,,,,,,
1201,2619,0,1.41,1.84,,,,,,,,,0,84,,,,,,,,
1202,2621,0,1.45,1.87,,,,,,,,,0,84,,,,,,,,
1203,2623,0,1.46,1.87,,-0.09,0.02,1.03,1.0,5.0,2.0,0.09,0,84,0.0,,,,,,,
1204,2625,0,1.46,1.88,,,,,,,,,0,84,,,,,,,,
1205,2627,0,1.46,1.88,,,,,,,,,0,84,,,,,,,,
1206,2629,0,1.46,1.87,,,,,,,,,0,84,,,,,,,,
1207,2631,0,1.46,1.88,,,,,,,,,0,84,,,,,,,,
1208,2633,0,1.46,1.88,,-0.02,0.01,0.89,1.0,-12.0,0.0,0.02,0,84,,,,,,,,
1209,2635,0,1.45,1.86,,,,,,,,,0,84,,,,,,,,
1210,2637,0,1.43,1.85,,,,,,,,,0,84,,,,,,,,
1211,2639,0,1.41,1.83,,,,,,,,,0,84,,,,,,,,
1212,2641,0,1.43,1.84,,,,,,,,,0,84,,,,,,,,
1213,2643,0,1.45,1.86,,-0.08,0.05,0.6,2.0,-1.0,2.0,0.09,0,84,0.0,0.0,0.0,0.0,0.0,0.0,0.0,0.0
1214,2645,0,1.46,1.88,,,,,,,,,0,84,,,,,,,,
