Unnamed: 0,"Interval|""ms""|0|0|1","Utc|""ms""|0|0|1","Analog4|""Volts""|0.0|5.0|500","Analog5|""Volts""|0.0|5.0|500","Battery|""Volts""|0.0|20.0|1","AccelX|G|-3.0|3.0|200","AccelY|G|-3.0|3.0|200","AccelZ|G|-3.0|3.0|200","Yaw|Deg/Sec|-120|120|200","Pitch|Deg/Sec|-120|120|200","Roll|Deg/Sec|-120|120|200","Gsum|""G""|0.0|3.0|200","RPM|""rpm""|0|8000|500","RPM2|""rpm""|0|8000|500","GPIO1|""""|0.0|1.0|50",Latitude|Degrees|-180.0|180.0|25,Longitude|Degrees|-180.0|180.0|25,"Speed|mph|0.0|150.0|25","Altitude|""ft""|0.0|4000.0|25","GPSSats|""""|0|20|25","GPSQual|""""|0|5|25","GPSDOP|""""|0.0|20.0|25"
13,243,0,1.47,1.84,,0.07,0.19,0.76,2.0,0.0,0.0,0.2,0,140,0.0,0.0,0.0,0.0,0.0,0.0,0.0,0.0
33,283,0,1.42,1.84,,0.17,0.29,1.2,1.0,2.0,-6.0,0.34,0,136,0.0,0.0,0.0,0.0,0.0,0.0,0.0,0.0
53,323,0,1.46,1.88,,-0.04,-0.04,0.78,3.0,1.0,-10.0,0.06,0,136,0.0,0.0,0.0,0.0,0.0,0.0,0.0,0.0
73,363,0,1.42,1.86,,0.07,0.03,0.53,2.0,-10.0,-5.0,0.07,0,132,0.0,0.0,0.0,0.0,0.0,0.0,0.0,0.0
93,403,0,1.45,1.88,,0.28,-0.01,1.32,1.0,-1.0,1.0,0.28,0,132,0.0,0.0,0.0,0.0,0.0,0.0,0.0,0.0
113,443,0,1.44,1.85,,0.04,-0.1,1.25,1.0,10.0,9.0,0.1,0,128,0.0,0.0,0.0,0.0,0.0,0.0,0.0,0.0
133,483,0,1.46,1.88,,0.07,0.01,0.89,-2.0,-8.0,13.0,0.07,0,128,0.0,0.0,0.0,0.0,0.0,0.0,0.0,0.0
153,523,0,1.46,1.88,,0.01,0.3,0.99,1.0,-2.0,3.0,0.3,0,132,0.0,0.0,0.0,0.0,0.0,0.0,0.0,0.0
173,563,0,1.46,1.87,,0.07,0.35,1.28,0.0,-3.0,-11.0,0.35,0,128,0.0,0.0,0.0,0.0,0.0,0.0,0.0,0.0
193,603,0,1.43,1.85,,0.07,-0.14,0.66,0.0,-7.0,-18.0,0.15,0,124,0.0,0.0,0.0,0.0,0.0,0.0,0.0,0.0
213,643,0,1.44,1.87,,0.13,-0.34,0.78,0.0,-2.0,-1.0,0.36,0,124,0.0,0.0,0.0,0.0,0.0,0.0,0.0,0.0
233,683,0,1.41,1.83,,0.1,0.12,1.23,4.0,-4.0,3.0,0.16,0,124,0.0,0.0,0.0,0.0,0.0,0.0,0.0,0.0
253,723,0,1.45,1.86,,0.1,-0.12,1.27,2.0,-2.0,1.0,0.16,0,120,0.0,0.0,0.0,0.0,0.0,0.0,0.0,0.0
273,763,0,1.46,1.87,,0.02,0.07,1.19,1.0,9.0,9.0,0.08,0,120,0.0,0.0,0.0,0.0,0.0,0.0,0.0,0.0
293,803,0,1.44,1.88,,-0.16,0.03,0.37,-1.0,-4.0,3.0,0.17,0,124,0.0,0.0,0.0,0.0,0.0,0.0,0.0,0.0
313,843,0,1.41,1.84,,0.08,0.09,0.69,1.0,-4.0,0.0,0.12,0,56,0.0,0.0,0.0,0.0,0.0,0.0,0.0,0.0
333,883,0,1.44,1.89,,0.26,0.17,1.25,2.0,-3.0,0.0,0.3,0,116,0.0,0.0,0.0,0.0,0.0,0.0,0.0,0.0
353,923,0,1.44,1.87,,0.16,-0.14,1.27,3.0,4.0,4.0,0.21,0,112,0.0,0.0,0.0,0.0,0.0,0.0,0.0,0.0
373,963,0,1.46,1.89,,-0.09,-0.06,1.07,5.0,11.0,9.0,0.1,0,112,0.0,0.0,0.0,0.0,0.0,0.0,0.0,0.0
393,1003,0,1.48,1.9,,-0.18,0.18,0.86,4.0,5.0,-1.0,0.25,0,112,0.0,0.0,0.0,0.0,0.0,0.0,0.0,0.0
413,1043,0,1.46,1.88,13.15,-0.06,0.02,0.88,4.0,-4.0,0.0,0.07,0,56,0.0,0.0,0.0,0.0,0.0,0.0,0.0,0.0
433,1083,0,1.46,1.89,,0.14,0.01,1.17,2.0,-9.0,0.0,0.14,0,112,0.0,0.0,0.0,0.0,0.0,0.0,0.0,0.0
453,1123,0,1.49,1.91,,0.36,-0.04,1.24,4.0,8.0,0.0,0.36,0,108,0.0,0.0,0.0,0.0,0.0,0.0,0.0,0.0
473,1163,0,1.47,1.89,,0.01,0.3,0.87,1.0,18.0,-1.0,0.3,0,108,0.0,0.0,0.0,0.0,0.0,0.0,0.0,0.0
493,1203,0,1.48,1.88,,-0.04,0.02,0.48,0.0,7.0,-2.0,0.05,0,108,0.0,0.0,0.0,0.0,0.0,0.0,0.0,0.0
513,1243,0,1.47,1.86,,0.09,0.02,1.19,-1.0,3.0,4.0,0.09,0,52,0.0,0.0,0.0,0.0,0.0,0.0,0.0,0.0
533,1283,0,1.47,1.85,,-0.0,0.03,1.22,-2.0,7.0,7.0,0.03,0,108,0.0,0.0,0.0,0.0,0.0,0.0,0.0,0.0
553,1323,0,1.47,1.86,,-0.09,0.18,0.97,0.0,0.0,2.0,0.21,0,104,0.0,0.0,0.0,0.0,0.0,0.0,0.0,0.0
573,1363,0,1.47,1.86,,-0.16,0.16,1.03,1.0,3.0,-7.0,0.23,0,104,0.0,0.0,0.0,0.0,0.0,0.0,0.0,0.0
593,1403,0,1.46,1.86,,-0.07,0.14,0.91,1.0,-2.0,-7.0,0.15,0,96,0.0,0.0,0.0,0.0,0.0,0.0,0.0,0.0
613,1443,0,1.45,1.85,,-0.15,0.13,0.98,1.0,-6.0,-9.0,0.2,0,104,0.0,0.0,0.0,0.0,0.0,0.0,0.0,0.0
633,1483,0,1.38,1.79,,-0.34,-0.01,0.74,1.0,-16.0,-9.0,0.34,0,96,0.0,0.0,0.0,0.0,0.0,0.0,0.0,0.0
653,1523,0,1.44,1.85,,-0.19,-0.15,1.2,1.0,-12.0,6.0,0.24,0,96,0.0,0.0,0.0,0.0,0.0,0.0,0.0,0.0
673,1563,0,1.44,1.85,,0.11,0.04,1.24,2.0,-7.0,5.0,0.12,0,96,0.0,0.0,0.0,0.0,0.0,0.0,0.0,0.0
693,1603,0,1.4,1.82,,-0.01,0.08,1.24,3.0,-6.0,-9.0,0.08,0,96,0.0,0.0,0.0,0.0,0.0,0.0,0.0,0.0
713,1643,0,1.45,1.85,,-0.02,-0.19,1.1,2.0,-6.0,7.0,0.19,0,100,0.0,0.0,0.0,0.0,0.0,0.0,0.0,0.0
733,1683,0,1.42,1.83,,-0.06,0.11,1.1,1.0,2.0,7.0,0.13,0,100,0.0,0.0,0.0,0.0,0.0,0.0,0.0,0.0
753,1723,0,1.4,1.81,,-0.13,0.17,0.84,2.0,-3.0,-11.0,0.22,0,100,0.0,0.0,0.0,0.0,0.0,0.0,0.0,0.0
773,1763,0,1.44,1.86,,0.08,0.03,1.15,3.0,4.0,-7.0,0.08,0,100,0.0,0.0,0.0,0.0,0.0,0.0,0.0,0.0
793,1803,0,1.45,1.86,,0.09,0.04,1.36,3.0,9.0,-2.0,0.1,0,100,0.0,0.0,0.0,0.0,0.0,0.0,0.0,0.0
813,1843,0,1.41,1.84,,0.02,0.1,0.6,5.0,6.0,-7.0,0.1,0,24,0.0,0.0,0.0,0.0,0.0,0.0,0.0,0.0
833,1883,0,1.42,1.86,,-0.15,-0.03,0.49,3.0,1.0,-4.0,0.15,0,24,0.0,0.0,0.0,0.0,0.0,0.0,0.0,0.0
853,1923,0,1.43,1.86,,0.12,0.06,0.95,1.0,-7.0,2.0,0.13,0,24,0.0,0.0,0.0,0.0,0.0,0.0,0.0,0.0
873,1963,0,1.4,1.82,,0.04,0.12,1.06,0.0,-2.0,-8.0,0.13,0,24,0.0,0.0,0.0,0.0,0.0,0.0,0.0,0.0
893,2003,0,1.41,1.84,,-0.02,-0.05,0.95,-1.0,-8.0,-9.0,0.05,0,16,0.0,0.0,0.0,0.0,0.0,0.0,0.0,0.0
913,2043,0,1.4,1.81,13.1,0.01,-0.18,1.07,1.0,-7.0,6.0,0.18,0,20,0.0,0.0,0.0,0.0,0.0,0.0,0.0,0.0
933,2083,0,1.44,1.85,,0.12,0.06,1.45,0.0,-3.0,3.0,0.13,0,20,0.0,0.0,0.0,0.0,0.0,0.0,0.0,0.0
953,2123,0,1.45,1.86,,0.09,0.04,1.38,0.0,7.0,2.0,0.1,0,20,0.0,0.0,0.0,0.0,0.0,0.0,0.0,0.0
973,2163,0,1.4,1.8,,-0.01,0.09,0.76,1.0,5.0,1.0,0.09,0,88,0.0,0.0,0.0,0.0,0.0,0.0,0.0,0.0
993,2203,0,1.43,1.82,,-0.1,0.01,0.86,1.0,-6.0,0.0,0.1,0,44,0.0,0.0,0.0,0.0,0.0,0.0,0.0,0.0
1013,2243,0,1.45,1.86,,-0.02,0.0,0.88,0.0,-7.0,7.0,0.02,0,44,0.0,0.0,0.0,0.0,0.0,0.0,0.0,0.0
1033,2283,0,1.45,1.88,,0.04,-0.04,1.08,1.0,-2.0,8.0,0.05,0,88,0.0,0.0,0.0,0.0,0.0,0.0,0.0,0.0
1053,2323,0,1.42,1.86,,0.03,0.05,0.92,1.0,5.0,6.0,0.05,0,44,0.0,0.0,0.0,0.0,0.0,0.0,0.0,0.0
1073,2363,0,1.42,1.86,,0.04,0.18,0.69,4.0,1.0,-3.0,0.18,0,44,0.0,0.0,0.0,0.0,0.0,0.0,0.0,0.0
1093,2403,0,1.44,1.89,,-0.04,0.13,0.73,4.0,-10.0,-13.0,0.14,0,44,0.0,0.0,0.0,0.0,0.0,0.0,0.0,0.0
1113,2443,0,1.45,1.89,,0.07,-0.02,1.28,3.0,-8.0,-2.0,0.07,0,84,0.0,0.0,0.0,0.0,0.0,0.0,0.0,0.0
1133,2483,0,1.41,1.84,,-0.0,-0.02,1.2,2.0,1.0,7.0,0.02,0,84,0.0,0.0,0.0,0.0,0.0,0.0,0.0,0.0
1153,2523,0,1.42,1.84,,0.01,-0.0,1.14,1.0,0.0,3.0,0.01,0,28,0.0,0.0,0.0,0.0,0.0,0.0,0.0,0.0
1173,2563,0,1.42,1.83,,-0.08,0.07,1.3,1.0,-3.0,-2.0,0.1,0,84,0.0,0.0,0.0,0.0,0.0,0.0,0.0,0.0
1193,2603,0,1.44,1.85,,-0.1,-0.01,1.24,1.0,-2.0,0.0,0.1,0,84,0.0,0.0,0.0,0.0,0.0,0.0,0.0,0.0
1213,2643,0,1.45,1.86,,-0.08,0.05,0.6,2.0,-1.0,2.0,0.09,0,84,0.0,0.0,0.0,0.0,0.0,0.0,0.0,0.0
1233,2683,0,1.44,1.87,,-0.07,0.09,0.62,0.0,-9.0,-1.0,0.11,0,84,0.0,0.0,0.0,0.0,0.0,0.0,0.0,0.0
1253,2723,0,1.44,1.87,,0.17,0.11,1.09,-1.0,-15.0,0.0,0.2,0,84,0.0,0.0,0.0,0.0,0.0,0.0,0.0,0.0
1273,2763,0,1.45,1.87,,0.05,0.09,1.19,-2.0,-7.0,-4.0,0.1,0,20,0.0,0.0,0.0,0.0,0.0,0.0,0.0,0.0
1293,2803,0,1.44,1.87,,0.07,-0.02,1.08,-2.0,5.0,1.0,0.07,0,20,0.0,0.0,0.0,0.0,0.0,0.0,0.0,0.0
1313,2843,0,1.4,1.82,,-0.01,0.09,1.03,0.0,4.0,-1.0,0.09,0,88,0.0,0.0,0.0,0.0,0.0,0.0,0.0,0.0
1333,2883,0,1.45,1.88,,-0.06,0.03,0.93,1.0,1.0,-5.0,0.07,0,80,0.0,0.0,0.0,0.0,0.0,0.0,0.0,0.0
1353,2923,0,1.42,1.85,,-0.07,0.03,0.88,1.0,5.0,-1.0,0.07,0,84,0.0,0.0,0.0,0.0,0.0,0.0,0.0,0.0
1373,2963,0,1.43,1.87,,-0.13,0.13,0.81,2.0,1.0,-2.0,0.19,0,84,0.0,0.0,0.0,0.0,0.0,0.0,0.0,0.0
1393,3003,0,1.44,1.88,,0.08,0.1,0.96,-1.0,-6.0,-5.0,0.13,0,84,0.0,0.0,0.0,0.0,0.0,0.0,0.0,0.0
1413,3043,0,1.43,1.86,13.13,0.08,-0.1,1.18,-1.0,-1.0,-1.0,0.13,0,40,0.0,0.0,0.0,0.0,0.0,0.0,0.0,0.0
1433,3083,0,1.44,1.86,,0.03,0.01,1.2,0.0,2.0,3.0,0.03,0,40,0.0,0.0,0.0,0.0,0.0,0.0,0.0,0.0
1453,3123,0,1.43,1.84,,-0.07,0.02,1.2,1.0,-3.0,-2.0,0.07,0,88,0.0,0.0,0.0,0.0,0.0,0.0,0.0,0.0
1473,3163,0,1.44,1.85,,0.04,0.03,1.16,1.0,-1.0,-3.0,0.05,0,88,0.0,0.0,0.0,0.0,0.0,0.0,0.0,0.0
1493,3203,0,1.44,1.85,,-0.02,0.09,1.02,1.0,5.0,-2.0,0.09,0,80,0.0,0.0,0.0,0.0,0.0,0.0,0.0,0.0
1513,3243,0,1.42,1.84,,-0.07,-0.04,0.91,2.0,7.0,-1.0,0.08,0,80,0.0,0.0,0.0,0.0,0.0,0.0,0.0,0.0
1533,3283,0,1.43,1.86,,0.04,0.03,0.67,1.0,1.0,0.0,0.05,0,44,0.0,0.0,0.0,0.0,0.0,0.0,0.0,0.0
1553,3323,0,1.42,1.84,,-0.06,0.02,0.76,3.0,-4.0,-3.0,0.06,0,40,0.0,0.0,0.0,0.0,0.0,0.0,0.0,0.0
1573,3363,0,1.42,1.84,,0.0,0.09,1.11,0.0,-7.0,-1.0,0.09,0,40,0.0,0.0,0.0,0.0,0.0,0.0,0.0,0.0
1593,3403,0,1.42,1.84,,0.03,0.06,1.18,1.0,0.0,-1.0,0.07,0,40,1.0,0.0,0.0,0.0,0.0,0.0,0.0,0.0
1613,3443,0,1.42,1.83,,-0.03,0.04,1.02,0.0,0.0,-1.0,0.04,0,40,1.0,0.0,0.0,0.0,0.0,0.0,0.0,0.0
1633,3483,0,1.41,1.81,,0.01,-0.02,0.97,1.0,-3.0,-1.0,0.02,0,88,1.0,0.0,0.0,0.0,0.0,0.0,0.0,0.0
1653,3523,0,1.43,1.86,,-0.07,0.07,1.01,2.0,-3.0,-3.0,0.1,0,28,1.0,0.0,0.0,0.0,0.0,0.0,0.0,0.0
1673,3563,0,1.43,1.86,,0.11,0.02,1.02,2.0,3.0,-6.0,0.11,0,88,1.0,0.0,0.0,0.0,0.0,0.0,0.0,0.0
1693,3603,0,1.44,1.86,,0.07,0.04,1.17,3.0,11.0,-5.0,0.08,0,84,1.0,0.0,0.0,0.0,0.0,0.0,0.0,0.0
1713,3643,0,1.44,1.86,,-0.0,0.11,0.98,3.0,8.0,-6.0,0.11,0,88,1.0,0.0,0.0,0.0,0.0,0.0,0.0,0.0
1733,3683,0,1.43,1.85,,-0.04,0.01,0.73,2.0,0.0,-8.0,0.04,0,88,0.0,0.0,0.0,0.0,0.0,0.0,0.0,0.0
1753,3723,0,1.43,1.85,,-0.12,-0.12,1.02,-1.0,0.0,0.0,0.18,0,88,0.0,0.0,0.0,0.0,0.0,0.0,0.0,0.0
1773,3763,0,1.4,1.81,,0.03,-0.08,1.1,-1.0,-2.0,2.0,0.08,0,88,0.0,0.0,0.0,0.0,0.0,0.0,0.0,0.0
1793,3803,0,1.44,1.85,,0.03,-0.04,0.92,1.0,0.0,-1.0,0.05,0,88,0.0,0.0,0.0,0.0,0.0,0.0,0.0,0.0
1813,3843,0,1.42,1.83,,-0.08,-0.07,0.98,2.0,-5.0,-1.0,0.1,0,92,0.0,0.0,0.0,0.0,0.0,0.0,0.0,0.0
1833,3883,0,1.44,1.85,,-0.02,0.0,1.06,2.0,-6.0,3.0,0.03,0,92,0.0,0.0,0.0,0.0,0.0,0.0,0.0,0.0
1853,3923,0,1.43,1.84,,-0.01,0.02,1.04,1.0,1.0,3.0,0.02,0,84,0.0,0.0,0.0,0.0,0.0,0.0,0.0,0.0
1873,3963,0,1.43,1.85,,-0.02,0.02,0.81,0.0,4.0,3.0,0.03,0,84,0.0,0.0,0.0,0.0,0.0,0.0,0.0,0.0
1893,4003,0,1.42,1.84,,0.0,0.01,0.74,1.0,-1.0,2.0,0.01,0,44,0.0,0.0,0.0,0.0,0.0,0.0,0.0,0.0
1913,4043,0,1.43,1.85,13.14,0.0,0.03,0.98,0.0,-1.0,0.0,0.03,0,44,0.0,0.0,0.0,0.0,0.0,0.0,0.0,0.0
1933,4083,0,1.43,1.85,,0.17,0.02,1.08,0.0,-3.0,1.0,0.17,0,44,0.0,0.0,0.0,0.0,0.0,0.0,0.0,0.0
1953,4123,0,1.42,1.82,,0.16,0.06,1.09,2.0,-4.0,0.0,0.17,0,44,0.0,0.0,0.0,0.0,0.0,0.0,0.0,0.0
1973,4163,0,1.41,1.82,,0.12,0.06,1.06,0.0,0.0,1.0,0.14,0,44,0.0,0.0,0.0,0.0,0.0,0.0,0.0,0.0
1993,4203,0,1.45,1.87,,0.23,0.04,0.8,-1.0,-1.0,0.0,0.23,0,44,0.0,0.0,0.0,0.0,0.0,0.0,0.0,0.0
2013,4243,0,1.44,1.86,,0.31,-0.02,0.7,0.0,-7.0,2.0,0.31,0,44,0.0,0.0,0.0,0.0,0.0,0.0,0.0,0.0
2033,4283,0,1.44,1.86,,0.24,0.0,0.96,1.0,-9.0,2.0,0.24,0,44,0.0,0.0,0.0,0.0,0.0,0.0,0.0,0.0
2053,4323,0,1.47,1.9,,0.28,0.0,1.07,1.0,-5.0,2.0,0.28,0,20,0.0,0.0,0.0,0.0,0.0,0.0,0.0,0.0
2073,4363,0,1.48,1.9,,0.31,0.02,1.1,-1.0,-2.0,3.0,0.31,0,88,0.0,0.0,0.0,0.0,0.0,0.0,0.0,0.0
2093,4403,0,1.48,1.89,,0.29,0.01,1.05,-1.0,-1.0,4.0,0.29,0,88,0.0,0.0,0.0,0.0,0.0,0.0,0.0,0.0
2113,4443,0,1.51,1.92,,0.39,0.03,1.09,1.0,-3.0,4.0,0.39,0,84,0.0,0.0,0.0,0.0,0.0,0.0,0.0,0.0
2133,4483,0,1.52,1.94,,0.5,0.02,0.98,3.0,-6.0,3.0,0.5,0,84,0.0,0.0,0.0,0.0,0.0,0.0,0.0,0.0
2153,4523,0,1.47,1.9,,0.33,0.13,1.16,4.0,-4.0,4.0,0.36,0,84,0.0,0.0,0.0,0.0,0.0,0.0,0.0,0.0
2173,4563,0,1.48,1.93,,0.43,0.14,0.86,2.0,0.0,2.0,0.45,0,84,0.0,0.0,0.0,0.0,0.0,0.0,0.0,0.0
2193,4603,0,1.49,1.93,,0.41,0.13,0.87,0.0,1.0,0.0,0.43,0,84,0.0,0.0,0.0,0.0,0.0,0.0,0.0,0.0
2213,4643,0,1.48,1.92,,0.25,0.03,0.96,0.0,0.0,-1.0,0.25,0,84,0.0,0.0,0.0,0.0,0.0,0.0,0.0,0.0
2233,4683,0,1.53,1.97,,0.04,0.0,0.91,1.0,3.0,-1.0,0.04,0,84,0.0,0.0,0.0,0.0,0.0,0.0,0.0,0.0
2253,4723,0,1.52,1.96,,-0.17,0.02,0.97,2.0,1.0,-2.0,0.17,0,84,0.0,0.0,0.0,0.0,0.0,0.0,0.0,0.0
2273,4763,0,1.51,1.95,,-0.22,0.01,0.86,1.0,4.0,-1.0,0.22,0,40,0.0,0.0,0.0,0.0,0.0,0.0,0.0,0.0
2293,4803,0,1.52,1.95,,-0.27,0.03,0.94,0.0,0.0,-1.0,0.28,0,40,0.0,0.0,0.0,0.0,0.0,0.0,0.0,0.0
2313,4843,0,1.52,1.94,,-0.3,0.0,0.97,0.0,2.0,0.0,0.3,0,12,0.0,0.0,0.0,0.0,0.0,0.0,0.0,0.0
2333,4883,0,1.52,1.94,,-0.29,-0.01,1.03,-1.0,2.0,0.0,0.29,0,104,0.0,0.0,0.0,0.0,0.0,0.0,0.0,0.0
2353,4923,0,1.51,1.93,,-0.28,-0.04,1.06,0.0,3.0,0.0,0.28,0,100,0.0,0.0,0.0,0.0,0.0,0.0,0.0,0.0
2373,4963,0,1.51,1.94,,-0.24,0.01,1.02,0.0,2.0,0.0,0.24,0,104,0.0,0.0,0.0,0.0,0.0,0.0,0.0,0.0
2393,5003,0,1.51,1.93,,-0.15,0.01,1.05,0.0,-2.0,0.0,0.15,0,108,0.0,0.0,0.0,0.0,0.0,0.0,0.0,0.0
2413,5043,0,1.51,1.93,13.08,-0.1,0.01,0.96,0.0,-5.0,0.0,0.1,0,104,0.0,0.0,0.0,0.0,0.0,0.0,0.0,0.0
2433,5083,0,1.5,1.93,,0.02,0.03,0.9,0.0,-4.0,0.0,0.03,0,108,0.0,0.0,0.0,0.0,0.0,0.0,0.0,0.0
2453,5123,0,1.51,1.94,,0.05,0.04,0.94,0.0,1.0,1.0,0.07,0,104,1.0,0.0,0.0,0.0,0.0,0.0,0.0,0.0
2473,5163,0,1.51,1.94,,0.04,0.04,0.99,0.0,3.0,0.0,0.06,0,112,1.0,0.0,0.0,0.0,0.0,0.0,0.0,0.0
2493,5203,0,1.47,1.89,,0.01,0.02,1.01,0.0,0.0,-1.0,0.02,0,108,1.0,0.0,0.0,0.0,0.0,0.0,0.0,0.0
2513,5243,0,1.5,1.93,,-0.11,0.02,0.99,1.0,-2.0,0.0,0.11,0,108,1.0,0.0,0.0,0.0,0.0,0.0,0.0,0.0
2533,5283,0,1.47,1.89,,-0.17,0.04,0.99,0.0,2.0,1.0,0.18,0,108,1.0,0.0,0.0,0.0,0.0,0.0,0.0,0.0
2553,5323,0,1.51,1.94,,-0.16,0.05,1.06,0.0,1.0,0.0,0.17,0,112,1.0,0.0,0.0,0.0,0.0,0.0,0.0,0.0
2573,5363,0,1.52,1.94,,-0.09,0.01,1.08,0.0,-2.0,0.0,0.09,0,108,1.0,0.0,0.0,0.0,0.0,0.0,0.0,0.0
2593,5403,0,1.52,1.94,,-0.06,0.0,0.93,0.0,-2.0,0.0,0.06,0,112,1.0,0.0,0.0,0.0,0.0,0.0,0.0,0.0
2613,5443,0,1.52,1.94,,-0.02,0.02,0.91,0.0,1.0,0.0,0.03,0,112,0.0,0.0,0.0,0.0,0.0,0.0,0.0,0.0
2633,5483,0,1.51,1.94,,-0.02,0.04,1.03,0.0,2.0,0.0,0.05,0,112,0.0,0.0,0.0,0.0,0.0,0.0,0.0,0.0
2653,5523,0,1.51,1.94,,-0.1,0.02,0.99,0.0,-1.0,-1.0,0.1,0,112,0.0,0.0,0.0,0.0,0.0,0.0,0.0,0.0
2673,5563,0,1.47,1.89,,-0.16,0.03,0.99,0.0,1.0,0.0,0.16,0,116,0.0,0.0,0.0,0.0,0.0,0.0,0.0,0.0
2693,5603,0,1.48,1.9,,-0.13,0.04,1.05,0.0,1.0,0.0,0.14,0,112,0.0,0.0,0.0,0.0,0.0,0.0,0.0,0.0
2713,5643,0,1.51,1.94,,-0.06,-0.01,1.02,0.0,-3.0,0.0,0.07,0,112,0.0,0.0,0.0,0.0,0.0,0.0,0.0,0.0
2733,5683,0,1.52,1.95,,-0.04,0.01,0.91,0.0,-2.0,0.0,0.04,0,112,0.0,0.0,0.0,0.0,0.0,0.0,0.0,0.0
2753,5723,0,1.5,1.93,,-0.03,0.03,0.95,0.0,3.0,1.0,0.04,0,112,0.0,0.0,0.0,0.0,0.0,0.0,0.0,0.0
2773,5763,0,1.51,1.92,,-0.04,0.04,1.02,0.0,1.0,0.0,0.06,0,108,0.0,0.0,0.0,0.0,0.0,0.0,0.0,0.0
2793,5803,0,1.51,1.94,,-0.11,0.02,0.98,1.0,-2.0,-1.0,0.11,0,116,0.0,0.0,0.0,0.0,0.0,0.0,0.0,0.0
2813,5843,0,1.46,1.88,,-0.15,0.04,1.01,0.0,2.0,1.0,0.16,0,112,0.0,0.0,0.0,0.0,0.0,0.0,0.0,0.0
2833,5883,0,1.46,1.89,,-0.1,0.05,1.06,0.0,0.0,0.0,0.11,0,112,0.0,0.0,0.0,0.0,0.0,0.0,0.0,0.0
2853,5923,1714855088077,1.5,1.93,,-0.03,0.02,1.02,0.0,-3.0,-1.0,0.03,0,112,0.0,39.674324,-77.417816,0.0,1191.6,6.0,2.0,2.0
2873,5963,1714855088115,1.46,1.89,,-0.04,0.01,0.9,0.0,-1.0,0.0,0.04,0,112,0.0,39.674324,-77.417816,0.0,1188.8,6.0,2.0,2.0
2893,6003,1714855088155,1.52,1.94,,-0.04,0.02,0.91,0.0,2.0,0.0,0.04,0,112,0.0,39.674324,-77.417816,0.0,1183.6,6.0,2.0,2.0
2913,6043,1714855088195,1.49,1.91,13.13,-0.05,0.04,1.02,0.0,1.0,0.0,0.07,0,108,0.0,39.674324,-77.417816,0.0,1180.7,6.0,2.0,2.0
2933,6083,1714855088235,1.48,1.91,,-0.11,0.03,1.03,0.0,-1.0,-1.0,0.11,0,112,0.0,39.674324,-77.417809,0.0,1179.0,6.0,2.0,2.0
2953,6123,1714855088273,1.51,1.93,,-0.16,0.03,0.96,1.0,0.0,0.0,0.16,0,108,0.0,39.674324,-77.417809,0.0,1177.5,6.0,2.0,2.0
2973,6163,1714855088313,1.46,1.9,,-0.16,0.04,1.04,0.0,1.0,0.0,0.16,0,108,0.0,39.674324,-77.417809,0.0,1176.3,6.0,2.0,2.0
2993,6203,1714855088355,1.47,1.89,,-0.09,0.01,1.1,0.0,0.0,0.0,0.09,0,112,0.0,39.674324,-77.417809,0.0,1175.3,6.0,2.0,2.0
3013,6243,1714855088395,1.52,1.94,,-0.1,0.0,0.96,0.0,-3.0,-1.0,0.1,0,108,0.0,39.674324,-77.417809,0.0,1174.5,6.0,2.0,2.0
3033,6283,1714855088433,1.48,1.9,,-0.02,0.03,0.9,0.0,-1.0,0.0,0.03,0,112,0.0,39.674324,-77.417809,0.0,1173.9,6.0,2.0,2.0
3053,6323,1714855088473,1.48,1.9,,-0.02,0.04,0.97,0.0,2.0,1.0,0.04,0,108,0.0,39.674324,-77.417809,0.0,1173.9,6.0,2.0,2.0
3073,6363,1714855088513,1.5,1.94,,-0.05,0.05,1.01,0.0,3.0,1.0,0.07,0,112,0.0,39.674324,-77.417809,0.0,1173.9,6.0,2.0,2.0
3093,6403,1714855088552,1.51,1.93,,-0.06,0.04,0.98,0.0,-1.0,-1.0,0.07,0,108,0.0,39.674324,-77.417809,0.0,1173.9,6.0,2.0,2.0
3113,6443,1714855088592,1.51,1.94,,-0.14,0.01,1.0,0.0,-1.0,0.0,0.14,0,112,0.0,39.674324,-77.417809,0.0,1173.9,6.0,2.0,2.0
3133,6483,1714855088632,1.5,1.93,,-0.16,0.02,1.11,-1.0,2.0,1.0,0.16,0,112,0.0,39.674324,-77.417809,0.0,1173.9,6.0,2.0,2.0
3153,6523,1714855088674,1.48,1.9,,-0.11,0.03,1.02,0.0,-1.0,0.0,0.11,0,112,0.0,39.674324,-77.417809,0.0,1173.9,6.0,2.0,2.0
3173,6563,1714855088712,1.51,1.92,,-0.03,0.02,0.95,1.0,-2.0,0.0,0.04,0,112,0.0,39.674324,-77.417809,0.0,1173.9,6.0,2.0,2.0
3193,6603,1714855088752,1.48,1.9,,-0.07,0.02,0.98,0.0,2.0,1.0,0.07,0,112,0.0,39.674324,-77.417809,0.0,1173.9,6.0,2.0,2.0
3213,6643,1714855088794,1.5,1.92,,-0.1,0.04,1.03,0.0,2.0,1.0,0.11,0,116,0.0,39.674324,-77.417809,0.0,1173.9,6.0,2.0,2.0
3233,6683,1714855088834,1.51,1.94,,-0.11,0.01,0.96,1.0,-2.0,-1.0,0.11,0,116,0.0,39.674324,-77.417809,0.0,1173.9,6.0,2.0,2.0
3253,6723,1714855088874,1.46,1.88,,-0.12,0.03,0.99,0.0,-1.0,0.0,0.12,0,112,0.0,39.674324,-77.417809,0.0,1173.9,6.0,2.0,2.0
3273,6763,1714855088914,1.47,1.89,,-0.06,0.03,1.1,-1.0,1.0,0.0,0.06,0,116,0.0,39.674324,-77.417809,0.0,1173.9,6.0,2.0,2.0
3293,6803,1714855088952,1.5,1.93,,-0.08,0.01,0.95,0.0,-1.0,-1.0,0.08,0,112,0.0,39.674324,-77.417809,0.0,1173.9,6.0,2.0,2.0
3313,6843,1714855088994,1.49,1.92,,-0.07,0.02,0.97,0.0,-2.0,0.0,0.07,0,112,0.0,39.674324,-77.417809,0.0,1173.9,6.0,2.0,2.0
3333,6883,1714855089028,1.51,1.94,,-0.08,0.06,1.06,0.0,3.0,1.0,0.1,0,116,0.0,39.674324,-77.417809,0.0,1173.9,6.0,2.0,2.0
3353,6923,1714855089072,1.51,1.93,,-0.1,0.06,1.04,0.0,3.0,1.0,0.11,0,112,0.0,39.674324,-77.417809,0.0,1173.9,6.0,2.0,2.0
3373,6963,1714855089112,1.49,1.92,,-0.11,0.01,0.98,0.0,-1.0,-1.0,0.11,0,108,0.0,39.674324,-77.417809,0.0,1173.9,6.0,2.0,2.0
3393,7003,1714855089152,1.49,1.91,,-0.13,0.01,0.96,1.0,-2.0,0.0,0.13,0,116,0.0,39.674324,-77.417809,0.0,1173.9,6.0,2.0,2.0
3413,7043,1714855089192,1.5,1.93,13.15,-0.12,0.03,1.08,0.0,0.0,1.0,0.12,0,112,0.0,39.674324,-77.417809,0.0,1173.9,6.0,2.0,2.0
3433,7083,1714855089232,1.52,1.94,,-0.07,0.04,1.02,0.0,0.0,0.0,0.08,0,112,0.0,39.674324,-77.417809,0.0,1173.9,6.0,2.0,2.0
3453,7123,1714855089272,1.52,1.94,,-0.01,0.04,1.01,0.0,-3.0,0.0,0.04,0,108,0.0,39.674324,-77.417809,0.0,1173.9,6.0,2.0,2.0
3473,7163,1714855089313,1.48,1.9,,-0.02,0.01,0.92,0.0,-3.0,0.0,0.02,0,108,0.0,39.674324,-77.417809,0.0,1173.9,6.0,2.0,2.0
3493,7203,1714855089352,1.51,1.93,,0.05,0.02,0.86,0.0,-1.0,0.0,0.06,0,108,0.0,39.674324,-77.417809,0.0,1173.9,6.0,2.0,2.0
3513,7243,1714855089392,1.51,1.93,,0.04,0.03,0.93,0.0,2.0,1.0,0.06,0,104,0.0,39.674324,-77.417809,0.0,1173.9,6.0,2.0,2.0
3533,7283,1714855089432,1.48,1.9,,0.04,0.05,0.95,0.0,4.0,1.0,0.07,0,104,0.0,39.674324,-77.417809,0.0,1173.9,6.0,2.0,2.0
3553,7323,1714855089472,1.5,1.93,,-0.01,0.05,1.03,0.0,2.0,0.0,0.05,0,108,0.0,39.674324,-77.417809,0.0,1173.9,6.0,2.0,2.0
3573,7363,1714855089512,1.49,1.91,,-0.07,0.04,1.04,0.0,2.0,0.0,0.08,0,104,0.0,39.674324,-77.417809,0.0,1173.9,6.0,2.0,2.0
3593,7403,1714855089551,1.48,1.9,,-0.07,0.02,1.01,0.0,-1.0,0.0,0.08,0,104,0.0,39.674324,-77.417809,0.0,1173.9,6.0,2.0,2.0
3613,7443,1714855089593,1.51,1.94,,-0.15,0.02,1.03,1.0,-2.0,-1.0,0.15,0,104,0.0,39.674324,-77.417809,0.0,1173.9,6.0,2.0,2.0
3633,7483,1714855089633,1.51,1.94,,-0.15,0.04,0.98,1.0,-1.0,0.0,0.16,0,100,0.0,39.674324,-77.417809,0.0,1173.9,6.0,2.0,2.0
3653,7523,1714855089673,1.51,1.93,,-0.18,0.04,1.01,0.0,-2.0,0.0,0.18,0,104,0.0,39.674324,-77.417809,0.0,1173.9,6.0,2.0,2.0
3673,7563,1714855089713,1.51,1.94,,-0.21,0.01,1.04,0.0,1.0,0.0,0.21,0,104,0.0,39.674324,-77.417809,0.0,1173.9,6.0,2.0,2.0
3693,7603,1714855089753,1.5,1.93,,-0.17,0.03,1.03,0.0,1.0,0.0,0.17,0,108,0.0,39.674324,-77.417809,0.0,1173.9,6.0,2.0,2.0
3713,7643,1714855089793,1.51,1.94,,-0.13,0.01,1.1,0.0,-1.0,0.0,0.13,0,104,0.0,39.674324,-77.417809,0.0,1173.9,6.0,2.0,2.0
3733,7683,1714855089833,1.52,1.94,,-0.14,0.02,1.01,0.0,-2.0,0.0,0.14,0,108,0.0,39.674324,-77.417809,0.0,1173.9,6.0,2.0,2.0
3753,7723,1714855089873,1.52,1.94,,-0.05,0.02,0.98,0.0,-3.0,0.0,0.05,0,108,0.0,39.674324,-77.417809,0.0,1173.9,6.0,2.0,2.0
3773,7763,1714855089913,1.51,1.94,,-0.03,0.01,0.9,0.0,-3.0,0.0,0.03,0,104,0.0,39.674324,-77.417809,0.0,1173.9,6.0,2.0,2.0
3793,7803,1714855089954,1.5,1.92,,0.03,0.01,0.84,0.0,0.0,0.0,0.03,0,108,0.0,39.674324,-77.417809,0.0,1173.9,6.0,2.0,2.0
3813,7843,1714855089993,1.52,1.94,,0.03,0.04,0.96,0.0,3.0,0.0,0.05,0,104,0.0,39.674324,-77.417809,0.0,1173.9,6.0,2.0,2.0
3833,7883,1714855090029,1.48,1.9,,-0.02,0.05,1.01,0.0,3.0,1.0,0.06,0,108,0.0,39.674328,-77.417809,0.0,1176.3,7.0,2.0,1.8
3853,7923,1714855090073,1.51,1.94,,-0.05,0.04,0.99,0.0,0.0,0.0,0.06,0,104,0.0,39.674328,-77.417809,0.0,1176.3,7.0,2.0,1.8
3873,7963,1714855090113,1.46,1.88,,-0.14,0.01,1.01,1.0,-1.0,0.0,0.14,0,112,0.0,39.674328,-77.417809,0.0,1176.3,7.0,2.0,1.8
3893,8003,1714855090153,1.51,1.94,,-0.17,0.03,1.1,0.0,2.0,1.0,0.17,0,112,0.0,39.674328,-77.417809,0.0,1176.3,7.0,2.0,1.8
3913,8043,1714855090193,1.51,1.94,13.14,-0.14,0.03,1.03,0.0,0.0,0.0,0.14,0,112,0.0,39.674328,-77.417809,0.0,1176.3,7.0,2.0,1.8
3933,8083,1714855090233,1.47,1.89,,-0.04,0.02,0.95,0.0,-3.0,0.0,0.04,0,112,0.0,39.674328,-77.417809,0.0,1176.3,7.0,2.0,1.8
3953,8123,1714855090274,1.51,1.93,,-0.02,0.03,0.95,-1.0,1.0,1.0,0.04,0,116,0.0,39.674328,-77.417809,0.0,1176.3,7.0,2.0,1.8
3973,8163,1714855090313,1.52,1.94,,-0.04,0.04,1.01,0.0,3.0,1.0,0.06,0,112,0.0,39.674328,-77.417809,0.0,1176.3,7.0,2.0,1.8
3993,8203,1714855090351,1.51,1.94,,-0.11,0.04,0.95,1.0,-2.0,-1.0,0.12,0,120,0.0,39.674328,-77.417809,0.0,1176.3,7.0,2.0,1.8
4013,8243,1714855090393,1.48,1.89,,-0.16,0.04,1.04,0.0,1.0,0.0,0.17,0,120,0.0,39.674328,-77.417809,0.0,1176.3,7.0,2.0,1.8
4033,8283,1714855090433,1.51,1.93,,-0.03,0.03,1.01,0.0,-3.0,0.0,0.04,0,124,0.0,39.674328,-77.417809,0.0,1176.3,7.0,2.0,1.8
4053,8323,1714855090473,1.51,1.93,,-0.05,0.02,0.97,0.0,1.0,0.0,0.05,0,124,0.0,39.674328,-77.417809,0.0,1176.3,7.0,2.0,1.8
4073,8363,1714855090512,1.49,1.92,,-0.1,0.04,1.02,0.0,2.0,1.0,0.11,0,124,0.0,39.674328,-77.417809,0.0,1176.3,7.0,2.0,1.8
4093,8403,1714855090552,1.48,1.9,,-0.18,0.01,1.12,0.0,3.0,1.0,0.18,0,128,0.0,39.674328,-77.417809,0.0,1176.3,7.0,2.0,1.8
4113,8443,1714855090593,1.51,1.92,,-0.1,0.0,0.92,0.0,-3.0,0.0,0.1,0,124,0.0,39.674328,-77.417809,0.0,1176.3,7.0,2.0,1.8
4133,8483,1714855090632,1.51,1.94,,-0.11,0.01,0.94,0.0,4.0,0.0,0.11,0,128,0.0,39.674328,-77.417809,0.0,1176.3,7.0,2.0,1.8
4153,8523,1714855090672,1.5,1.93,,-0.2,0.02,0.96,1.0,-1.0,0.0,0.2,0,128,0.0,39.674328,-77.417809,0.0,1176.3,7.0,2.0,1.8
4173,8563,1714855090712,1.46,1.89,,-0.11,0.05,0.98,0.0,-1.0,0.0,0.13,0,128,0.0,39.674328,-77.417809,0.0,1176.3,7.0,2.0,1.8
4193,8603,1714855090752,1.49,1.92,,-0.06,-0.01,0.91,1.0,1.0,0.0,0.06,0,124,0.0,39.674328,-77.417809,0.0,1176.3,7.0,2.0,1.8
4213,8643,1714855090792,1.5,1.91,,-0.14,0.02,1.04,0.0,0.0,-1.0,0.14,0,132,0.0,39.674328,-77.417809,0.0,1176.3,7.0,2.0,1.8
4233,8683,1714855090832,1.5,1.92,,-0.29,0.0,1.12,1.0,3.0,0.0,0.29,0,124,0.0,39.674328,-77.417809,0.0,1176.3,7.0,2.0,1.8
4253,8723,1714855090872,1.5,1.93,,-0.14,0.02,1.02,-1.0,4.0,0.0,0.14,0,120,0.0,39.674328,-77.417809,0.0,1176.3,7.0,2.0,1.8
4273,8763,1714855090913,1.51,1.93,,-0.18,-0.0,0.91,1.0,-1.0,0.0,0.18,0,112,0.0,39.674328,-77.417809,0.0,1176.3,7.0,2.0,1.8
4293,8803,1714855090952,1.49,1.91,,-0.02,0.0,0.73,1.0,-2.0,-1.0,0.02,0,120,0.0,39.674328,-77.417809,0.0,1176.3,7.0,2.0,1.8
4313,8843,1714855090992,1.51,1.93,,-0.03,0.08,1.02,1.0,-4.0,-1.0,0.09,0,112,0.0,39.674328,-77.417809,0.0,1176.3,7.0,2.0,1.8
4333,8883,1714855091028,1.51,1.93,,-0.15,0.03,1.13,0.0,-1.0,-1.0,0.15,0,124,0.0,39.674328,-77.417809,0.0,1176.3,7.0,2.0,1.8
4353,8923,1714855091072,1.51,1.93,,-0.05,0.05,1.01,-2.0,3.0,0.0,0.07,0,124,0.0,39.674328,-77.417809,0.0,1176.3,7.0,2.0,1.8
4373,8963,1714855091112,1.51,1.94,,-0.17,0.0,0.92,0.0,5.0,0.0,0.17,0,120,0.0,39.674328,-77.417809,0.0,1176.3,7.0,2.0,1.8
4393,9003,1714855091152,1.45,1.87,,-0.21,0.06,0.96,0.0,7.0,0.0,0.22,0,124,0.0,39.674328,-77.417809,0.0,1176.3,7.0,2.0,1.8
4413,9043,1714855091192,1.51,1.93,13.15,-0.29,0.02,0.93,1.0,0.0,0.0,0.3,0,124,0.0,39.674328,-77.417809,0.0,1176.3,7.0,2.0,1.8
4433,9083,1714855091234,1.5,1.93,,-0.16,0.06,1.01,0.0,-2.0,-1.0,0.17,0,120,0.0,39.674328,-77.417809,0.0,1176.3,7.0,2.0,1.8
4453,9123,1714855091272,1.48,1.91,,-0.12,0.03,0.96,2.0,-2.0,-2.0,0.13,0,124,0.0,39.674328,-77.417809,0.0,1176.3,7.0,2.0,1.8
4473,9163,1714855091312,1.46,1.89,,-0.1,0.03,0.92,-2.0,13.0,0.0,0.1,0,120,0.0,39.674328,-77.417809,0.0,1176.3,7.0,2.0,1.8
4493,9203,1714855091352,1.46,1.88,,-0.31,0.03,1.07,-1.0,-1.0,0.0,0.31,0,116,0.0,39.674328,-77.417809,0.0,1176.3,7.0,2.0,1.8
4513,9243,1714855091392,1.49,1.93,,-0.42,0.01,1.14,-4.0,7.0,2.0,0.42,0,124,0.0,39.674328,-77.417809,0.0,1176.3,7.0,2.0,1.8
4533,9283,1714855091432,1.46,1.9,,-0.12,0.0,0.74,-3.0,-7.0,-2.0,0.12,0,112,0.0,39.674328,-77.417809,0.0,1176.3,7.0,2.0,1.8
4553,9323,1714855091474,1.47,1.91,,-0.18,0.02,0.93,-3.0,5.0,3.0,0.18,0,128,0.0,39.674324,-77.417809,1.0,1153.3,7.0,2.0,1.8
4573,9363,1714855091514,1.49,1.93,,-0.14,0.09,1.02,-3.0,1.0,4.0,0.16,0,116,0.0,39.674324,-77.417809,1.13,1153.1,7.0,2.0,1.8
4593,9403,1714855091554,1.45,1.88,,-0.36,0.03,1.23,-3.0,-2.0,3.0,0.36,0,112,0.0,39.674324,-77.417809,1.24,1152.8,7.0,2.0,1.8
4613,9443,1714855091593,1.49,1.93,,-0.23,0.06,1.09,-7.0,4.0,4.0,0.23,0,124,0.0,39.674324,-77.417809,1.38,1152.6,7.0,2.0,1.8
4633,9483,1714855091633,1.48,1.93,,-0.22,0.1,0.88,-5.0,0.0,3.0,0.24,0,112,0.0,39.674324,-77.417809,1.51,1152.3,7.0,2.0,1.8
4653,9523,1714855091673,1.48,1.93,,-0.29,0.09,0.78,-7.0,0.0,5.0,0.3,0,128,0.0,39.674324,-77.417809,1.68,1152.1,7.0,2.0,1.8
4673,9563,1714855091713,1.48,1.93,,-0.23,0.16,0.88,-11.0,-4.0,2.0,0.28,0,116,0.0,39.674324,-77.417809,1.74,1151.8,7.0,2.0,1.8
4693,9603,1714855091753,1.48,1.93,,-0.3,0.08,1.06,-12.0,-1.0,4.0,0.31,0,120,0.0,39.674324,-77.417809,1.96,1151.6,7.0,2.0,1.8
4713,9643,1714855091793,1.45,1.91,,0.0,0.14,1.11,-15.0,1.0,5.0,0.14,0,120,0.0,39.674324,-77.417809,1.9,1151.3,7.0,2.0,1.8
4733,9683,1714855091833,1.48,1.93,,-0.14,0.16,0.94,-14.0,2.0,5.0,0.21,0,116,0.0,39.674324,-77.417809,2.25,1151.1,7.0,2.0,1.8
4753,9723,1714855091874,1.46,1.92,,-0.21,0.19,0.85,-17.0,12.0,6.0,0.28,0,124,0.0,39.674324,-77.417809,2.04,1150.9,7.0,2.0,1.8
4773,9763,1714855091913,1.45,1.91,,-0.37,0.05,0.88,-15.0,-2.0,4.0,0.37,0,120,0.0,39.674324,-77.417809,2.03,1150.7,7.0,2.0,1.8
4793,9803,1714855091953,1.44,1.9,,-0.26,0.15,1.05,-16.0,0.0,6.0,0.3,0,116,0.0,39.674324,-77.417809,2.29,1150.5,7.0,2.0,1.8
4813,9843,1714855091993,1.46,1.93,,-0.04,0.31,1.02,-20.0,-5.0,8.0,0.32,0,124,0.0,39.674324,-77.417809,2.36,1150.4,7.0,2.0,1.8
4833,9883,1714855092029,1.43,1.89,,-0.12,0.28,1.16,-23.0,4.0,4.0,0.3,0,112,0.0,39.674324,-77.417816,2.59,1150.3,7.0,2.0,1.8
4853,9923,1714855092073,1.41,1.89,,-0.2,0.22,1.11,-24.0,14.0,4.0,0.3,0,124,0.0,39.674324,-77.417816,2.39,1150.2,7.0,2.0,1.8
4873,9963,1714855092113,1.44,1.91,,-0.33,0.14,1.01,-20.0,0.0,1.0,0.36,0,124,0.0,39.674324,-77.417816,2.47,1150.1,7.0,2.0,1.8
4893,10003,1714855092153,1.45,1.92,,-0.32,0.18,1.13,-23.0,2.0,1.0,0.37,0,116,0.0,39.674324,-77.417816,2.44,1150.0,7.0,2.0,1.8
4913,10043,1714855092194,1.45,1.92,13.13,0.03,0.1,0.86,-24.0,4.0,5.0,0.11,0,120,0.0,39.674324,-77.417816,2.31,1149.9,7.0,2.0,1.8
4933,10083,1714855092233,1.46,1.93,,-0.1,0.18,1.03,-24.0,6.0,5.0,0.2,0,108,0.0,39.674324,-77.417816,2.39,1149.8,7.0,2.0,1.8
4953,10123,1714855092273,1.46,1.94,,-0.21,0.21,1.09,-24.0,20.0,6.0,0.3,0,132,0.0,39.674324,-77.417816,2.59,1149.7,7.0,2.0,1.8
4973,10163,1714855092313,1.4,1.87,,-0.34,0.15,1.16,-21.0,8.0,3.0,0.37,0,132,0.0,39.674324,-77.417816,2.55,1149.6,7.0,2.0,1.8
4993,10203,1714855092353,1.45,1.92,,-0.2,0.12,1.0,-21.0,5.0,2.0,0.23,0,120,0.0,39.674324,-77.417816,2.58,1149.4,7.0,2.0,1.8
5013,10243,1714855092393,1.43,1.9,,-0.1,0.27,0.89,-20.0,-3.0,0.0,0.29,0,120,0.0,39.674324,-77.417824,2.56,1149.2,7.0,2.0,1.8
5033,10283,1714855092433,1.42,1.9,,-0.0,0.2,0.72,-21.0,9.0,-1.0,0.2,0,120,0.0,39.674324,-77.417824,2.61,1149.0,7.0,2.0,1.8
5053,10323,1714855092473,1.44,1.91,,-0.15,0.13,0.92,-20.0,-1.0,0.0,0.2,0,116,0.0,39.67432,-77.417824,2.74,1148.9,7.0,2.0,1.8
5073,10363,1714855092513,1.41,1.89,,-0.22,0.09,1.16,-22.0,6.0,3.0,0.24,0,120,0.0,39.67432,-77.417824,3.06,1148.8,7.0,2.0,1.8
5093,10403,1714855092552,1.43,1.91,,-0.05,0.12,0.99,-22.0,0.0,2.0,0.13,0,116,0.0,39.67432,-77.417824,3.0,1148.7,7.0,2.0,1.8
5113,10443,1714855092592,1.4,1.89,,0.06,0.0,0.98,-20.0,-3.0,1.0,0.06,0,116,0.0,39.67432,-77.417824,2.86,1148.5,7.0,2.0,1.8
5133,10483,1714855092632,1.41,1.89,,-0.02,0.17,0.96,-21.0,12.0,7.0,0.17,0,116,0.0,39.67432,-77.417824,2.85,1148.4,7.0,2.0,1.8
5153,10523,1714855092672,1.43,1.93,,-0.16,0.14,1.0,-20.0,8.0,5.0,0.21,0,120,0.0,39.67432,-77.417824,2.61,1148.2,7.0,2.0,1.8
5173,10563,1714855092712,1.38,1.87,,-0.25,0.0,1.07,-19.0,-4.0,2.0,0.25,0,124,0.0,39.67432,-77.417824,2.7,1148.1,7.0,2.0,1.8
5193,10603,1714855092752,1.43,1.92,,-0.04,0.04,0.87,-20.0,-4.0,2.0,0.05,0,112,0.0,39.67432,-77.417831,2.87,1148.0,7.0,2.0,1.8
5213,10643,1714855092792,1.42,1.92,,0.0,0.17,0.78,-20.0,-4.0,0.0,0.17,0,128,0.0,39.67432,-77.417831,2.68,1147.8,7.0,2.0,1.8
5233,10683,1714855092833,1.4,1.9,,-0.1,0.08,1.02,-22.0,1.0,1.0,0.13,0,116,0.0,39.67432,-77.417831,2.57,1147.7,7.0,2.0,1.8
5253,10723,1714855092872,1.4,1.91,,-0.25,0.0,1.1,-20.0,-1.0,1.0,0.25,0,124,0.0,39.67432,-77.417831,2.48,1147.5,7.0,2.0,1.8
5273,10763,1714855092912,1.39,1.89,,-0.35,-0.05,1.14,-20.0,0.0,1.0,0.35,0,112,0.0,39.67432,-77.417831,2.79,1147.4,7.0,2.0,1.8
5293,10803,1714855092952,1.38,1.88,,-0.1,0.01,0.89,-17.0,-7.0,0.0,0.1,0,124,0.0,39.67432,-77.417831,2.71,1147.3,7.0,2.0,1.8
5313,10843,1714855092992,1.4,1.9,,0.1,0.08,0.92,-18.0,0.0,2.0,0.13,0,124,0.0,39.67432,-77.417831,2.67,1147.2,7.0,2.0,1.8
5333,10883,1714855093028,1.4,1.89,,-0.0,0.08,1.03,-19.0,8.0,7.0,0.08,0,116,0.0,39.67432,-77.417831,2.63,1147.1,7.0,2.0,1.8
5353,10923,1714855093072,1.38,1.86,,-0.23,0.2,0.97,-20.0,11.0,4.0,0.3,0,116,0.0,39.67432,-77.417831,2.77,1147.0,7.0,2.0,1.8
5373,10963,1714855093112,1.37,1.87,,-0.22,0.05,1.13,-22.0,-5.0,-1.0,0.23,0,124,0.0,39.67432,-77.417831,2.6,1146.8,7.0,2.0,1.8
5393,11003,1714855093153,1.33,1.82,,-0.03,0.03,0.62,-20.0,-15.0,-5.0,0.04,0,124,0.0,39.67432,-77.417831,2.38,1146.7,7.0,2.0,1.8
5413,11043,1714855093194,1.37,1.87,13.14,-0.13,0.16,0.33,-16.0,-4.0,-3.0,0.21,0,128,0.0,39.67432,-77.417831,2.34,1146.5,7.0,2.0,1.8
5433,11083,1714855093232,1.37,1.87,,-0.22,-0.08,0.74,-25.0,9.0,2.0,0.23,0,140,0.0,39.67432,-77.417839,2.82,1146.4,7.0,2.0,1.8
5453,11123,1714855093272,1.37,1.87,,-0.06,-0.03,0.75,-17.0,-21.0,0.0,0.07,0,136,0.0,39.67432,-77.417839,2.76,1146.3,7.0,2.0,1.8
5473,11163,1714855093312,1.36,1.86,,-0.35,0.08,0.65,-21.0,15.0,10.0,0.36,0,140,0.0,39.674316,-77.417839,2.99,1146.3,7.0,2.0,1.8
5493,11203,1714855093352,1.32,1.82,,-0.4,0.26,0.65,-20.0,-21.0,-2.0,0.48,0,160,0.0,39.674316,-77.417839,2.9,1146.3,7.0,2.0,1.8
5513,11243,1714855093392,1.34,1.84,,-0.33,0.14,1.19,-30.0,3.0,4.0,0.36,0,148,0.0,39.674316,-77.417839,2.89,1146.2,7.0,2.0,1.8
5533,11283,1714855093432,1.34,1.85,,-0.42,0.11,0.67,-29.0,-12.0,2.0,0.44,0,160,0.0,39.674316,-77.417839,2.83,1146.2,7.0,2.0,1.8
5553,11323,1714855093473,1.34,1.86,,-0.44,0.12,0.87,-30.0,-5.0,6.0,0.45,0,148,0.0,39.674316,-77.417839,3.03,1146.2,7.0,2.0,1.8
5573,11363,1714855093512,1.34,1.85,,-0.58,0.34,0.78,-32.0,15.0,8.0,0.67,0,144,0.0,39.674316,-77.417839,3.19,1146.2,7.0,2.0,1.8
5593,11403,1714855093553,1.29,1.8,,-0.03,0.32,0.65,-31.0,-30.0,-10.0,0.32,0,144,0.0,39.674316,-77.417839,3.39,1146.1,7.0,2.0,1.8
5613,11443,1714855093591,1.29,1.81,,0.07,0.31,0.74,-44.0,-1.0,-3.0,0.32,0,164,0.0,39.674316,-77.417839,3.6,1146.1,7.0,2.0,1.8
5633,11483,1714855093633,1.3,1.82,,-0.25,0.03,0.83,-39.0,-2.0,-1.0,0.25,0,76,0.0,39.674316,-77.417839,3.81,1146.0,7.0,2.0,1.8
5653,11523,1714855093671,1.29,1.82,,0.02,0.31,1.05,-40.0,-14.0,-1.0,0.31,0,76,0.0,39.674316,-77.417839,3.82,1146.0,7.0,2.0,1.8
5673,11563,1714855093713,1.32,1.85,,-0.2,0.27,0.79,-46.0,17.0,1.0,0.34,0,148,0.0,39.674313,-77.417839,3.98,1146.0,7.0,2.0,1.8
5693,11603,1714855093753,1.3,1.84,,0.14,0.31,0.7,-48.0,-3.0,-5.0,0.34,0,148,0.0,39.674313,-77.417839,3.55,1146.0,7.0,2.0,1.8
5713,11643,1714855093794,1.3,1.83,,-0.44,0.02,0.65,-51.0,10.0,5.0,0.44,0,164,0.0,39.674313,-77.417847,3.66,1146.1,7.0,2.0,1.8
5733,11683,1714855093833,1.28,1.83,,0.08,-0.05,0.8,-45.0,-8.0,8.0,0.1,0,76,0.0,39.674313,-77.417847,3.98,1146.1,7.0,2.0,1.8
5753,11723,1714855093873,1.28,1.82,,-0.2,0.16,0.96,-43.0,15.0,22.0,0.26,0,136,0.0,39.674313,-77.417847,4.41,1146.2,7.0,2.0,1.8
5773,11763,1714855093913,1.32,1.87,,0.05,0.48,0.83,-47.0,-12.0,9.0,0.48,0,144,0.0,39.674313,-77.417847,4.51,1146.3,7.0,2.0,1.8
5793,11803,1714855093953,1.3,1.85,,-0.28,0.31,0.32,-55.0,10.0,5.0,0.42,0,136,0.0,39.674313,-77.417847,4.37,1146.4,7.0,2.0,1.8
5813,11843,1714855093993,1.28,1.84,,-0.46,0.21,0.85,-58.0,9.0,5.0,0.51,0,140,0.0,39.674313,-77.417847,4.34,1146.4,7.0,2.0,1.8
5833,11883,1714855094029,1.31,1.87,,0.04,0.08,0.7,-52.0,-28.0,-3.0,0.09,0,136,0.0,39.674313,-77.417847,4.48,1146.3,7.0,2.0,1.8
5853,11923,1714855094073,1.28,1.84,,0.19,0.27,0.5,-54.0,4.0,7.0,0.33,0,128,0.0,39.674313,-77.417847,5.21,1146.3,8.0,2.0,1.7
5873,11963,1714855094114,1.26,1.83,,-0.05,0.46,0.95,-56.0,-14.0,2.0,0.46,0,132,0.0,39.674309,-77.417847,5.09,1146.3,8.0,2.0,1.7
5893,12003,1714855094153,1.28,1.84,,0.16,0.33,0.65,-56.0,-20.0,-14.0,0.37,0,124,0.0,39.674309,-77.417847,4.9,1146.2,8.0,2.0,1.7
5913,12043,1714855094193,1.29,1.88,13.11,0.05,0.07,0.41,-54.0,13.0,-2.0,0.08,0,124,0.0,39.674309,-77.417847,4.98,1146.2,8.0,2.0,1.7
5933,12083,1714855094233,1.28,1.87,,-0.18,0.16,0.59,-55.0,22.0,6.0,0.24,0,64,0.0,39.674309,-77.417847,5.03,1146.1,8.0,2.0,1.7
5953,12123,1714855094273,1.22,1.81,,0.08,0.33,0.82,-55.0,-15.0,-3.0,0.34,0,120,0.0,39.674305,-77.417854,4.75,1146.1,8.0,2.0,1.7
5973,12163,1714855094313,1.27,1.87,,0.18,0.22,0.67,-54.0,5.0,1.0,0.28,0,136,0.0,39.674305,-77.417854,5.18,1146.0,8.0,2.0,1.7
5993,12203,1714855094353,1.25,1.86,,-0.19,0.21,1.07,-51.0,20.0,7.0,0.28,0,124,0.0,39.674305,-77.417854,4.98,1145.9,8.0,2.0,1.7
6013,12243,1714855094393,1.27,1.86,,-0.03,0.24,0.9,-53.0,-7.0,4.0,0.24,0,128,0.0,39.674305,-77.417854,4.82,1145.9,8.0,2.0,1.7
6033,12283,1714855094434,1.27,1.86,,0.04,0.14,0.54,-52.0,-12.0,-9.0,0.15,0,120,0.0,39.674305,-77.417854,4.91,1145.9,8.0,2.0,1.7
6053,12323,1714855094473,1.27,1.86,,0.01,0.09,0.37,-49.0,6.0,2.0,0.09,0,128,0.0,39.674301,-77.417854,5.05,1145.8,8.0,2.0,1.7
6073,12363,1714855094513,1.23,1.82,,-0.19,0.26,0.53,-49.0,17.0,12.0,0.32,0,124,0.0,39.674301,-77.417854,5.74,1145.7,8.0,2.0,1.7
6093,12403,1714855094552,1.27,1.88,,-0.06,0.45,0.77,-55.0,-9.0,-2.0,0.45,0,124,0.0,39.674301,-77.417854,5.63,1145.6,8.0,2.0,1.7
6113,12443,1714855094592,1.27,1.87,,0.16,0.07,0.74,-57.0,-7.0,-3.0,0.17,0,116,0.0,39.674301,-77.417854,5.83,1145.6,8.0,2.0,1.7
6133,12483,1714855094632,1.27,1.87,,0.17,0.06,0.94,-55.0,-2.0,10.0,0.18,0,52,0.0,39.674297,-77.417847,5.84,1145.5,8.0,2.0,1.7
6153,12523,1714855094670,1.25,1.86,,0.18,0.37,1.0,-56.0,-1.0,10.0,0.41,0,52,0.0,39.674297,-77.417847,5.55,1145.4,8.0,2.0,1.7
6173,12563,1714855094710,1.23,1.83,,0.11,0.21,0.82,-54.0,-2.0,3.0,0.24,0,108,0.0,39.674297,-77.417847,4.97,1145.4,8.0,2.0,1.7
6193,12603,1714855094752,1.28,1.89,,0.28,0.18,0.87,-49.0,-11.0,-3.0,0.34,0,48,0.0,39.674297,-77.417847,5.93,1145.3,8.0,2.0,1.7
6213,12643,1714855094790,1.25,1.86,,0.2,0.18,0.94,-48.0,-10.0,-2.0,0.27,0,96,0.0,39.674294,-77.417847,6.59,1145.2,8.0,2.0,1.7
6233,12683,1714855094830,1.29,1.9,,0.34,0.13,1.15,-48.0,-11.0,0.0,0.37,0,96,0.0,39.674294,-77.417847,6.48,1145.2,8.0,2.0,1.7
6253,12723,1714855094872,1.25,1.87,,0.27,0.18,1.0,-50.0,-3.0,0.0,0.32,0,100,0.0,39.674294,-77.417847,6.57,1145.1,8.0,2.0,1.7
6273,12763,1714855094912,1.26,1.87,,0.29,-0.04,0.95,-51.0,-4.0,6.0,0.29,0,100,0.0,39.674294,-77.417847,6.19,1145.0,8.0,2.0,1.7
6293,12803,1714855094952,1.28,1.86,,0.06,0.04,0.81,-49.0,-1.0,9.0,0.07,0,100,0.0,39.674294,-77.417847,5.88,1144.9,8.0,2.0,1.7
6313,12843,1714855094992,1.29,1.9,,0.22,0.09,0.96,-47.0,-7.0,0.0,0.24,0,100,0.0,39.674294,-77.417847,6.09,1144.9,8.0,2.0,1.7
6333,12883,1714855095028,1.28,1.89,,0.21,0.05,1.02,-43.0,-3.0,-5.0,0.22,0,100,0.0,39.674294,-77.417847,5.57,1145.0,8.0,2.0,1.7
6353,12923,1714855095074,1.29,1.91,,0.27,0.11,1.13,-42.0,-2.0,-4.0,0.29,0,100,0.0,39.674294,-77.417847,5.39,1145.0,8.0,2.0,1.7
6373,12963,1714855095112,1.26,1.88,,0.17,0.16,1.03,-42.0,9.0,-5.0,0.23,0,100,0.0,39.67429,-77.417847,4.88,1145.0,8.0,2.0,1.7
6393,13003,1714855095152,1.26,1.9,,0.13,0.04,0.99,-43.0,7.0,-4.0,0.13,0,48,0.0,39.67429,-77.417839,4.58,1145.1,8.0,2.0,1.7
6413,13043,1714855095192,1.25,1.86,13.13,-0.0,0.02,0.75,-40.0,6.0,3.0,0.02,0,48,0.0,39.67429,-77.417839,4.33,1145.1,8.0,2.0,1.7
6433,13083,1714855095232,1.29,1.91,,-0.06,0.06,1.0,-39.0,-3.0,3.0,0.08,0,48,0.0,39.67429,-77.417839,4.61,1145.1,8.0,2.0,1.7
6453,13123,1714855095272,1.3,1.91,,0.16,-0.02,1.1,-37.0,-6.0,0.0,0.16,0,12,0.0,39.67429,-77.417839,4.48,1145.1,8.0,2.0,1.7
6473,13163,1714855095312,1.31,1.91,,0.08,-0.05,1.04,-36.0,-6.0,0.0,0.09,0,12,0.0,39.674286,-77.417839,4.81,1145.1,8.0,2.0,1.7
6493,13203,1714855095352,1.29,1.89,,0.0,0.02,1.12,-37.0,-7.0,6.0,0.02,0,12,0.0,39.674286,-77.417839,4.62,1145.1,8.0,2.0,1.7
6513,13243,1714855095393,1.32,1.92,,0.25,0.15,1.05,-39.0,-3.0,5.0,0.29,0,12,0.0,39.674286,-77.417839,4.62,1145.0,8.0,2.0,1.7
6533,13283,1714855095432,1.29,1.9,,0.18,0.24,1.07,-40.0,7.0,6.0,0.3,0,44,0.0,39.674286,-77.417839,4.39,1145.0,8.0,2.0,1.7
6553,13323,1714855095472,1.33,1.95,,0.12,0.22,1.1,-41.0,5.0,1.0,0.25,0,44,0.0,39.674286,-77.417839,4.41,1144.9,8.0,2.0,1.7
6573,13363,1714855095512,1.34,1.95,,0.25,-0.02,0.8,-42.0,6.0,1.0,0.25,0,44,0.0,39.674286,-77.417831,3.9,1144.8,8.0,2.0,1.7
6593,13403,1714855095551,1.33,1.94,,0.0,-0.07,0.85,-40.0,6.0,7.0,0.07,0,44,0.0,39.674282,-77.417831,4.01,1144.6,8.0,2.0,1.7
6613,13443,1714855095583,1.33,1.93,,0.09,-0.03,0.85,-38.0,0.0,6.0,0.1,0,20,0.0,39.674282,-77.417831,4.01,1144.5,8.0,2.0,1.7
6633,13483,1714855095623,1.34,1.94,,0.18,-0.05,0.87,-36.0,-3.0,4.0,0.19,0,20,0.0,39.674282,-77.417831,3.69,1144.5,8.0,2.0,1.7
6653,13523,1714855095663,1.34,1.94,,0.2,0.01,0.92,-33.0,-8.0,7.0,0.2,0,92,0.0,39.674282,-77.417831,3.94,1144.3,8.0,2.0,1.7
6673,13563,1714855095704,1.34,1.94,,0.07,0.04,0.96,-33.0,-3.0,10.0,0.08,0,92,0.0,39.674282,-77.417831,3.8,1144.3,8.0,2.0,1.7
6693,13603,1714855095743,1.34,1.94,,0.13,0.18,1.17,-33.0,-8.0,6.0,0.22,0,92,0.0,39.674282,-77.417831,4.01,1144.1,8.0,2.0,1.7
6713,13643,1714855095783,1.31,1.92,,0.23,0.27,1.02,-35.0,-3.0,0.0,0.35,0,92,0.0,39.674282,-77.417831,4.15,1144.1,8.0,2.0,1.7
6733,13683,1714855095823,1.34,1.95,,0.17,0.17,1.11,-37.0,4.0,-3.0,0.24,0,92,0.0,39.674278,-77.417831,3.85,1144.0,8.0,2.0,1.7
6753,13723,1714855095863,1.32,1.93,,0.1,0.04,0.89,-36.0,5.0,-3.0,0.11,0,92,0.0,39.674278,-77.417824,3.82,1143.9,8.0,2.0,1.7
6773,13763,1714855095903,1.31,1.91,,-0.06,0.04,1.19,-35.0,3.0,4.0,0.08,0,92,0.0,39.674278,-77.417824,3.65,1143.8,8.0,2.0,1.7
6793,13803,1714855095943,1.36,1.96,,0.11,0.21,1.02,-33.0,-3.0,2.0,0.24,0,92,0.0,39.674278,-77.417824,3.64,1143.7,8.0,2.0,1.7
6813,13843,1714855095983,1.3,1.9,,0.18,0.24,1.25,-35.0,2.0,-3.0,0.3,0,16,0.0,39.674278,-77.417824,3.62,1143.6,8.0,2.0,1.7
6833,13883,1714855096020,1.36,1.96,,0.0,0.12,0.83,-35.0,1.0,-3.0,0.12,0,48,0.0,39.674278,-77.417824,3.96,1143.4,8.0,2.0,1.7
6853,13923,1714855096063,1.35,1.95,,-0.1,0.13,1.04,-37.0,-5.0,-2.0,0.17,0,100,0.0,39.674278,-77.417824,3.72,1143.3,8.0,2.0,1.7
6873,13963,1714855096103,1.35,1.95,,0.08,-0.07,0.87,-37.0,-11.0,-3.0,0.11,0,100,0.0,39.674278,-77.417824,3.84,1143.2,8.0,2.0,1.7
6893,14003,1714855096143,1.34,1.94,,0.24,-0.03,1.22,-37.0,1.0,0.0,0.24,0,100,0.0,39.674278,-77.417824,3.9,1143.1,8.0,2.0,1.7
6913,14043,1714855096183,1.31,1.9,13.15,0.2,-0.07,0.68,-35.0,-1.0,5.0,0.21,0,104,0.0,39.674278,-77.417816,3.76,1143.0,8.0,2.0,1.7
6933,14083,1714855096223,1.34,1.95,,0.13,0.02,1.14,-34.0,-4.0,5.0,0.13,0,48,0.0,39.674278,-77.417816,3.86,1142.8,8.0,2.0,1.7
6953,14123,1714855096263,1.32,1.91,,0.1,0.04,1.06,-33.0,2.0,5.0,0.11,0,104,0.0,39.674274,-77.417816,3.97,1142.7,8.0,2.0,1.7
6973,14163,1714855096303,1.36,1.95,,0.19,0.05,0.92,-33.0,-10.0,0.0,0.19,0,108,0.0,39.674274,-77.417816,3.99,1142.7,8.0,2.0,1.7
6993,14203,1714855096344,1.34,1.94,,0.32,0.15,0.93,-37.0,8.0,6.0,0.35,0,104,0.0,39.674274,-77.417816,3.58,1142.6,8.0,2.0,1.7
7013,14243,1714855096383,1.36,1.95,,0.35,0.15,0.65,-35.0,0.0,5.0,0.38,0,104,0.0,39.674274,-77.417816,3.73,1142.5,8.0,2.0,1.7
7033,14283,1714855096423,1.36,1.95,,0.09,0.19,0.77,-38.0,21.0,10.0,0.21,0,108,0.0,39.674274,-77.417816,3.65,1142.4,8.0,2.0,1.7
7053,14323,1714855096463,1.35,1.96,,-0.05,0.16,0.93,-38.0,-1.0,4.0,0.17,0,52,0.0,39.674274,-77.417816,3.54,1142.4,8.0,2.0,1.7
7073,14363,1714855096503,1.31,1.91,,-0.05,0.16,1.05,-37.0,2.0,1.0,0.17,0,120,0.0,39.674274,-77.417809,3.66,1142.3,8.0,2.0,1.7
7093,14403,1714855096542,1.32,1.93,,-0.05,0.07,1.13,-34.0,0.0,0.0,0.09,0,108,0.0,39.674274,-77.417809,3.88,1142.2,8.0,2.0,1.7
7113,14443,1714855096582,1.31,1.91,,-0.04,0.19,1.13,-33.0,-4.0,-1.0,0.19,0,112,0.0,39.674274,-77.417809,3.74,1142.0,8.0,2.0,1.7
7133,14483,1714855096622,1.3,1.91,,0.16,0.06,0.87,-36.0,-2.0,3.0,0.17,0,116,0.0,39.674274,-77.417809,3.92,1141.9,8.0,2.0,1.7
7153,14523,1714855096663,1.32,1.92,,0.29,0.22,0.86,-36.0,0.0,3.0,0.36,0,108,0.0,39.674274,-77.417809,4.05,1141.8,8.0,2.0,1.7
7173,14563,1714855096702,1.3,1.89,,0.1,0.18,1.14,-33.0,4.0,0.0,0.21,0,116,0.0,39.674274,-77.417809,3.86,1141.7,8.0,2.0,1.7
7193,14603,1714855096742,1.36,1.94,,-0.1,-0.0,1.21,-31.0,0.0,4.0,0.1,0,104,0.0,39.674274,-77.417809,4.0,1141.7,8.0,2.0,1.7
7213,14643,1714855096782,1.35,1.94,,-0.22,0.17,0.89,-32.0,-6.0,8.0,0.28,0,116,0.0,39.674274,-77.417809,3.9,1141.7,8.0,2.0,1.7
7233,14683,1714855096822,1.35,1.95,,0.04,0.21,0.86,-37.0,-8.0,5.0,0.21,0,112,0.0,39.674274,-77.417809,4.01,1141.7,8.0,2.0,1.7
7253,14723,1714855096864,1.33,1.93,,0.29,0.11,1.16,-37.0,-1.0,6.0,0.31,0,56,0.0,39.674274,-77.417809,4.16,1141.6,8.0,2.0,1.7
7273,14763,1714855096904,1.31,1.89,,0.16,-0.01,1.11,-36.0,-1.0,10.0,0.16,0,108,0.0,39.674274,-77.417809,4.19,1141.6,8.0,2.0,1.7
7293,14803,1714855096944,1.36,1.94,,0.06,0.18,1.01,-36.0,-3.0,7.0,0.19,0,116,0.0,39.674274,-77.417809,3.82,1141.6,8.0,2.0,1.7
7313,14843,1714855096984,1.35,1.94,,0.24,0.26,0.93,-36.0,-6.0,2.0,0.36,0,108,0.0,39.674274,-77.417809,3.9,1141.6,8.0,2.0,1.7
7333,14883,1714855097018,1.35,1.93,,0.06,0.22,0.92,-35.0,-1.0,-3.0,0.22,0,116,0.0,39.674274,-77.417809,3.93,1141.5,8.0,2.0,1.7
7353,14923,1714855097062,1.3,1.9,,-0.14,0.15,0.88,-32.0,-2.0,-7.0,0.21,0,116,0.0,39.674274,-77.417801,3.75,1141.6,8.0,2.0,1.7
7373,14963,1714855097102,1.3,1.91,,0.0,0.14,0.95,-34.0,-5.0,-2.0,0.14,0,108,0.0,39.674274,-77.417801,3.7,1141.5,8.0,2.0,1.7
7393,15003,1714855097142,1.33,1.95,,0.26,0.25,0.83,-37.0,2.0,5.0,0.36,0,116,0.0,39.674274,-77.417801,4.22,1141.5,8.0,2.0,1.7
7413,15043,1714855097182,1.31,1.93,13.13,0.16,0.26,0.93,-38.0,7.0,3.0,0.31,0,112,0.0,39.674274,-77.417801,3.46,1141.5,8.0,2.0,1.7
7433,15083,1714855097222,1.35,1.94,,-0.14,0.21,0.92,-37.0,-1.0,2.0,0.25,0,120,0.0,39.674274,-77.417801,4.07,1141.5,8.0,2.0,1.7
7453,15123,1714855097262,1.35,1.96,,0.02,0.15,0.98,-34.0,-10.0,-1.0,0.15,0,116,0.0,39.674274,-77.417801,4.01,1141.5,8.0,2.0,1.7
7473,15163,1714855097304,1.35,1.96,,0.16,0.13,1.17,-33.0,-6.0,-1.0,0.21,0,108,0.0,39.674274,-77.417801,4.15,1141.5,8.0,2.0,1.7
7493,15203,1714855097342,1.3,1.91,,0.16,0.33,1.28,-33.0,-4.0,0.0,0.37,0,116,0.0,39.674274,-77.417801,4.24,1141.5,8.0,2.0,1.7
7513,15243,1714855097382,1.32,1.93,,-0.0,0.22,0.89,-34.0,-5.0,-4.0,0.22,0,112,0.0,39.674274,-77.417793,4.28,1141.5,8.0,2.0,1.7
7533,15283,1714855097424,1.36,1.97,,0.25,0.15,0.89,-37.0,-4.0,-4.0,0.29,0,116,0.0,39.674274,-77.417793,4.12,1141.5,8.0,2.0,1.7
7553,15323,1714855097462,1.35,1.96,,0.26,0.18,0.95,-38.0,3.0,-1.0,0.32,0,112,0.0,39.674274,-77.417793,3.72,1141.5,8.0,2.0,1.7
7573,15363,1714855097504,1.34,1.95,,0.01,0.13,1.1,-37.0,4.0,3.0,0.13,0,112,0.0,39.674278,-77.417793,3.65,1141.5,8.0,2.0,1.7
7593,15403,1714855097541,1.34,1.95,,-0.15,0.14,0.96,-36.0,-2.0,4.0,0.21,0,116,0.0,39.674278,-77.417793,3.96,1141.6,8.0,2.0,1.7
7613,15443,1714855097581,1.3,1.91,,0.02,0.31,0.89,-37.0,-5.0,4.0,0.31,0,112,0.0,39.674278,-77.417793,3.85,1141.6,8.0,2.0,1.7
7633,15483,1714855097622,1.35,1.96,,0.25,0.18,1.11,-36.0,-4.0,1.0,0.3,0,116,0.0,39.674278,-77.417793,4.18,1141.6,8.0,2.0,1.7
7653,15523,1714855097661,1.35,1.96,,0.17,0.18,1.03,-34.0,-4.0,-1.0,0.24,0,112,0.0,39.674278,-77.417793,3.95,1141.6,8.0,2.0,1.7
7673,15563,1714855097701,1.35,1.96,,0.12,0.18,1.07,-34.0,-1.0,2.0,0.21,0,116,0.0,39.674278,-77.417793,4.09,1141.5,8.0,2.0,1.7
7693,15603,1714855097741,1.35,1.97,,0.33,0.33,0.99,-35.0,0.0,1.0,0.47,0,112,0.0,39.674278,-77.417786,3.73,1141.4,8.0,2.0,1.7
7713,15643,1714855097781,1.32,1.94,,0.14,0.21,1.01,-37.0,5.0,-1.0,0.25,0,116,0.0,39.674278,-77.417786,4.02,1141.4,8.0,2.0,1.7
7733,15683,1714855097819,1.35,1.97,,-0.15,0.06,0.93,-36.0,6.0,4.0,0.16,0,124,0.0,39.674278,-77.417786,3.61,1141.4,8.0,2.0,1.7
7753,15723,1714855097863,1.33,1.94,,-0.04,0.18,0.84,-35.0,-8.0,4.0,0.19,0,112,0.0,39.674278,-77.417786,3.76,1141.4,8.0,2.0,1.7
7773,15763,1714855097903,1.3,1.91,,0.25,0.22,0.83,-34.0,-10.0,1.0,0.33,0,112,0.0,39.674282,-77.417786,3.87,1141.3,8.0,2.0,1.7
7793,15803,1714855097944,1.3,1.91,,0.23,0.2,1.04,-33.0,-2.0,0.0,0.3,0,112,0.0,39.674282,-77.417786,4.02,1141.3,8.0,2.0,1.7
7813,15843,1714855097983,1.34,1.96,,0.1,0.31,1.04,-34.0,4.0,1.0,0.33,0,112,0.0,39.674282,-77.417786,4.04,1141.3,8.0,2.0,1.7
7833,15883,1714855098017,1.31,1.92,,0.09,0.24,0.87,-36.0,-6.0,-1.0,0.26,0,112,0.0,39.674282,-77.417786,4.19,1141.2,8.0,2.0,1.7
7853,15923,1714855098063,1.31,1.93,,0.13,0.17,1.12,-35.0,-3.0,0.0,0.22,0,112,0.0,39.674282,-77.417786,3.86,1141.2,8.0,2.0,1.7
7873,15963,1714855098103,1.32,1.94,,0.1,0.17,1.19,-33.0,6.0,0.0,0.2,0,112,0.0,39.674282,-77.417786,3.98,1141.1,8.0,2.0,1.7
7893,16003,1714855098143,1.32,1.93,,-0.06,0.13,0.91,-30.0,-1.0,0.0,0.14,0,112,0.0,39.674282,-77.417778,3.85,1141.1,8.0,2.0,1.7
7913,16043,1714855098183,1.35,1.96,13.15,0.07,0.26,1.0,-29.0,-9.0,-5.0,0.27,0,120,0.0,39.674282,-77.417778,3.78,1141.1,8.0,2.0,1.7
7933,16083,1714855098223,1.3,1.91,,0.25,0.25,1.08,-32.0,-1.0,-6.0,0.35,0,104,0.0,39.674286,-77.417778,3.93,1141.1,8.0,2.0,1.7
7953,16123,1714855098264,1.34,1.96,,0.22,0.18,0.78,-31.0,5.0,-3.0,0.28,0,120,0.0,39.674286,-77.417778,3.93,1141.0,8.0,2.0,1.7
7973,16163,1714855098303,1.34,1.93,,0.12,0.14,0.98,-30.0,2.0,1.0,0.18,0,104,0.0,39.674286,-77.417778,3.63,1141.0,8.0,2.0,1.7
7993,16203,1714855098343,1.3,1.91,,-0.16,0.22,1.16,-34.0,4.0,5.0,0.27,0,112,0.0,39.674286,-77.417778,3.69,1140.9,8.0,2.0,1.7
8013,16243,1714855098383,1.34,1.96,,-0.04,0.25,1.03,-40.0,-4.0,6.0,0.25,0,116,0.0,39.674286,-77.417778,3.71,1140.9,8.0,2.0,1.7
8033,16283,1714855098423,1.35,1.96,,0.11,0.21,0.82,-38.0,-1.0,1.0,0.24,0,116,0.0,39.674286,-77.417778,3.61,1140.9,8.0,2.0,1.7
8053,16323,1714855098463,1.33,1.95,,0.04,0.25,0.91,-34.0,6.0,-4.0,0.25,0,128,0.0,39.67429,-77.417778,3.67,1140.8,8.0,2.0,1.7
8073,16363,1714855098503,1.34,1.96,,-0.08,0.17,0.98,-30.0,-9.0,-6.0,0.19,0,132,0.0,39.67429,-77.417778,3.85,1140.7,8.0,2.0,1.7
8093,16403,1714855098540,1.35,1.96,,0.09,0.19,1.09,-29.0,-6.0,-2.0,0.21,0,116,0.0,39.67429,-77.417778,3.92,1140.7,8.0,2.0,1.7
8113,16443,1714855098582,1.33,1.94,,0.23,0.25,0.92,-30.0,-5.0,3.0,0.34,0,128,0.0,39.67429,-77.417778,4.13,1140.6,8.0,2.0,1.7
8133,16483,1714855098620,1.3,1.91,,-0.03,0.29,1.08,-35.0,5.0,4.0,0.29,0,124,0.0,39.67429,-77.41777,3.94,1140.6,8.0,2.0,1.7
8153,16523,1714855098660,1.29,1.91,,0.07,0.14,0.93,-37.0,2.0,3.0,0.16,0,132,0.0,39.674294,-77.41777,3.94,1140.6,8.0,2.0,1.7
8173,16563,1714855098700,1.33,1.96,,0.12,0.23,1.12,-37.0,2.0,1.0,0.26,0,120,0.0,39.674294,-77.41777,4.01,1140.5,8.0,2.0,1.7
8193,16603,1714855098742,1.31,1.92,,0.04,0.38,0.95,-40.0,8.0,-2.0,0.39,0,132,0.0,39.674294,-77.41777,3.8,1140.4,8.0,2.0,1.7
8213,16643,1714855098782,1.3,1.92,,0.05,0.21,0.88,-38.0,4.0,-2.0,0.21,0,132,0.0,39.674294,-77.41777,3.77,1140.3,8.0,2.0,1.7
8233,16683,1714855098822,1.35,1.96,,-0.02,0.2,1.22,-37.0,5.0,1.0,0.2,0,128,0.0,39.674294,-77.41777,3.88,1140.2,8.0,2.0,1.7
8253,16723,1714855098864,1.29,1.9,,0.13,0.2,0.99,-39.0,0.0,4.0,0.24,0,124,0.0,39.674294,-77.41777,4.03,1140.1,8.0,2.0,1.7
8273,16763,1714855098905,1.34,1.96,,0.05,0.29,0.85,-37.0,3.0,8.0,0.29,0,128,0.0,39.674294,-77.41777,3.81,1140.0,8.0,2.0,1.7
8293,16803,1714855098944,1.31,1.92,,-0.16,0.38,1.04,-37.0,-5.0,5.0,0.41,0,124,0.0,39.674294,-77.41777,4.18,1140.0,8.0,2.0,1.7
8313,16843,1714855098984,1.34,1.97,,0.07,0.36,0.93,-41.0,-16.0,0.0,0.37,0,124,0.0,39.674294,-77.41777,4.24,1139.9,8.0,2.0,1.7
8329,16963,1714855099100,1.31,1.96,,0.04,0.41,1.01,-45.0,9.0,-4.0,0.41,0,132,0.0,39.674297,-77.41777,3.72,1139.9,8.0,2.0,1.7
8349,17003,1714855099142,1.33,1.96,,-0.04,0.09,0.81,-42.0,3.0,-6.0,0.1,0,128,0.0,39.674297,-77.41777,3.92,1139.9,8.0,2.0,1.7
8369,17043,1714855099184,1.29,1.92,13.13,0.03,0.06,0.98,-41.0,6.0,4.0,0.07,0,128,0.0,39.674297,-77.41777,3.86,1139.9,8.0,2.0,1.7
8389,17083,1714855099225,1.33,1.95,,-0.04,0.2,1.01,-36.0,1.0,14.0,0.21,0,124,0.0,39.674297,-77.41777,4.33,1139.8,8.0,2.0,1.7
8409,17123,1714855099264,1.32,1.94,,0.06,0.39,1.3,-33.0,2.0,7.0,0.39,0,124,0.0,39.674301,-77.41777,3.89,1139.8,8.0,2.0,1.7
8429,17163,1714855099304,1.29,1.88,,0.11,0.38,1.08,-31.0,-5.0,-5.0,0.39,0,120,0.0,39.674301,-77.41777,4.34,1139.8,8.0,2.0,1.7
8449,17203,1714855099344,1.34,1.96,,0.28,0.34,0.92,-33.0,1.0,-2.0,0.44,0,120,0.0,39.674301,-77.41777,4.0,1139.8,8.0,2.0,1.7
8469,17243,1714855099384,1.29,1.92,,0.0,0.39,1.0,-35.0,0.0,0.0,0.39,0,120,0.0,39.674301,-77.41777,4.2,1139.9,8.0,2.0,1.7
8489,17283,1714855099424,1.34,1.96,,0.04,0.3,1.06,-40.0,0.0,-4.0,0.3,0,128,0.0,39.674301,-77.41777,4.21,1139.9,8.0,2.0,1.7
8509,17323,1714855099464,1.32,1.95,,0.11,0.18,0.62,-39.0,2.0,-1.0,0.21,0,120,0.0,39.674305,-77.41777,3.81,1140.0,8.0,2.0,1.7
8529,17363,1714855099504,1.34,1.96,,-0.06,0.17,1.01,-38.0,7.0,2.0,0.18,0,132,0.0,39.674305,-77.41777,3.84,1140.1,8.0,2.0,1.7
8549,17403,1714855099543,1.33,1.95,,0.03,0.22,1.2,-35.0,2.0,-1.0,0.22,0,128,0.0,39.674305,-77.41777,3.96,1140.1,8.0,2.0,1.7
8569,17443,1714855099581,1.34,1.96,,0.0,0.26,1.1,-34.0,-3.0,-1.0,0.26,0,120,0.0,39.674305,-77.41777,3.98,1140.2,8.0,2.0,1.7
8589,17483,1714855099621,1.33,1.95,,0.07,0.28,1.09,-38.0,1.0,-1.0,0.29,0,132,0.0,39.674305,-77.41777,4.16,1140.3,8.0,2.0,1.7
8609,17523,1714855099661,1.31,1.94,,-0.0,0.23,0.96,-39.0,2.0,4.0,0.23,0,124,0.0,39.674309,-77.41777,4.03,1140.3,8.0,2.0,1.7
8629,17563,1714855099701,1.33,1.95,,-0.13,0.3,1.1,-42.0,2.0,3.0,0.32,0,128,0.0,39.674309,-77.41777,3.97,1140.4,8.0,2.0,1.7
8649,17603,1714855099741,1.33,1.96,,0.07,0.13,0.79,-42.0,-4.0,4.0,0.15,0,128,0.0,39.674309,-77.41777,4.06,1140.5,8.0,2.0,1.7
8669,17643,1714855099781,1.34,1.96,,-0.0,0.16,0.8,-39.0,7.0,6.0,0.16,0,128,0.0,39.674309,-77.41777,3.63,1140.5,8.0,2.0,1.7
8689,17683,1714855099821,1.34,1.97,,-0.16,0.21,0.96,-34.0,-8.0,1.0,0.26,0,128,0.0,39.674313,-77.41777,4.79,1140.5,8.0,2.0,1.7
8719,17843,1714855099983,1.3,1.93,,-0.05,0.27,0.96,-38.0,-1.0,5.0,0.28,0,124,0.0,39.674313,-77.41777,5.31,1140.5,8.0,2.0,1.7
8739,17883,1714855100019,1.33,1.96,,-0.04,0.35,1.19,-40.0,0.0,1.0,0.35,0,124,0.0,39.674313,-77.41777,4.62,1140.5,8.0,2.0,1.7
8759,17923,1714855100063,1.34,1.97,,0.13,0.3,0.86,-41.0,-8.0,0.0,0.33,0,128,0.0,39.674313,-77.417778,4.75,1140.5,8.0,2.0,1.7
8779,17963,1714855100103,1.31,1.95,,0.06,0.24,0.9,-43.0,5.0,2.0,0.25,0,124,0.0,39.674313,-77.417778,4.64,1140.5,8.0,2.0,1.7
8799,18003,1714855100143,1.31,1.96,,-0.18,0.3,1.07,-42.0,-3.0,1.0,0.35,0,124,0.0,39.674313,-77.417778,4.5,1140.6,8.0,2.0,1.7
8819,18043,1714855100185,1.34,1.98,13.15,0.08,0.15,0.94,-43.0,-1.0,1.0,0.17,0,124,0.0,39.674316,-77.417778,3.88,1140.6,8.0,2.0,1.7
8839,18083,1714855100223,1.33,1.98,,0.04,0.05,0.87,-40.0,1.0,3.0,0.07,0,116,0.0,39.674316,-77.417778,3.74,1140.6,8.0,2.0,1.7
8859,18123,1714855100263,1.34,1.98,,-0.09,0.18,0.92,-39.0,4.0,8.0,0.2,0,128,0.0,39.674316,-77.417778,3.48,1140.6,8.0,2.0,1.7
8879,18163,1714855100303,1.33,1.97,,-0.04,0.21,1.07,-37.0,-3.0,6.0,0.21,0,124,0.0,39.674316,-77.417778,3.62,1140.6,8.0,2.0,1.7
8899,18203,1714855100343,1.29,1.92,,-0.06,0.28,1.17,-36.0,-2.0,4.0,0.29,0,120,0.0,39.674316,-77.417778,3.47,1140.7,8.0,2.0,1.7
8919,18243,1714855100383,1.35,1.97,,-0.06,0.2,1.11,-37.0,-3.0,3.0,0.21,0,124,0.0,39.674316,-77.417778,3.89,1140.7,8.0,2.0,1.7
8939,18283,1714855100423,1.34,1.98,,0.06,0.33,0.87,-36.0,6.0,0.0,0.33,0,120,0.0,39.674316,-77.417778,3.5,1140.8,8.0,2.0,1.7
8959,18323,1714855100463,1.33,1.98,,-0.29,0.28,0.98,-34.0,2.0,-1.0,0.4,0,120,0.0,39.67432,-77.417778,3.81,1140.9,8.0,2.0,1.7
8979,18363,1714855100505,1.33,1.98,,-0.14,0.29,0.97,-37.0,-11.0,0.0,0.32,0,124,0.0,39.67432,-77.417778,3.85,1141.0,8.0,2.0,1.7
8999,18403,1714855100542,1.29,1.92,,0.16,0.25,0.76,-39.0,-8.0,3.0,0.3,0,120,0.0,39.67432,-77.417778,3.73,1141.0,8.0,2.0,1.7
9019,18443,1714855100582,1.33,1.98,,-0.01,0.27,0.82,-39.0,8.0,4.0,0.27,0,124,0.0,39.67432,-77.417786,3.91,1141.1,8.0,2.0,1.7
9039,18483,1714855100622,1.33,1.98,,-0.24,0.24,1.03,-39.0,-6.0,7.0,0.34,0,120,0.0,39.67432,-77.417786,3.76,1141.2,8.0,2.0,1.7
9059,18523,1714855100662,1.31,1.96,,-0.06,0.29,0.97,-41.0,0.0,6.0,0.3,0,128,0.0,39.67432,-77.417786,3.85,1141.2,8.0,2.0,1.7
9079,18563,1714855100702,1.33,1.98,,-0.07,0.3,1.13,-37.0,-7.0,0.0,0.31,0,120,0.0,39.67432,-77.417786,3.83,1141.2,8.0,2.0,1.7
9091,18683,1714855100823,1.33,1.98,,-0.18,0.35,1.15,-36.0,4.0,2.0,0.4,0,124,0.0,39.674324,-77.417786,3.96,1141.3,8.0,2.0,1.7
9111,18723,1714855100864,1.32,1.97,,-0.1,0.09,0.97,-37.0,-6.0,1.0,0.14,0,124,0.0,39.674324,-77.417786,4.03,1141.3,8.0,2.0,1.7
9131,18763,1714855100904,1.32,1.97,,0.16,0.19,0.76,-38.0,-1.0,0.0,0.25,0,120,0.0,39.674324,-77.417786,3.96,1141.3,8.0,2.0,1.7
9151,18803,1714855100944,1.3,1.94,,0.02,0.25,0.89,-37.0,12.0,1.0,0.25,0,120,0.0,39.674324,-77.417793,3.52,1141.3,8.0,2.0,1.7
9171,18843,1714855100984,1.32,1.96,,-0.34,0.24,1.15,-34.0,-4.0,1.0,0.41,0,124,0.0,39.674324,-77.417793,3.92,1141.3,8.0,2.0,1.7
9191,18883,1714855101018,1.28,1.91,,-0.05,0.29,1.1,-37.0,-13.0,-3.0,0.3,0,120,0.0,39.674324,-77.417793,3.78,1141.2,8.0,2.0,1.7
9211,18923,1714855101064,1.25,1.89,,0.29,0.24,0.71,-36.0,-6.0,-5.0,0.38,0,120,0.0,39.674324,-77.417793,4.0,1141.2,8.0,2.0,1.7
9231,18963,1714855101104,1.31,1.94,,-0.02,0.14,0.57,-33.0,12.0,1.0,0.14,0,120,0.0,39.674324,-77.417793,3.4,1141.2,8.0,2.0,1.7
9251,19003,1714855101145,1.27,1.9,,-0.25,0.2,1.19,-33.0,-5.0,-3.0,0.32,0,120,0.0,39.674324,-77.417793,3.6,1141.2,8.0,2.0,1.7
9271,19043,1714855101184,1.29,1.91,13.13,0.04,0.09,0.8,-32.0,0.0,0.0,0.1,0,124,0.0,39.674324,-77.417793,4.23,1141.2,8.0,2.0,1.7
9291,19083,1714855101224,1.3,1.94,,-0.11,0.26,0.83,-32.0,-4.0,0.0,0.29,0,116,0.0,39.674324,-77.417793,3.41,1141.2,8.0,2.0,1.7
9311,19123,1714855101264,1.28,1.91,,-0.22,0.12,0.96,-32.0,-1.0,0.0,0.25,0,124,0.0,39.674324,-77.417793,3.9,1141.2,8.0,2.0,1.7
9331,19163,1714855101304,1.26,1.89,,-0.06,0.27,0.99,-32.0,-9.0,-1.0,0.28,0,116,0.0,39.674324,-77.417801,3.96,1141.1,8.0,2.0,1.7
9351,19203,1714855101344,1.25,1.89,,0.04,0.22,1.16,-33.0,-3.0,-1.0,0.22,0,116,0.0,39.674324,-77.417801,3.95,1141.2,8.0,2.0,1.7
9371,19243,1714855101384,1.25,1.89,,0.07,0.1,1.14,-34.0,5.0,-1.0,0.12,0,124,0.0,39.674324,-77.417801,3.51,1141.1,8.0,2.0,1.7
9391,19283,1714855101424,1.3,1.93,,-0.18,0.19,0.87,-33.0,8.0,2.0,0.26,0,120,0.0,39.674324,-77.417801,3.57,1141.1,8.0,2.0,1.7
9411,19323,1714855101464,1.25,1.88,,-0.21,0.21,0.79,-34.0,7.0,2.0,0.29,0,128,0.0,39.674324,-77.417801,2.98,1141.2,8.0,2.0,1.7
9431,19363,1714855101504,1.29,1.93,,-0.14,0.22,0.75,-29.0,-1.0,4.0,0.26,0,116,0.0,39.674324,-77.417801,2.94,1141.2,8.0,2.0,1.7
9451,19403,1714855101541,1.25,1.89,,-0.11,0.31,1.13,-31.0,-7.0,2.0,0.33,0,120,0.0,39.674324,-77.417801,3.92,1141.2,8.0,2.0,1.7
9466,19523,1714855101661,1.27,1.91,,-0.01,0.26,0.87,-38.0,14.0,4.0,0.26,0,116,0.0,39.674324,-77.417809,3.75,1141.2,8.0,2.0,1.7
9486,19563,1714855101701,1.28,1.92,,-0.24,0.22,1.26,-38.0,0.0,0.0,0.33,0,120,0.0,39.674324,-77.417809,3.58,1141.2,8.0,2.0,1.7
9506,19603,1714855101743,1.32,1.96,,0.02,0.11,0.92,-38.0,-10.0,1.0,0.11,0,124,0.0,39.674324,-77.417809,3.55,1141.1,8.0,2.0,1.7
9526,19643,1714855101783,1.32,1.96,,0.09,0.16,0.66,-36.0,0.0,3.0,0.19,0,124,0.0,39.674324,-77.417809,3.49,1141.1,8.0,2.0,1.7
9546,19683,1714855101821,1.28,1.91,,-0.21,0.19,0.87,-37.0,12.0,4.0,0.29,0,120,0.0,39.674324,-77.417809,3.59,1141.1,8.0,2.0,1.7
9566,19723,1714855101863,1.28,1.91,,-0.22,0.14,1.24,-36.0,-10.0,-4.0,0.26,0,120,0.0,39.674324,-77.417809,3.44,1141.1,8.0,2.0,1.7
9586,19763,1714855101903,1.31,1.94,,0.24,0.11,0.89,-38.0,-3.0,-2.0,0.26,0,128,0.0,39.674324,-77.417809,3.51,1141.0,8.0,2.0,1.7
9606,19803,1714855101943,1.33,1.96,,-0.01,0.15,1.07,-37.0,12.0,2.0,0.15,0,120,0.0,39.674324,-77.417809,3.59,1141.0,8.0,2.0,1.7
9626,19843,1714855101983,1.31,1.93,,-0.22,0.18,1.0,-38.0,3.0,5.0,0.28,0,132,0.0,39.674324,-77.417809,3.51,1141.0,8.0,2.0,1.7
9646,19883,1714855102019,1.33,1.96,,-0.05,0.18,1.02,-39.0,3.0,7.0,0.18,0,124,0.0,39.674324,-77.417809,3.62,1141.0,8.0,2.0,1.7
9666,19923,1714855102063,1.3,1.93,,-0.07,0.21,0.87,-39.0,2.0,3.0,0.22,0,128,0.0,39.674324,-77.417809,3.3,1141.1,8.0,2.0,1.7
9686,19963,1714855102105,1.32,1.95,,-0.11,0.12,0.93,-40.0,5.0,3.0,0.16,0,124,0.0,39.674324,-77.417809,3.34,1141.1,8.0,2.0,1.7
9706,20003,1714855102145,1.3,1.92,,0.03,0.21,0.77,-36.0,-3.0,4.0,0.21,0,124,0.0,39.674324,-77.417809,3.49,1141.1,8.0,2.0,1.7
9726,20043,1714855102183,1.35,1.98,13.14,-0.1,0.23,1.26,-37.0,2.0,5.0,0.25,0,124,0.0,39.674324,-77.417809,3.47,1141.1,8.0,2.0,1.7
9746,20083,1714855102223,1.35,1.98,,-0.06,0.22,1.15,-35.0,-2.0,4.0,0.22,0,120,0.0,39.674324,-77.417809,3.38,1141.1,8.0,2.0,1.7
9766,20123,1714855102263,1.35,1.98,,0.07,0.21,1.05,-39.0,10.0,5.0,0.23,0,124,0.0,39.674324,-77.417809,3.41,1141.1,8.0,2.0,1.7
9786,20163,1714855102305,1.32,1.94,,0.12,0.2,0.92,-39.0,19.0,8.0,0.23,0,124,0.0,39.674324,-77.417809,3.24,1141.1,8.0,2.0,1.7
9806,20203,1714855102343,1.31,1.92,,-0.27,0.2,1.14,-37.0,15.0,6.0,0.33,0,124,0.0,39.674324,-77.417809,3.21,1141.0,8.0,2.0,1.7
9826,20243,1714855102385,1.34,1.96,,-0.3,0.1,0.86,-34.0,-3.0,1.0,0.31,0,120,0.0,39.674324,-77.417816,3.01,1141.0,8.0,2.0,1.7
9846,20283,1714855102425,1.34,1.95,,-0.17,0.08,0.7,-33.0,-3.0,3.0,0.19,0,124,0.0,39.674324,-77.417816,3.03,1141.0,8.0,2.0,1.7
9866,20323,1714855102465,1.34,1.95,,0.14,0.09,0.87,-31.0,-7.0,2.0,0.17,0,120,0.0,39.674324,-77.417816,3.08,1141.0,8.0,2.0,1.7
9877,20443,1714855102582,1.29,1.9,,-0.21,0.13,0.83,-34.0,-4.0,5.0,0.25,0,120,0.0,39.67432,-77.417816,3.35,1141.0,8.0,2.0,1.7
9897,20483,1714855102622,1.34,1.94,,-0.06,0.21,0.85,-35.0,3.0,1.0,0.22,0,124,0.0,39.67432,-77.417816,3.27,1141.0,8.0,2.0,1.7
9917,20523,1714855102662,1.31,1.9,,0.15,0.06,0.79,-32.0,3.0,-4.0,0.16,0,116,0.0,39.67432,-77.417816,3.11,1141.0,8.0,2.0,1.7
9937,20563,1714855102702,1.33,1.94,,-0.01,0.01,0.95,-29.0,4.0,-1.0,0.02,0,120,0.0,39.67432,-77.417816,3.06,1141.1,8.0,2.0,1.7
9957,20603,1714855102743,1.33,1.92,,0.13,0.1,0.77,-29.0,3.0,1.0,0.17,0,120,0.0,39.67432,-77.417816,3.19,1141.2,8.0,2.0,1.7
9977,20643,1714855102782,1.3,1.89,,-0.1,0.22,0.91,-29.0,7.0,0.0,0.24,0,120,0.0,39.67432,-77.417816,3.5,1141.2,8.0,2.0,1.7
9997,20683,1714855102822,1.32,1.9,,-0.41,0.25,1.17,-31.0,5.0,2.0,0.48,0,60,0.0,39.67432,-77.417824,3.62,1141.3,8.0,2.0,1.7
10017,20723,1714855102864,1.31,1.86,,-0.11,0.13,1.0,-37.0,-9.0,1.0,0.17,0,128,0.0,39.674316,-77.417824,3.63,1141.3,8.0,2.0,1.7
10037,20763,1714855102902,1.31,1.88,,-0.09,0.02,0.78,-37.0,-2.0,3.0,0.09,0,128,0.0,39.674316,-77.417824,3.53,1141.4,8.0,2.0,1.7
10057,20803,1714855102942,1.29,1.86,,-0.25,-0.01,0.72,-35.0,1.0,10.0,0.25,0,128,0.0,39.674316,-77.417824,3.52,1141.4,8.0,2.0,1.7
10077,20843,1714855102982,1.28,1.85,,-0.53,0.18,1.03,-34.0,0.0,11.0,0.56,0,120,0.0,39.674316,-77.417824,3.42,1141.5,8.0,2.0,1.7
10097,20883,1714855103018,1.27,1.83,,-0.35,0.16,1.1,-34.0,-19.0,3.0,0.38,0,124,0.0,39.674316,-77.417824,3.52,1141.4,8.0,2.0,1.7
10117,20923,1714855103064,1.26,1.85,,0.2,0.12,0.78,-36.0,-13.0,2.0,0.23,0,128,0.0,39.674316,-77.417824,3.82,1141.5,8.0,2.0,1.7
10137,20963,1714855103104,1.26,1.83,,0.1,0.21,1.03,-33.0,6.0,4.0,0.23,0,124,0.0,39.674316,-77.417824,3.81,1141.6,8.0,2.0,1.7
10157,21003,1714855103142,1.26,1.83,,-0.24,0.13,1.15,-33.0,7.0,8.0,0.27,0,124,0.0,39.674313,-77.417824,3.99,1141.7,8.0,2.0,1.7
10177,21043,1714855103184,1.28,1.84,13.14,-0.28,0.3,1.16,-36.0,-10.0,3.0,0.41,0,128,0.0,39.674313,-77.417824,3.88,1141.7,8.0,2.0,1.7
10197,21083,1714855103224,1.27,1.84,,-0.08,0.16,0.61,-40.0,-27.0,-6.0,0.18,0,124,0.0,39.674313,-77.417824,3.39,1141.8,8.0,2.0,1.7
