,Interval|ms|0|0|1,Utc|ms|0|0|1,Analog1|Volts|0.0|5.0|200,Analog2|Volts|0.0|5.0|200,Analog3|Volts|0.0|5.0|200,Analog4|Volts|0.0|5.0|200,Analog5|Volts|0.0|5.0|200,Analog6|Volts|0.0|5.0|200,Analog7|Volts|0.0|5.0|200,Analog8|Volts|0.0|5.0|200,Battery|Volts|0.0|20.0|1,AccelX|G|-3.0|3.0|200,AccelY|G|-3.0|3.0|200,AccelZ|G|-3.0|3.0|200,Yaw|Deg/Sec|-120|120|200,Pitch|Deg/Sec|-120|120|200,Roll|Deg/Sec|-120|120|200,Gsum|G|0.0|3.0|200,RPM|rpm|0|8000|500,RPM2|rpm|0|8000|500,Latitude|Degrees|-180.0|180.0|25,Longitude|Degrees|-180.0|180.0|25,Speed|mph|0.0|150.0|25,Altitude|ft|0.0|4000.0|25,GPSSats||0|20|25,GPSQual||0|5|25,GPSDOP||0.0|20.0|25,Euler Roll,Euler Pitch,Euler Yaw
0,189,0,,,,,,,,,,,,,,,,,1680,0,,,,,,,,,,
1,191,0,,,,,,,,,,,,,,,,,1680,0,,,,,,,,,,
2,193,0,3.73,3.85,4.05,3.99,4.93,0.45,0.55,3.54,,-0.03,0.03,0.91,0.0,0.0,0.0,0.04,1680,0,,,,,,,,0.18808501958847046,0.18808400630950928,0.0
3,195,0,,,,,,,,,,,,,,,,,1680,0,,,,,,,,,,
4,197,0,,,,,,,,,,,,,,,,,1680,0,,,,,,,,,,
5,199,0,,,,,,,,,,,,,,,,,1680,0,,,,,,,,,,
6,201,0,,,,,,,,,,,,,,,,,1680,0,,,,,,,,,,
7,203,0,3.7,3.81,4.06,3.96,4.92,0.46,0.55,3.59,,0.0,0.04,1.05,0.0,0.0,0.0,0.04,1680,0,0.0,0.0,0.0,0.0,0.0,0.0,0.0,0.38613876700401306,0.1694050431251526,-5.2110434023422414e-11
8,205,0,,,,,,,,,,,,,,,,,1680,0,,,,,,,,,,
9,207,0,,,,,,,,,,,,,,,,,1680,0,,,,,,,,,,
10,209,0,,,,,,,,,,,,,,,,,1680,0,,,,,,,,,,
11,211,0,,,,,,,,,,,,,,,,,1680,0,,,,,,,,,,
12,213,0,3.72,3.82,4.03,3.98,4.92,0.4,0.53,3.61,,-0.03,0.01,0.95,0.0,0.0,0.0,0.03,1680,0,,,,,,,,0.4076175093650818,0.3317490518093109,-1.0422215868111095e-10
13,215,0,,,,,,,,,,,,,,,,,1620,0,,,,,,,,,,
14,217,0,,,,,,,,,,,,,,,,,1620,0,,,,,,,,,,
15,219,0,,,,,,,,,,,,,,,,,1620,0,,,,,,,,,,
16,221,0,,,,,,,,,,,,,,,,,1620,0,,,,,,,,,,
17,223,0,3.74,3.8,4.05,3.9,4.93,0.41,0.5,3.53,,-0.05,0.01,1.0,0.0,-1.0,0.0,0.05,1620,0,,,,,,,,0.4239199757575989,0.5715140104293823,0.0
18,225,0,,,,,,,,,,,,,,,,,1620,0,,,,,,,,,,
19,227,0,,,,,,,,,,,,,,,,,1620,0,,,,,,,,,,
20,229,0,,,,,,,,,,,,,,,,,1620,0,,,,,,,,,,
21,231,0,,,,,,,,,,,,,,,,,1620,0,,,,,,,,,,
22,233,0,3.7,3.8,4.0,3.94,4.88,0.46,0.51,3.56,,-0.02,0.01,0.99,0.0,2.0,0.0,0.02,1620,0,,,,,,,,0.43915483355522156,0.649161159992218,0.0
23,235,0,,,,,,,,,,,,,,,,,1620,0,,,,,,,,,,
24,237,0,,,,,,,,,,,,,,,,,1620,0,,,,,,,,,,
25,239,0,,,,,,,,,,,,,,,,,1620,0,,,,,,,,,,
26,241,0,,,,,,,,,,,,,,,,,1620,0,,,,,,,,,,
27,243,0,3.73,3.84,4.04,3.99,4.94,0.45,0.5,3.6,,0.0,0.02,1.01,0.0,-1.0,-1.0,0.02,1620,0,0.0,0.0,0.0,0.0,0.0,0.0,0.0,0.5072545409202576,0.5755670070648193,6.253539908129824e-10
28,245,0,,,,,,,,,,,,,,,,,1620,0,,,,,,,,,,
29,247,0,,,,,,,,,,,,,,,,,1620,0,,,,,,,,,,
30,249,0,,,,,,,,,,,,,,,,,1620,0,,,,,,,,,,
31,251,0,,,,,,,,,,,,,,,,,1680,0,,,,,,,,,,
32,253,0,3.71,3.81,4.02,3.97,4.92,0.45,0.46,3.57,,-0.04,0.01,1.03,0.0,3.0,-1.0,0.04,1680,0,,,,,,,,0.5119284391403198,0.7668075561523438,-1.2507569424613507e-09
33,255,0,,,,,,,,,,,,,,,,,1680,0,,,,,,,,,,
34,257,0,,,,,,,,,,,,,,,,,1680,0,,,,,,,,,,
35,259,0,,,,,,,,,,,,,,,,,1680,0,,,,,,,,,,
36,261,0,,,,,,,,,,,,,,,,,1680,0,,,,,,,,,,
37,263,0,3.7,3.81,4.01,3.97,4.91,0.44,0.48,3.58,,-0.05,0.03,0.94,0.0,-2.0,0.0,0.05,1680,0,,,,,,,,0.6400213837623596,0.9686429500579834,0.0
38,265,0,,,,,,,,,,,,,,,,,1680,0,,,,,,,,,,
39,267,0,,,,,,,,,,,,,,,,,1680,0,,,,,,,,,,
40,269,0,,,,,,,,,,,,,,,,,1680,0,,,,,,,,,,
41,271,0,,,,,,,,,,,,,,,,,1680,0,,,,,,,,,,
42,273,0,3.72,3.83,4.01,3.96,4.92,0.45,0.4,3.58,,-0.01,0.03,1.04,0.0,0.0,0.0,0.04,1680,0,,,,,,,,0.738368034362793,0.928051233291626,0.0
43,275,0,,,,,,,,,,,,,,,,,1680,0,,,,,,,,,,
44,277,0,,,,,,,,,,,,,,,,,1680,0,,,,,,,,,,
45,279,0,,,,,,,,,,,,,,,,,1680,0,,,,,,,,,,
46,281,0,,,,,,,,,,,,,,,,,1680,0,,,,,,,,,,
47,283,0,3.68,3.81,4.01,3.95,4.89,0.41,0.33,3.56,,-0.04,0.02,0.97,0.0,-1.0,0.0,0.05,1680,0,0.0,0.0,0.0,0.0,0.0,0.0,0.0,0.7812161445617676,1.0567851066589355,0.0
48,285,0,,,,,,,,,,,,,,,,,1620,0,,,,,,,,,,
49,287,0,,,,,,,,,,,,,,,,,1620,0,,,,,,,,,,
50,289,0,,,,,,,,,,,,,,,,,1620,0,,,,,,,,,,
51,291,0,,,,,,,,,,,,,,,,,1620,0,,,,,,,,,,
52,293,0,3.73,3.84,4.04,3.99,4.94,0.43,0.34,3.6,,-0.05,0.01,1.01,0.0,0.0,-1.0,0.05,1620,0,,,,,,,,0.7603875398635864,1.228420615196228,8.339549051328277e-10
53,295,0,,,,,,,,,,,,,,,,,1620,0,,,,,,,,,,
54,297,0,,,,,,,,,,,,,,,,,1620,0,,,,,,,,,,
55,299,0,,,,,,,,,,,,,,,,,1620,0,,,,,,,,,,
56,301,0,,,,,,,,,,,,,,,,,1620,0,,,,,,,,,,
57,303,0,3.72,3.82,4.02,3.97,4.91,0.47,0.35,3.59,,-0.03,0.01,0.98,0.0,1.0,0.0,0.03,1620,0,,,,,,,,0.7434862852096558,1.288914442062378,8.339742785246074e-10
58,305,0,,,,,,,,,,,,,,,,,1620,0,,,,,,,,,,
59,307,0,,,,,,,,,,,,,,,,,1620,0,,,,,,,,,,
60,309,0,,,,,,,,,,,,,,,,,1620,0,,,,,,,,,,
61,311,0,,,,,,,,,,,,,,,,,1620,0,,,,,,,,,,
62,313,0,3.72,3.83,4.03,3.98,4.93,0.43,0.36,3.59,,-0.0,0.02,1.05,0.0,-1.0,0.0,0.02,1620,0,,,,,,,,0.7768316268920898,1.15534245967865,0.0
63,315,0,,,,,,,,,,,,,,,,,1620,0,,,,,,,,,,
64,317,0,,,,,,,,,,,,,,,,,1620,0,,,,,,,,,,
65,319,0,,,,,,,,,,,,,,,,,1620,0,,,,,,,,,,
66,321,0,,,,,,,,,,,,,,,,,1680,0,,,,,,,,,,
67,323,0,3.72,3.83,4.03,3.98,4.92,0.45,0.37,3.59,,-0.02,0.01,1.02,0.0,3.0,0.0,0.03,1680,0,0.0,0.0,0.0,0.0,0.0,0.0,0.0,0.7562806606292725,1.182273507118225,0.0
68,325,0,,,,,,,,,,,,,,,,,1680,0,,,,,,,,,,
69,327,0,,,,,,,,,,,,,,,,,1680,0,,,,,,,,,,
70,329,0,,,,,,,,,,,,,,,,,1680,0,,,,,,,,,,
71,331,0,,,,,,,,,,,,,,,,,1680,0,,,,,,,,,,
72,333,0,3.72,3.83,4.03,3.96,4.92,0.43,0.4,3.59,,-0.06,0.02,0.98,0.0,-3.0,0.0,0.06,1680,0,,,,,,,,0.7955338954925537,1.37324857711792,8.340028112563402e-10
73,335,0,,,,,,,,,,,,,,,,,1680,0,,,,,,,,,,
74,337,0,,,,,,,,,,,,,,,,,1680,0,,,,,,,,,,
75,339,0,,,,,,,,,,,,,,,,,1680,0,,,,,,,,,,
76,341,0,,,,,,,,,,,,,,,,,1680,0,,,,,,,,,,
77,343,0,3.69,3.79,4.01,3.95,4.89,0.46,0.37,3.57,,-0.02,0.03,1.0,0.0,1.0,0.0,0.04,1680,0,,,,,,,,0.8831474781036377,1.361618161201477,-8.339987589423004e-10
78,345,0,,,,,,,,,,,,,,,,,1680,0,,,,,,,,,,
79,347,0,,,,,,,,,,,,,,,,,1680,0,,,,,,,,,,
80,349,0,,,,,,,,,,,,,,,,,1680,0,,,,,,,,,,
81,351,0,,,,,,,,,,,,,,,,,1680,0,,,,,,,,,,
82,353,0,3.73,3.84,4.04,3.99,4.93,0.43,0.4,3.6,,-0.04,0.02,0.99,0.0,-2.0,0.0,0.04,1680,0,,,,,,,,0.9090691804885864,1.4316580295562744,-8.340235724269007e-10
83,355,0,,,,,,,,,,,,,,,,,1680,0,,,,,,,,,,
84,357,0,,,,,,,,,,,,,,,,,1620,0,,,,,,,,,,
85,359,0,,,,,,,,,,,,,,,,,1620,0,,,,,,,,,,
86,361,0,,,,,,,,,,,,,,,,,1620,0,,,,,,,,,,
87,363,0,3.71,3.82,4.02,3.97,4.91,0.41,0.39,3.57,,-0.05,0.01,1.0,0.0,0.0,0.0,0.05,1620,0,0.0,0.0,0.0,0.0,0.0,0.0,0.0,0.8774000406265259,1.5665521621704102,-8.340749757529409e-10
88,365,0,,,,,,,,,,,,,,,,,1620,0,,,,,,,,,,
89,367,0,,,,,,,,,,,,,,,,,1620,0,,,,,,,,,,
90,369,0,,,,,,,,,,,,,,,,,1620,0,,,,,,,,,,
91,371,0,,,,,,,,,,,,,,,,,1620,0,,,,,,,,,,
92,373,0,3.72,3.83,4.03,3.97,4.91,0.46,0.41,3.59,,-0.04,0.0,0.95,0.0,0.0,0.0,0.04,1620,0,,,,,,,,0.7949813604354858,1.645931601524353,0.0
93,375,0,,,,,,,,,,,,,,,,,1620,0,,,,,,,,,,
94,377,0,,,,,,,,,,,,,,,,,1620,0,,,,,,,,,,
95,379,0,,,,,,,,,,,,,,,,,1620,0,,,,,,,,,,
96,381,0,,,,,,,,,,,,,,,,,1620,0,,,,,,,,,,
97,383,0,3.69,3.8,4.0,3.94,4.88,0.42,0.42,3.57,,-0.0,0.02,1.05,0.0,-2.0,0.0,0.02,1620,0,,,,,,,,0.8227300643920898,1.4717880487442017,0.0
98,385,0,,,,,,,,,,,,,,,,,1620,0,,,,,,,,,,
99,387,0,,,,,,,,,,,,,,,,,1620,0,,,,,,,,,,
100,389,0,,,,,,,,,,,,,,,,,1620,0,,,,,,,,,,
101,391,0,,,,,,,,,,,,,,,,,1620,0,,,,,,,,,,
102,393,0,3.71,3.82,4.02,3.97,4.93,0.43,0.39,3.57,,0.0,0.0,0.99,0.0,2.0,0.0,0.0,1680,0,,,,,,,,0.7459166049957275,1.354422926902771,0.0
103,395,0,,,,,,,,,,,,,,,,,1680,0,,,,,,,,,,
104,397,0,,,,,,,,,,,,,,,,,1680,0,,,,,,,,,,
105,399,0,,,,,,,,,,,,,,,,,1680,0,,,,,,,,,,
106,401,0,,,,,,,,,,,,,,,,,1680,0,,,,,,,,,,
107,403,0,3.73,3.84,4.04,3.99,4.94,0.43,0.41,3.6,,-0.06,0.02,1.0,0.0,-4.0,0.0,0.07,1680,0,0.0,0.0,0.0,0.0,0.0,0.0,0.0,0.7830483317375183,1.507758617401123,0.0
108,405,0,,,,,,,,,,,,,,,,,1680,0,,,,,,,,,,
109,407,0,,,,,,,,,,,,,,,,,1680,0,,,,,,,,,,
110,409,0,,,,,,,,,,,,,,,,,1680,0,,,,,,,,,,
111,411,0,,,,,,,,,,,,,,,,,1680,0,,,,,,,,,,
112,413,0,3.74,3.83,4.04,3.99,4.94,0.43,0.41,3.6,,-0.02,0.02,0.96,0.0,1.0,1.0,0.03,1680,0,,,,,,,,0.8213725090026855,1.4884592294692993,-2.502134055504257e-09
113,415,0,,,,,,,,,,,,,,,,,1680,0,,,,,,,,,,
114,417,0,,,,,,,,,,,,,,,,,1680,0,,,,,,,,,,
115,419,0,,,,,,,,,,,,,,,,,1680,0,,,,,,,,,,
116,421,0,,,,,,,,,,,,,,,,,1680,0,,,,,,,,,,
117,423,0,3.73,3.84,4.04,3.99,4.94,0.43,0.4,3.61,,-0.03,0.03,1.0,0.0,-1.0,0.0,0.04,1680,0,,,,,,,,0.9042378067970276,1.499646544456482,-8.340489410230134e-10
118,425,0,,,,,,,,,,,,,,,,,1680,0,,,,,,,,,,
119,427,0,,,,,,,,,,,,,,,,,1680,0,,,,,,,,,,
120,429,0,,,,,,,,,,,,,,,,,1620,0,,,,,,,,,,
121,431,0,,,,,,,,,,,,,,,,,1620,0,,,,,,,,,,
122,433,0,3.73,3.84,4.05,3.99,4.94,0.41,0.42,3.6,,-0.05,0.02,0.99,0.0,1.0,0.0,0.05,1620,0,,,,,,,,0.9275277853012085,1.6377251148223877,8.341040080850348e-10
123,435,0,,,,,,,,,,,,,,,,,1620,0,,,,,,,,,,
124,437,0,,,,,,,,,,,,,,,,,1620,0,,,,,,,,,,
125,439,0,,,,,,,,,,,,,,,,,1620,0,,,,,,,,,,
126,441,0,,,,,,,,,,,,,,,,,1620,0,,,,,,,,,,
127,443,0,3.73,3.84,4.04,3.99,4.93,0.44,0.44,3.6,,-0.05,-0.01,0.94,0.0,0.0,0.0,0.05,1620,0,0.0,0.0,0.0,0.0,0.0,0.0,0.0,0.7866285443305969,1.766865611076355,8.341598523031735e-10
128,445,0,,,,,,,,,,,,,,,,,1620,0,,,,,,,,,,
129,447,0,,,,,,,,,,,,,,,,,1620,0,,,,,,,,,,
130,449,0,,,,,,,,,,,,,,,,,1620,0,,,,,,,,,,
131,451,0,,,,,,,,,,,,,,,,,1620,0,,,,,,,,,,
132,453,0,3.73,3.83,4.04,3.99,4.92,0.43,0.47,3.6,,-0.01,0.01,1.06,0.0,-1.0,0.0,0.02,1620,0,,,,,,,,0.7641087174415588,1.644723892211914,8.341068946648988e-10
133,455,0,,,,,,,,,,,,,,,,,1620,0,,,,,,,,,,
134,457,0,,,,,,,,,,,,,,,,,1620,0,,,,,,,,,,
135,459,0,,,,,,,,,,,,,,,,,1620,0,,,,,,,,,,
136,461,0,,,,,,,,,,,,,,,,,1620,0,,,,,,,,,,
137,463,0,3.72,3.83,4.03,3.98,4.92,0.43,0.4,3.59,,-0.0,0.01,1.01,0.0,2.0,1.0,0.01,1620,0,,,,,,,,0.7464466094970703,1.5147225856781006,0.0
138,465,0,,,,,,,,,,,,,,,,,1680,0,,,,,,,,,,
139,467,0,,,,,,,,,,,,,,,,,1680,0,,,,,,,,,,
140,469,0,,,,,,,,,,,,,,,,,1680,0,,,,,,,,,,
141,471,0,,,,,,,,,,,,,,,,,1680,0,,,,,,,,,,
142,473,0,3.73,3.84,4.04,3.99,4.94,0.43,0.4,3.6,,-0.07,0.02,1.02,0.0,-3.0,0.0,0.07,1680,0,,,,,,,,0.7805950045585632,1.703571081161499,0.0
143,475,0,,,,,,,,,,,,,,,,,1680,0,,,,,,,,,,
144,477,0,,,,,,,,,,,,,,,,,1680,0,,,,,,,,,,
145,479,0,,,,,,,,,,,,,,,,,1680,0,,,,,,,,,,
146,481,0,,,,,,,,,,,,,,,,,1680,0,,,,,,,,,,
147,483,0,3.74,3.84,4.04,3.99,4.94,0.42,0.44,3.61,,-0.03,0.02,0.96,0.0,1.0,1.0,0.04,1680,0,0.0,0.0,0.0,0.0,0.0,0.0,0.0,0.8182632327079773,1.72121262550354,-8.341395907329741e-10
148,485,0,,,,,,,,,,,,,,,,,1680,0,,,,,,,,,,
149,487,0,,,,,,,,,,,,,,,,,1680,0,,,,,,,,,,
150,489,0,,,,,,,,,,,,,,,,,1680,0,,,,,,,,,,
151,491,0,,,,,,,,,,,,,,,,,1680,0,,,,,,,,,,
152,493,0,3.71,3.82,4.03,3.97,4.93,0.41,0.41,3.6,,-0.03,0.03,1.03,0.0,-1.0,0.0,0.04,1680,0,,,,,,,,0.894920289516449,1.7063974142074585,0.0
153,495,0,,,,,,,,,,,,,,,,,1680,0,,,,,,,,,,
154,497,0,,,,,,,,,,,,,,,,,1680,0,,,,,,,,,,
155,499,0,,,,,,,,,,,,,,,,,1620,0,,,,,,,,,,
156,501,0,,,,,,,,,,,,,,,,,1620,0,,,,,,,,,,
157,503,0,3.73,3.84,4.04,3.99,4.93,0.41,0.43,3.6,,-0.04,0.02,1.0,0.0,2.0,0.0,0.04,1620,0,,,,,,,,0.9174649119377136,1.7788554430007935,0.0
158,505,0,,,,,,,,,,,,,,,,,1620,0,,,,,,,,,,
159,507,0,,,,,,,,,,,,,,,,,1620,0,,,,,,,,,,
160,509,0,,,,,,,,,,,,,,,,,1620,0,,,,,,,,,,
161,511,0,,,,,,,,,,,,,,,,,1620,0,,,,,,,,,,
162,513,0,3.73,3.84,4.04,3.99,4.93,0.43,0.43,3.6,,-0.05,0.0,0.94,0.0,-1.0,1.0,0.05,1620,0,,,,,,,,0.8356955647468567,1.8820760250091553,8.342132540306579e-10
163,515,0,,,,,,,,,,,,,,,,,1620,0,,,,,,,,,,
164,517,0,,,,,,,,,,,,,,,,,1620,0,,,,,,,,,,
165,519,0,,,,,,,,,,,,,,,,,1620,0,,,,,,,,,,
166,521,0,,,,,,,,,,,,,,,,,1620,0,,,,,,,,,,
167,523,0,3.71,3.82,4.03,3.97,4.93,0.4,0.42,3.58,,-0.01,0.02,1.06,0.0,-1.0,0.0,0.02,1620,0,0.0,0.0,0.0,0.0,0.0,0.0,0.0,0.8575828075408936,1.7523688077926636,8.341534130096306e-10
168,525,0,,,,,,,,,,,,,,,,,1620,0,,,,,,,,,,
169,527,0,,,,,,,,,,,,,,,,,1620,0,,,,,,,,,,
170,529,0,,,,,,,,,,,,,,,,,1620,0,,,,,,,,,,
171,531,0,,,,,,,,,,,,,,,,,1620,0,,,,,,,,,,
172,533,0,3.7,3.81,4.01,3.93,4.89,0.4,0.38,3.57,,0.01,0.01,0.96,0.0,0.0,1.0,0.01,1620,0,,,,,,,,0.834676206111908,1.543402910232544,8.340658164129877e-10
173,535,0,,,,,,,,,,,,,,,,,1680,0,,,,,,,,,,
174,537,0,,,,,,,,,,,,,,,,,1680,0,,,,,,,,,,
175,539,0,,,,,,,,,,,,,,,,,1680,0,,,,,,,,,,
176,541,0,,,,,,,,,,,,,,,,,1680,0,,,,,,,,,,
177,543,0,3.68,3.79,3.98,3.92,4.87,0.38,0.33,3.56,,-0.07,0.02,1.03,0.0,-1.0,0.0,0.08,1680,0,,,,,,,,0.8592329621315002,1.7410060167312622,0.0
178,545,0,,,,,,,,,,,,,,,,,1680,0,,,,,,,,,,
179,547,0,,,,,,,,,,,,,,,,,1680,0,,,,,,,,,,
180,549,0,,,,,,,,,,,,,,,,,1680,0,,,,,,,,,,
181,551,0,,,,,,,,,,,,,,,,,1680,0,,,,,,,,,,
182,553,0,3.68,3.79,3.98,3.92,4.87,0.4,0.38,3.55,,-0.03,0.02,0.91,0.0,1.0,1.0,0.04,1680,0,,,,,,,,0.8948376178741455,1.7638088464736938,-2.5024755601066317e-09
183,555,0,,,,,,,,,,,,,,,,,1680,0,,,,,,,,,,
184,557,0,,,,,,,,,,,,,,,,,1680,0,,,,,,,,,,
185,559,0,,,,,,,,,,,,,,,,,1680,0,,,,,,,,,,
186,561,0,,,,,,,,,,,,,,,,,1680,0,,,,,,,,,,
187,563,0,3.68,3.78,3.98,3.92,4.87,0.39,0.36,3.55,,-0.01,0.03,1.06,0.0,-1.0,0.0,0.03,1680,0,0.0,0.0,0.0,0.0,0.0,0.0,0.0,0.9587455987930298,1.646201252937317,-8.341074497764112e-10
188,565,0,,,,,,,,,,,,,,,,,1680,0,,,,,,,,,,
189,567,0,,,,,,,,,,,,,,,,,1680,0,,,,,,,,,,
190,569,0,,,,,,,,,,,,,,,,,1680,0,,,,,,,,,,
191,571,0,,,,,,,,,,,,,,,,,1620,0,,,,,,,,,,
192,573,0,3.68,3.79,3.99,3.93,4.89,0.38,0.36,3.55,,-0.03,0.01,0.97,0.0,2.0,0.0,0.03,1620,0,,,,,,,,0.9264941811561584,1.6771726608276367,8.34120605919253e-10
193,575,0,,,,,,,,,,,,,,,,,1620,0,,,,,,,,,,
194,577,0,,,,,,,,,,,,,,,,,1620,0,,,,,,,,,,
195,579,0,,,,,,,,,,,,,,,,,1620,0,,,,,,,,,,
196,581,0,,,,,,,,,,,,,,,,,1620,0,,,,,,,,,,
197,583,0,3.68,3.79,3.99,3.93,4.87,0.38,0.36,3.55,,-0.05,0.0,0.96,0.0,-1.0,0.0,0.05,1620,0,,,,,,,,0.8456496596336365,1.781089425086975,0.0
198,585,0,,,,,,,,,,,,,,,,,1620,0,,,,,,,,,,
199,587,0,,,,,,,,,,,,,,,,,1620,0,,,,,,,,,,
200,589,0,,,,,,,,,,,,,,,,,1620,0,,,,,,,,,,
201,591,0,,,,,,,,,,,,,,,,,1620,0,,,,,,,,,,
202,593,0,3.68,3.79,3.99,3.94,4.88,0.38,0.35,3.55,,-0.01,0.01,1.05,0.0,1.0,0.0,0.02,1620,0,,,,,,,,0.8195397257804871,1.6835930347442627,0.0
203,595,0,,,,,,,,,,,,,,,,,1620,0,,,,,,,,,,
204,597,0,,,,,,,,,,,,,,,,,1620,0,,,,,,,,,,
205,599,0,,,,,,,,,,,,,,,,,1620,0,,,,,,,,,,
206,601,0,,,,,,,,,,,,,,,,,1620,0,,,,,,,,,,
207,603,0,3.73,3.84,4.05,3.99,4.94,0.39,0.36,3.6,,0.02,0.01,0.96,0.0,0.0,0.0,0.02,1620,0,0.0,0.0,0.0,0.0,0.0,0.0,0.0,0.8002272844314575,1.4342620372772217,8.340245716276229e-10
208,605,0,,,,,,,,,,,,,,,,,1620,0,,,,,,,,,,
209,607,0,,,,,,,,,,,,,,,,,1680,0,,,,,,,,,,
210,609,0,,,,,,,,,,,,,,,,,1680,0,,,,,,,,,,
211,611,0,,,,,,,,,,,,,,,,,1680,0,,,,,,,,,,
212,613,0,3.72,3.82,4.02,3.97,4.92,0.37,0.33,3.59,,-0.06,0.01,1.04,0.0,1.0,0.0,0.06,1680,0,,,,,,,,0.778721034526825,1.6055502891540527,0.0
213,615,0,,,,,,,,,,,,,,,,,1680,0,,,,,,,,,,
214,617,0,,,,,,,,,,,,,,,,,1680,0,,,,,,,,,,
215,619,0,,,,,,,,,,,,,,,,,1680,0,,,,,,,,,,
216,621,0,,,,,,,,,,,,,,,,,1680,0,,,,,,,,,,
217,623,0,3.71,3.82,4.02,3.97,4.92,0.4,0.38,3.59,,-0.03,0.02,0.89,0.0,0.0,0.0,0.03,1680,0,,,,,,,,0.822487473487854,1.6334879398345947,-8.341022317281954e-10
218,625,0,,,,,,,,,,,,,,,,,1680,0,,,,,,,,,,
219,627,0,,,,,,,,,,,,,,,,,1680,0,,,,,,,,,,
220,629,0,,,,,,,,,,,,,,,,,1680,0,,,,,,,,,,
221,631,0,,,,,,,,,,,,,,,,,1680,0,,,,,,,,,,
222,633,0,3.69,3.8,4.0,3.95,4.91,0.38,0.36,3.58,,0.0,0.03,1.06,0.0,0.0,0.0,0.03,1680,0,,,,,,,,0.8909932971000671,1.4934481382369995,0.0
223,635,0,,,,,,,,,,,,,,,,,1680,0,,,,,,,,,,
224,637,0,,,,,,,,,,,,,,,,,1680,0,,,,,,,,,,
225,639,0,,,,,,,,,,,,,,,,,1680,0,,,,,,,,,,
226,641,0,,,,,,,,,,,,,,,,,1680,0,,,,,,,,,,
227,643,0,3.69,3.8,4.0,3.95,4.91,0.35,0.34,3.56,,-0.02,0.01,0.95,0.0,1.0,0.0,0.03,1620,0,0.0,0.0,0.0,0.0,0.0,0.0,0.0,0.8663983941078186,1.4788893461227417,8.340410584395386e-10
228,645,0,,,,,,,,,,,,,,,,,1620,0,,,,,,,,,,
229,647,0,,,,,,,,,,,,,,,,,1620,0,,,,,,,,,,
230,649,0,,,,,,,,,,,,,,,,,1620,0,,,,,,,,,,
231,651,0,,,,,,,,,,,,,,,,,1620,0,,,,,,,,,,
232,653,0,3.69,3.8,4.0,3.95,4.9,0.33,0.31,3.56,,-0.04,0.0,0.98,0.0,-1.0,0.0,0.04,1620,0,,,,,,,,0.792686939239502,1.541966199874878,8.340653168126266e-10
233,655,0,,,,,,,,,,,,,,,,,1620,0,,,,,,,,,,
234,657,0,,,,,,,,,,,,,,,,,1620,0,,,,,,,,,,
235,659,0,,,,,,,,,,,,,,,,,1620,0,,,,,,,,,,
236,661,0,,,,,,,,,,,,,,,,,1620,0,,,,,,,,,,
237,663,0,3.69,3.8,4.0,3.94,4.88,0.36,0.34,3.56,,-0.02,0.01,1.02,0.0,1.0,0.0,0.02,1620,0,,,,,,,,0.7731005549430847,1.5164594650268555,0.0
238,665,0,,,,,,,,,,,,,,,,,1620,0,,,,,,,,,,
239,667,0,,,,,,,,,,,,,,,,,1620,0,,,,,,,,,,
240,669,0,,,,,,,,,,,,,,,,,1620,0,,,,,,,,,,
241,671,0,,,,,,,,,,,,,,,,,1620,0,,,,,,,,,,
242,673,0,3.68,3.79,4.0,3.94,4.88,0.35,0.31,3.55,,0.01,0.02,0.98,0.0,-1.0,-1.0,0.02,1620,0,,,,,,,,0.8063141703605652,1.3291441202163696,-8.339877122232053e-10
243,675,0,,,,,,,,,,,,,,,,,1620,0,,,,,,,,,,
244,677,0,,,,,,,,,,,,,,,,,1620,0,,,,,,,,,,
245,679,0,,,,,,,,,,,,,,,,,1680,0,,,,,,,,,,
246,681,0,,,,,,,,,,,,,,,,,1680,0,,,,,,,,,,
247,683,0,3.7,3.82,4.02,3.97,4.91,0.36,0.31,3.58,,-0.06,0.01,1.04,0.0,2.0,-1.0,0.06,1680,0,0.0,0.0,0.0,0.0,0.0,0.0,0.0,0.7846043109893799,1.5152736902236938,1.6681099834769952e-09
248,685,0,,,,,,,,,,,,,,,,,1680,0,,,,,,,,,,
249,687,0,,,,,,,,,,,,,,,,,1680,0,,,,,,,,,,
250,689,0,,,,,,,,,,,,,,,,,1680,0,,,,,,,,,,
251,691,0,,,,,,,,,,,,,,,,,1680,0,,,,,,,,,,
252,693,0,3.73,3.84,4.04,3.99,4.93,0.35,0.36,3.59,,-0.04,0.03,0.9,0.0,-1.0,0.0,0.05,1680,0,,,,,,,,0.8788313865661621,1.5915005207061768,0.0
253,695,0,,,,,,,,,,,,,,,,,1680,0,,,,,,,,,,
254,697,0,,,,,,,,,,,,,,,,,1680,0,,,,,,,,,,
255,699,0,,,,,,,,,,,,,,,,,1680,0,,,,,,,,,,
256,701,0,,,,,,,,,,,,,,,,,1680,0,,,,,,,,,,
257,703,0,3.68,3.78,3.98,3.92,4.88,0.32,0.36,3.56,,-0.0,0.04,1.06,0.0,0.0,0.0,0.04,1680,0,,,,,,,,0.9859673380851746,1.4586046934127808,-8.340335089229711e-10
258,705,0,,,,,,,,,,,,,,,,,1680,0,,,,,,,,,,
259,707,0,,,,,,,,,,,,,,,,,1680,0,,,,,,,,,,
260,709,0,,,,,,,,,,,,,,,,,1680,0,,,,,,,,,,
261,711,0,,,,,,,,,,,,,,,,,1680,0,,,,,,,,,,
262,713,0,3.71,3.82,4.02,3.96,4.9,0.32,0.32,3.58,,-0.03,0.01,0.96,0.0,0.0,0.0,0.03,1680,0,,,,,,,,0.9535881876945496,1.4861692190170288,-8.340437784859489e-10
263,715,0,,,,,,,,,,,,,,,,,1620,0,,,,,,,,,,
264,717,0,,,,,,,,,,,,,,,,,1620,0,,,,,,,,,,
265,719,0,,,,,,,,,,,,,,,,,1620,0,,,,,,,,,,
266,721,0,,,,,,,,,,,,,,,,,1620,0,,,,,,,,,,
267,723,0,3.72,3.83,4.03,3.98,4.91,0.3,0.3,3.6,,-0.05,0.01,1.0,0.0,-1.0,0.0,0.05,1620,0,0.0,0.0,0.0,0.0,0.0,0.0,0.0,0.922055184841156,1.5902401208877563,0.0
268,725,0,,,,,,,,,,,,,,,,,1620,0,,,,,,,,,,
269,727,0,,,,,,,,,,,,,,,,,1620,0,,,,,,,,,,
270,729,0,,,,,,,,,,,,,,,,,1620,0,,,,,,,,,,
271,731,0,,,,,,,,,,,,,,,,,1620,0,,,,,,,,,,
272,733,0,3.73,3.83,4.04,3.99,4.93,0.35,0.35,3.6,,-0.02,0.01,1.0,0.0,1.0,0.0,0.03,1620,0,,,,,,,,0.893223762512207,1.5635305643081665,-8.34073810018765e-10
273,735,0,,,,,,,,,,,,,,,,,1620,0,,,,,,,,,,
274,737,0,,,,,,,,,,,,,,,,,1620,0,,,,,,,,,,
275,739,0,,,,,,,,,,,,,,,,,1620,0,,,,,,,,,,
276,741,0,,,,,,,,,,,,,,,,,1620,0,,,,,,,,,,
277,743,0,3.73,3.83,4.04,3.99,4.94,0.31,0.33,3.6,,0.0,0.02,1.01,0.0,-1.0,-1.0,0.02,1620,0,,,,,,,,0.9128072261810303,1.4250799417495728,0.0
278,745,0,,,,,,,,,,,,,,,,,1620,0,,,,,,,,,,
279,747,0,,,,,,,,,,,,,,,,,1620,0,,,,,,,,,,
280,749,0,,,,,,,,,,,,,,,,,1620,0,,,,,,,,,,
281,751,0,,,,,,,,,,,,,,,,,1680,0,,,,,,,,,,
282,753,0,3.73,3.84,4.04,3.99,4.94,0.33,0.34,3.61,,-0.05,0.01,1.05,0.0,3.0,-1.0,0.05,1680,0,,,,,,,,0.882494330406189,1.5618517398834229,8.340731993961015e-10
283,755,0,,,,,,,,,,,,,,,,,1680,0,,,,,,,,,,
284,757,0,,,,,,,,,,,,,,,,,1680,0,,,,,,,,,,
285,759,0,,,,,,,,,,,,,,,,,1680,0,,,,,,,,,,
286,761,0,,,,,,,,,,,,,,,,,1680,0,,,,,,,,,,
287,763,0,3.72,3.83,4.03,3.98,4.94,0.32,0.37,3.6,,-0.05,0.03,0.93,0.0,-2.0,0.0,0.05,1680,0,0.0,0.0,0.0,0.0,0.0,0.0,0.0,0.9611873626708984,1.665449857711792,-8.341156099156422e-10
288,765,0,,,,,,,,,,,,,,,,,1680,0,,,,,,,,,,
289,767,0,,,,,,,,,,,,,,,,,1680,0,,,,,,,,,,
290,769,0,,,,,,,,,,,,,,,,,1680,0,,,,,,,,,,
291,771,0,,,,,,,,,,,,,,,,,1680,0,,,,,,,,,,
292,773,0,3.72,3.83,4.03,3.98,4.93,0.32,0.36,3.59,,-0.01,0.04,1.05,0.0,1.0,0.0,0.04,1680,0,,,,,,,,1.060461163520813,1.5843925476074219,-1.6681644954275043e-09
293,775,0,,,,,,,,,,,,,,,,,1680,0,,,,,,,,,,
294,777,0,,,,,,,,,,,,,,,,,1680,0,,,,,,,,,,
295,779,0,,,,,,,,,,,,,,,,,1680,0,,,,,,,,,,
296,781,0,,,,,,,,,,,,,,,,,1680,0,,,,,,,,,,
297,783,0,3.72,3.83,4.03,3.98,4.93,0.28,0.33,3.58,,-0.04,0.01,0.96,0.0,-1.0,0.0,0.04,1680,0,,,,,,,,1.0229177474975586,1.6393110752105713,0.0
298,785,0,,,,,,,,,,,,,,,,,1620,0,,,,,,,,,,
299,787,0,,,,,,,,,,,,,,,,,1620,0,,,,,,,,,,
300,789,0,,,,,,,,,,,,,,,,,1620,0,,,,,,,,,,
301,791,0,,,,,,,,,,,,,,,,,1620,0,,,,,,,,,,
302,793,0,3.69,3.79,4.0,3.94,4.88,0.26,0.29,3.56,,-0.05,0.0,1.01,0.0,0.0,0.0,0.05,1620,0,,,,,,,,0.9404527544975281,1.735723853111267,0.0
303,795,0,,,,,,,,,,,,,,,,,1620,0,,,,,,,,,,
304,797,0,,,,,,,,,,,,,,,,,1620,0,,,,,,,,,,
305,799,0,,,,,,,,,,,,,,,,,1620,0,,,,,,,,,,
306,801,0,,,,,,,,,,,,,,,,,1620,0,,,,,,,,,,
307,803,0,3.69,3.79,4.0,3.92,4.88,0.31,0.31,3.55,,-0.03,0.0,0.98,0.0,1.0,0.0,0.03,1620,0,0.0,0.0,0.0,0.0,0.0,0.0,0.0,0.8648805618286133,1.747160792350769,8.341510260301277e-10
308,805,0,,,,,,,,,,,,,,,,,1620,0,,,,,,,,,,
309,807,0,,,,,,,,,,,,,,,,,1620,0,,,,,,,,,,
310,809,0,,,,,,,,,,,,,,,,,1620,0,,,,,,,,,,
311,811,0,,,,,,,,,,,,,,,,,1620,0,,,,,,,,,,
312,813,0,3.73,3.84,4.04,3.99,4.93,0.3,0.34,3.6,,-0.0,0.02,1.03,0.0,-1.0,0.0,0.02,1620,0,,,,,,,,0.8846975564956665,1.5973247289657593,8.340874102508167e-10
313,815,0,,,,,,,,,,,,,,,,,1620,0,,,,,,,,,,
314,817,0,,,,,,,,,,,,,,,,,1620,0,,,,,,,,,,
315,819,0,,,,,,,,,,,,,,,,,1620,0,,,,,,,,,,
316,821,0,,,,,,,,,,,,,,,,,1680,0,,,,,,,,,,
317,823,0,3.73,3.84,4.04,3.99,4.93,0.31,0.33,3.6,,-0.03,0.01,1.03,0.0,2.0,-1.0,0.04,1680,0,,,,,,,,0.8582379221916199,1.6231322288513184,8.340979573695506e-10
318,825,0,,,,,,,,,,,,,,,,,1680,0,,,,,,,,,,
319,827,0,,,,,,,,,,,,,,,,,1680,0,,,,,,,,,,
320,829,0,,,,,,,,,,,,,,,,,1680,0,,,,,,,,,,
321,831,0,,,,,,,,,,,,,,,,,1680,0,,,,,,,,,,
322,833,0,3.72,3.83,4.03,3.98,4.92,0.31,0.34,3.59,,-0.06,0.02,0.95,0.0,-3.0,0.0,0.06,1680,0,,,,,,,,0.8858045935630798,1.7511413097381592,0.0
323,835,0,,,,,,,,,,,,,,,,,1680,0,,,,,,,,,,
324,837,0,,,,,,,,,,,,,,,,,1680,0,,,,,,,,,,
325,839,0,,,,,,,,,,,,,,,,,1680,0,,,,,,,,,,
326,841,0,,,,,,,,,,,,,,,,,1680,0,,,,,,,,,,
327,843,0,3.68,3.79,3.98,3.92,4.87,0.3,0.31,3.55,,-0.02,0.02,1.02,0.0,1.0,0.0,0.03,1680,0,0.0,0.0,0.0,0.0,0.0,0.0,0.0,0.9046000242233276,1.7114630937576294,0.0
328,845,0,,,,,,,,,,,,,,,,,1680,0,,,,,,,,,,
329,847,0,,,,,,,,,,,,,,,,,1680,0,,,,,,,,,,
330,849,0,,,,,,,,,,,,,,,,,1680,0,,,,,,,,,,
331,851,0,,,,,,,,,,,,,,,,,1680,0,,,,,,,,,,
332,853,0,3.73,3.84,4.04,3.99,4.93,0.3,0.35,3.6,,-0.04,0.02,0.96,0.0,-2.0,0.0,0.04,1680,0,,,,,,,,0.9273409247398376,1.744563341140747,1.6682998316142061e-09
333,855,0,,,,,,,,,,,,,,,,,1680,0,,,,,,,,,,
334,857,0,,,,,,,,,,,,,,,,,1620,0,,,,,,,,,,
335,859,0,,,,,,,,,,,,,,,,,1620,0,,,,,,,,,,
336,861,0,,,,,,,,,,,,,,,,,1620,0,,,,,,,,,,
337,863,0,3.69,3.8,4.0,3.94,4.9,0.29,0.34,3.57,,-0.05,0.01,1.0,0.0,1.0,0.0,0.05,1620,0,,,,,,,,0.8995576500892639,1.842260718345642,-1.668388871500781e-09
338,865,0,,,,,,,,,,,,,,,,,1620,0,,,,,,,,,,
339,867,0,,,,,,,,,,,,,,,,,1620,0,,,,,,,,,,
340,869,0,,,,,,,,,,,,,,,,,1620,0,,,,,,,,,,
341,871,0,,,,,,,,,,,,,,,,,1620,0,,,,,,,,,,
342,873,0,3.73,3.84,4.04,3.98,4.94,0.34,0.37,3.6,,-0.03,0.0,0.96,0.0,0.0,0.0,0.03,1620,0,,,,,,,,0.829258382320404,1.8381861448287964,2.5025774785802923e-09
343,875,0,,,,,,,,,,,,,,,,,1620,0,,,,,,,,,,
344,877,0,,,,,,,,,,,,,,,,,1620,0,,,,,,,,,,
345,879,0,,,,,,,,,,,,,,,,,1620,0,,,,,,,,,,
346,881,0,,,,,,,,,,,,,,,,,1620,0,,,,,,,,,,
347,883,0,3.69,3.82,4.02,3.96,4.9,0.31,0.36,3.57,,0.0,0.02,1.05,0.0,-2.0,0.0,0.02,1620,0,0.0,0.0,0.0,0.0,0.0,0.0,0.0,0.8496472835540771,1.675142526626587,8.341197732519845e-10
348,885,0,,,,,,,,,,,,,,,,,1620,0,,,,,,,,,,
349,887,0,,,,,,,,,,,,,,,,,1620,0,,,,,,,,,,
350,889,0,,,,,,,,,,,,,,,,,1620,0,,,,,,,,,,
351,891,0,,,,,,,,,,,,,,,,,1620,0,,,,,,,,,,
352,893,0,3.71,3.82,4.02,3.97,4.93,0.33,0.32,3.59,,-0.0,0.01,1.01,0.0,2.0,0.0,0.01,1680,0,,,,,,,,0.8277581334114075,1.5653085708618164,0.0
353,895,0,,,,,,,,,,,,,,,,,1680,0,,,,,,,,,,
354,897,0,,,,,,,,,,,,,,,,,1680,0,,,,,,,,,,
355,899,0,,,,,,,,,,,,,,,,,1680,0,,,,,,,,,,
356,901,0,,,,,,,,,,,,,,,,,1680,0,,,,,,,,,,
357,903,0,3.73,3.83,4.04,3.98,4.92,0.32,0.32,3.59,,-0.06,0.02,0.99,0.0,-3.0,0.0,0.06,1680,0,,,,,,,,0.8531534075737,1.6821377277374268,-8.34122770854151e-10
358,905,0,,,,,,,,,,,,,,,,,1680,0,,,,,,,,,,
359,907,0,,,,,,,,,,,,,,,,,1680,0,,,,,,,,,,
360,909,0,,,,,,,,,,,,,,,,,1680,0,,,,,,,,,,
361,911,0,,,,,,,,,,,,,,,,,1680,0,,,,,,,,,,
362,913,0,3.73,3.84,4.04,3.99,4.93,0.34,0.33,3.6,,-0.02,0.03,0.99,0.0,1.0,1.0,0.03,1680,0,,,,,,,,0.9213138222694397,1.6516066789627075,-8.341097812447629e-10
363,915,0,,,,,,,,,,,,,,,,,1680,0,,,,,,,,,,
364,917,0,,,,,,,,,,,,,,,,,1680,0,,,,,,,,,,
365,919,0,,,,,,,,,,,,,,,,,1680,0,,,,,,,,,,
366,921,0,,,,,,,,,,,,,,,,,1680,0,,,,,,,,,,
367,923,0,3.68,3.78,3.98,3.92,4.88,0.31,0.27,3.55,,-0.03,0.03,1.01,0.0,-1.0,0.0,0.04,1680,0,0.0,0.0,0.0,0.0,0.0,0.0,0.0,0.9810307025909424,1.645370602607727,0.0
368,925,0,,,,,,,,,,,,,,,,,1680,0,,,,,,,,,,
369,927,0,,,,,,,,,,,,,,,,,1680,0,,,,,,,,,,
370,929,0,,,,,,,,,,,,,,,,,1620,0,,,,,,,,,,
371,931,0,,,,,,,,,,,,,,,,,1620,0,,,,,,,,,,
372,933,0,3.73,3.84,4.04,3.99,4.93,0.29,0.32,3.6,,-0.04,0.02,1.01,0.0,2.0,0.0,0.05,1620,0,,,,,,,,0.9927327036857605,1.712804913520813,-1.668271965016288e-09
373,935,0,,,,,,,,,,,,,,,,,1620,0,,,,,,,,,,
374,937,0,,,,,,,,,,,,,,,,,1620,0,,,,,,,,,,
375,939,0,,,,,,,,,,,,,,,,,1620,0,,,,,,,,,,
376,941,0,,,,,,,,,,,,,,,,,1620,0,,,,,,,,,,
377,943,0,3.7,3.81,4.03,3.97,4.91,0.34,0.32,3.58,,-0.04,0.01,0.95,0.0,0.0,0.0,0.04,1620,0,,,,,,,,0.9631584286689758,1.7658149003982544,0.0
378,945,0,,,,,,,,,,,,,,,,,1620,0,,,,,,,,,,
379,947,0,,,,,,,,,,,,,,,,,1620,0,,,,,,,,,,
380,949,0,,,,,,,,,,,,,,,,,1620,0,,,,,,,,,,
381,951,0,,,,,,,,,,,,,,,,,1620,0,,,,,,,,,,
382,953,0,3.73,3.84,4.04,3.99,4.94,0.31,0.37,3.61,,-0.01,0.02,1.06,0.0,-1.0,0.0,0.02,1620,0,,,,,,,,0.9720619320869446,1.6631630659103394,-1.66822922142984e-09
383,955,0,,,,,,,,,,,,,,,,,1620,0,,,,,,,,,,
384,957,0,,,,,,,,,,,,,,,,,1620,0,,,,,,,,,,
385,959,0,,,,,,,,,,,,,,,,,1620,0,,,,,,,,,,
386,961,0,,,,,,,,,,,,,,,,,1620,0,,,,,,,,,,
387,963,0,3.71,3.82,4.02,3.97,4.9,0.3,0.31,3.57,,0.01,0.01,0.99,0.0,1.0,1.0,0.02,1620,0,0.0,0.0,0.0,0.0,0.0,0.0,0.0,0.9427162408828735,1.5042283535003662,-8.340506063575504e-10
388,965,0,,,,,,,,,,,,,,,,,1680,0,,,,,,,,,,
389,967,0,,,,,,,,,,,,,,,,,1680,0,,,,,,,,,,
390,969,0,,,,,,,,,,,,,,,,,1680,0,,,,,,,,,,
391,971,0,,,,,,,,,,,,,,,,,1680,0,,,,,,,,,,
392,973,0,3.72,3.83,4.03,3.98,4.94,0.3,0.3,3.59,,-0.07,0.02,1.02,0.0,-3.0,0.0,0.07,1680,0,,,,,,,,0.9562177062034607,1.6557080745697021,0.0
393,975,0,,,,,,,,,,,,,,,,,1680,0,,,,,,,,,,
394,977,0,,,,,,,,,,,,,,,,,1680,0,,,,,,,,,,
395,979,0,,,,,,,,,,,,,,,,,1680,0,,,,,,,,,,
396,981,0,,,,,,,,,,,,,,,,,1680,0,,,,,,,,,,
397,983,0,3.72,3.83,4.03,3.98,4.92,0.3,0.35,3.59,,-0.03,0.02,0.94,0.0,1.0,1.0,0.04,1680,0,,,,,,,,0.9761233329772949,1.6783702373504639,0.0
398,985,0,,,,,,,,,,,,,,,,,1680,0,,,,,,,,,,
399,987,0,,,,,,,,,,,,,,,,,1680,0,,,,,,,,,,
400,989,0,,,,,,,,,,,,,,,,,1680,0,,,,,,,,,,
401,991,0,,,,,,,,,,,,,,,,,1680,0,,,,,,,,,,
402,993,0,3.74,3.84,4.05,3.99,4.94,0.28,0.33,3.6,,-0.02,0.03,1.04,0.0,-1.0,0.0,0.03,1680,0,,,,,,,,1.026402235031128,1.6254714727401733,1.668197802118243e-09
403,995,0,,,,,,,,,,,,,,,,,1680,0,,,,,,,,,,
404,997,0,,,,,,,,,,,,,,,,,1680,0,,,,,,,,,,
405,999,0,,,,,,,,,,,,,,,,,1680,0,,,,,,,,,,
406,1001,0,,,,,,,,,,,,,,,,,1620,0,,,,,,,,,,
407,1003,0,3.68,3.78,3.99,3.92,4.87,0.25,0.31,3.55,,-0.04,0.01,0.98,0.0,2.0,0.0,0.04,1620,0,0.0,0.0,0.0,0.0,0.0,0.0,0.0,0.9937202334403992,1.6981611251831055,-1.6682593084738073e-09
408,1005,0,,,,,,,,,,,,,,,,,1620,0,,,,,,,,,,
409,1007,0,,,,,,,,,,,,,,,,,1620,0,,,,,,,,,,
410,1009,0,,,,,,,,,,,,,,,,,1620,0,,,,,,,,,,
411,1011,0,,,,,,,,,,,,,,,,,1620,0,,,,,,,,,,
412,1013,0,3.7,3.81,3.99,3.94,4.9,0.27,0.33,3.57,,-0.05,-0.0,0.94,0.0,-1.0,1.0,0.05,1620,0,,,,,,,,0.9208367466926575,1.787271499633789,0.0
413,1015,0,,,,,,,,,,,,,,,,,1620,0,,,,,,,,,,
414,1017,0,,,,,,,,,,,,,,,,,1620,0,,,,,,,,,,
415,1019,0,,,,,,,,,,,,,,,,,1620,0,,,,,,,,,,
416,1021,0,,,,,,,,,,,,,,,,,1620,0,,,,,,,,,,
417,1023,0,3.73,3.84,4.04,3.99,4.93,0.28,0.34,3.6,,-0.02,0.01,1.05,0.0,0.0,0.0,0.02,1620,0,,,,,,,,0.8932912945747375,1.736181378364563,0.0
418,1025,0,,,,,,,,,,,,,,,,,1620,0,,,,,,,,,,
419,1027,0,,,,,,,,,,,,,,,,,1620,0,,,,,,,,,,
420,1029,0,,,,,,,,,,,,,,,,,1620,0,,,,,,,,,,
421,1031,0,,,,,,,,,,,,,,,,,1620,0,,,,,,,,,,
422,1033,0,3.68,3.79,3.99,3.94,4.89,0.26,0.3,3.57,,0.01,0.01,0.97,0.0,0.0,0.0,0.01,1620,0,,,,,,,,0.8711668848991394,1.5661792755126953,8.340748647306384e-10
423,1035,0,,,,,,,,,,,,,,,,,1620,0,,,,,,,,,,
424,1037,0,,,,,,,,,,,,,,,,,1680,0,,,,,,,,,,
425,1039,0,,,,,,,,,,,,,,,,,1680,0,,,,,,,,,,
426,1041,0,,,,,,,,,,,,,,,,,1680,0,,,,,,,,,,
427,1043,0,3.72,3.82,4.03,3.97,4.91,0.26,0.28,3.59,13.48,-0.07,0.02,1.04,0.0,-1.0,0.0,0.07,1680,0,0.0,0.0,0.0,0.0,0.0,0.0,0.0,0.8879076242446899,1.7223178148269653,0.0
428,1045,0,,,,,,,,,,,,,,,,,1680,0,,,,,,,,,,
429,1047,0,,,,,,,,,,,,,,,,,1680,0,,,,,,,,,,
430,1049,0,,,,,,,,,,,,,,,,,1680,0,,,,,,,,,,
431,1051,0,,,,,,,,,,,,,,,,,1680,0,,,,,,,,,,
432,1053,0,3.73,3.84,4.04,3.99,4.94,0.29,0.36,3.6,,-0.03,0.02,0.91,0.0,1.0,1.0,0.04,1680,0,,,,,,,,0.9151015281677246,1.7441459894180298,-1.6682993875249963e-09
433,1055,0,,,,,,,,,,,,,,,,,1680,0,,,,,,,,,,
434,1057,0,,,,,,,,,,,,,,,,,1680,0,,,,,,,,,,
435,1059,0,,,,,,,,,,,,,,,,,1680,0,,,,,,,,,,
436,1061,0,,,,,,,,,,,,,,,,,1680,0,,,,,,,,,,
437,1063,0,3.68,3.79,3.98,3.92,4.88,0.27,0.32,3.56,,-0.01,0.03,1.07,0.0,-1.0,0.0,0.03,1680,0,,,,,,,,0.9649507999420166,1.6469604969024658,0.0
438,1065,0,,,,,,,,,,,,,,,,,1680,0,,,,,,,,,,
439,1067,0,,,,,,,,,,,,,,,,,1680,0,,,,,,,,,,
440,1069,0,,,,,,,,,,,,,,,,,1680,0,,,,,,,,,,
441,1071,0,,,,,,,,,,,,,,,,,1620,0,,,,,,,,,,
442,1073,0,3.73,3.84,4.05,3.99,4.94,0.27,0.36,3.6,,-0.03,0.01,0.97,0.0,2.0,0.0,0.03,1620,0,,,,,,,,0.9380817413330078,1.6758953332901,0.0
443,1075,0,,,,,,,,,,,,,,,,,1620,0,,,,,,,,,,
444,1077,0,,,,,,,,,,,,,,,,,1620,0,,,,,,,,,,
445,1079,0,,,,,,,,,,,,,,,,,1620,0,,,,,,,,,,
446,1081,0,,,,,,,,,,,,,,,,,1620,0,,,,,,,,,,
447,1083,0,3.68,3.81,4.01,3.95,4.89,0.27,0.34,3.56,,-0.05,0.0,0.97,0.0,-1.0,1.0,0.05,1620,0,0.0,0.0,0.0,0.0,0.0,0.0,0.0,0.871364176273346,1.7568999528884888,-1.6683107117998475e-09
448,1085,0,,,,,,,,,,,,,,,,,1620,0,,,,,,,,,,
449,1087,0,,,,,,,,,,,,,,,,,1620,0,,,,,,,,,,
450,1089,0,,,,,,,,,,,,,,,,,1620,0,,,,,,,,,,
451,1091,0,,,,,,,,,,,,,,,,,1620,0,,,,,,,,,,
452,1093,0,3.71,3.82,4.02,3.97,4.93,0.28,0.37,3.6,,-0.01,0.02,1.04,0.0,1.0,0.0,0.02,1620,0,,,,,,,,0.8877713680267334,1.6810520887374878,8.341222712537899e-10
453,1095,0,,,,,,,,,,,,,,,,,1620,0,,,,,,,,,,
454,1097,0,,,,,,,,,,,,,,,,,1620,0,,,,,,,,,,
455,1099,0,,,,,,,,,,,,,,,,,1620,0,,,,,,,,,,
456,1101,0,,,,,,,,,,,,,,,,,1620,0,,,,,,,,,,
457,1103,0,3.72,3.83,4.03,3.97,4.91,0.28,0.36,3.58,,0.01,0.01,0.97,0.0,0.0,0.0,0.02,1620,0,,,,,,,,0.8667097091674805,1.5201096534729004,0.0
458,1105,0,,,,,,,,,,,,,,,,,1620,0,,,,,,,,,,
459,1107,0,,,,,,,,,,,,,,,,,1680,0,,,,,,,,,,
460,1109,0,,,,,,,,,,,,,,,,,1680,0,,,,,,,,,,
461,1111,0,,,,,,,,,,,,,,,,,1680,0,,,,,,,,,,
462,1113,0,3.73,3.84,4.04,3.99,4.92,0.28,0.36,3.6,,-0.06,0.01,1.04,0.0,0.0,0.0,0.06,1680,0,,,,,,,,0.8444576263427734,1.6457829475402832,0.0
463,1115,0,,,,,,,,,,,,,,,,,1680,0,,,,,,,,,,
464,1117,0,,,,,,,,,,,,,,,,,1680,0,,,,,,,,,,
465,1119,0,,,,,,,,,,,,,,,,,1680,0,,,,,,,,,,
466,1121,0,,,,,,,,,,,,,,,,,1680,0,,,,,,,,,,
467,1123,0,3.69,3.8,4.0,3.94,4.9,0.26,0.38,3.56,,-0.03,0.03,0.9,0.0,0.0,0.0,0.04,1680,0,0.0,0.0,0.0,0.0,0.0,0.0,0.0,0.9192202687263489,1.66422438621521,8.341150548041298e-10
468,1125,0,,,,,,,,,,,,,,,,,1680,0,,,,,,,,,,
469,1127,0,,,,,,,,,,,,,,,,,1680,0,,,,,,,,,,
470,1129,0,,,,,,,,,,,,,,,,,1680,0,,,,,,,,,,
471,1131,0,,,,,,,,,,,,,,,,,1680,0,,,,,,,,,,
472,1133,0,3.73,3.84,4.04,3.99,4.93,0.3,0.4,3.6,,0.0,0.04,1.06,0.0,0.0,0.0,0.04,1680,0,,,,,,,,1.0060718059539795,1.5479092597961426,0.0
473,1135,0,,,,,,,,,,,,,,,,,1680,0,,,,,,,,,,
474,1137,0,,,,,,,,,,,,,,,,,1680,0,,,,,,,,,,
475,1139,0,,,,,,,,,,,,,,,,,1680,0,,,,,,,,,,
476,1141,0,,,,,,,,,,,,,,,,,1680,0,,,,,,,,,,
477,1143,0,3.71,3.82,4.0,3.95,4.91,0.26,0.34,3.58,,-0.02,0.01,0.96,0.0,1.0,0.0,0.03,1620,0,,,,,,,,0.9775881767272949,1.533238410949707,-8.340618751212503e-10
478,1145,0,,,,,,,,,,,,,,,,,1620,0,,,,,,,,,,
479,1147,0,,,,,,,,,,,,,,,,,1620,0,,,,,,,,,,
480,1149,0,,,,,,,,,,,,,,,,,1620,0,,,,,,,,,,
481,1151,0,,,,,,,,,,,,,,,,,1620,0,,,,,,,,,,
482,1153,0,3.73,3.84,4.04,3.99,4.94,0.26,0.33,3.6,,-0.05,0.0,0.97,0.0,-1.0,0.0,0.05,1620,0,,,,,,,,0.9099189043045044,1.6214560270309448,-8.340972357245846e-10
483,1155,0,,,,,,,,,,,,,,,,,1620,0,,,,,,,,,,
484,1157,0,,,,,,,,,,,,,,,,,1620,0,,,,,,,,,,
485,1159,0,,,,,,,,,,,,,,,,,1620,0,,,,,,,,,,
486,1161,0,,,,,,,,,,,,,,,,,1620,0,,,,,,,,,,
487,1163,0,3.72,3.82,4.03,3.97,4.91,0.3,0.34,3.58,,-0.02,0.01,1.01,0.0,1.0,0.0,0.02,1620,0,0.0,0.0,0.0,0.0,0.0,0.0,0.0,0.8862874507904053,1.5978642702102661,8.340875767842704e-10
488,1165,0,,,,,,,,,,,,,,,,,1620,0,,,,,,,,,,
489,1167,0,,,,,,,,,,,,,,,,,1620,0,,,,,,,,,,
490,1169,0,,,,,,,,,,,,,,,,,1620,0,,,,,,,,,,
491,1171,0,,,,,,,,,,,,,,,,,1620,0,,,,,,,,,,
492,1173,0,3.72,3.83,4.03,3.98,4.91,0.28,0.32,3.59,,0.01,0.01,0.98,0.0,-1.0,0.0,0.02,1620,0,,,,,,,,0.8655692934989929,1.4380770921707153,8.340259594064037e-10
493,1175,0,,,,,,,,,,,,,,,,,1620,0,,,,,,,,,,
494,1177,0,,,,,,,,,,,,,,,,,1620,0,,,,,,,,,,
495,1179,0,,,,,,,,,,,,,,,,,1680,0,,,,,,,,,,
496,1181,0,,,,,,,,,,,,,,,,,1680,0,,,,,,,,,,
497,1183,0,3.71,3.82,4.02,3.96,4.9,0.28,0.3,3.58,,-0.06,0.01,1.04,0.0,2.0,-1.0,0.06,1680,0,,,,,,,,0.8438388109207153,1.585551142692566,8.340826362918108e-10
498,1185,0,,,,,,,,,,,,,,,,,1680,0,,,,,,,,,,
499,1187,0,,,,,,,,,,,,,,,,,1680,0,,,,,,,,,,
500,1189,0,,,,,,,,,,,,,,,,,1680,0,,,,,,,,,,
501,1191,0,,,,,,,,,,,,,,,,,1680,0,,,,,,,,,,
502,1193,0,3.68,3.78,3.98,3.92,4.88,0.26,0.31,3.55,,-0.04,0.03,0.9,0.0,-1.0,0.0,0.05,1680,0,,,,,,,,0.9162478446960449,1.6407157182693481,0.0
503,1195,0,,,,,,,,,,,,,,,,,1680,0,,,,,,,,,,
504,1197,0,,,,,,,,,,,,,,,,,1680,0,,,,,,,,,,
505,1199,0,,,,,,,,,,,,,,,,,1680,0,,,,,,,,,,
506,1201,0,,,,,,,,,,,,,,,,,1680,0,,,,,,,,,,
507,1203,0,3.68,3.79,3.98,3.94,4.88,0.29,0.32,3.55,,-0.0,0.03,1.06,0.0,0.0,0.0,0.03,1680,0,0.0,0.0,0.0,0.0,0.0,0.0,0.0,0.9639852046966553,1.5296627283096313,-8.340604873424695e-10
508,1205,0,,,,,,,,,,,,,,,,,1680,0,,,,,,,,,,
509,1207,0,,,,,,,,,,,,,,,,,1680,0,,,,,,,,,,
510,1209,0,,,,,,,,,,,,,,,,,1680,0,,,,,,,,,,
511,1211,0,,,,,,,,,,,,,,,,,1680,0,,,,,,,,,,
512,1213,0,3.66,3.76,4.02,3.96,4.88,0.26,0.27,3.55,,-0.03,0.01,0.96,0.0,0.0,0.0,0.03,1620,0,,,,,,,,0.9392467737197876,1.547194242477417,-8.34067315214071e-10
513,1215,0,,,,,,,,,,,,,,,,,1620,0,,,,,,,,,,
514,1217,0,,,,,,,,,,,,,,,,,1620,0,,,,,,,,,,
515,1219,0,,,,,,,,,,,,,,,,,1620,0,,,,,,,,,,
516,1221,0,,,,,,,,,,,,,,,,,1620,0,,,,,,,,,,
517,1223,0,3.73,3.84,4.04,3.99,4.93,0.26,0.29,3.6,,-0.05,0.0,0.99,0.0,-1.0,0.0,0.05,1620,0,,,,,,,,0.8763077855110168,1.627342700958252,0.0
518,1225,0,,,,,,,,,,,,,,,,,1620,0,,,,,,,,,,
519,1227,0,,,,,,,,,,,,,,,,,1620,0,,,,,,,,,,
520,1229,0,,,,,,,,,,,,,,,,,1620,0,,,,,,,,,,
521,1231,0,,,,,,,,,,,,,,,,,1620,0,,,,,,,,,,
522,1233,0,3.73,3.84,4.04,3.99,4.93,0.31,0.34,3.6,,-0.02,0.0,1.0,0.0,1.0,0.0,0.02,1620,0,,,,,,,,0.8178097605705261,1.6052085161209106,8.340905743864369e-10
523,1235,0,,,,,,,,,,,,,,,,,1620,0,,,,,,,,,,
524,1237,0,,,,,,,,,,,,,,,,,1620,0,,,,,,,,,,
525,1239,0,,,,,,,,,,,,,,,,,1620,0,,,,,,,,,,
526,1241,0,,,,,,,,,,,,,,,,,1620,0,,,,,,,,,,
527,1243,0,3.72,3.82,4.02,3.97,4.91,0.28,0.29,3.59,,0.01,0.01,1.0,0.0,-1.0,-1.0,0.02,1620,0,0.0,0.0,0.0,0.0,0.0,0.0,0.0,0.8012673854827881,1.4506874084472656,1.6680611336639117e-09
528,1245,0,,,,,,,,,,,,,,,,,1620,0,,,,,,,,,,
529,1247,0,,,,,,,,,,,,,,,,,1620,0,,,,,,,,,,
530,1249,0,,,,,,,,,,,,,,,,,1680,0,,,,,,,,,,
531,1251,0,,,,,,,,,,,,,,,,,1680,0,,,,,,,,,,
532,1253,0,3.69,3.8,4.0,3.94,4.88,0.29,0.27,3.57,,-0.03,0.01,1.04,0.0,2.0,-1.0,0.03,1680,0,,,,,,,,0.7844665050506592,1.484149694442749,0.0
533,1255,0,,,,,,,,,,,,,,,,,1680,0,,,,,,,,,,
534,1257,0,,,,,,,,,,,,,,,,,1680,0,,,,,,,,,,
535,1259,0,,,,,,,,,,,,,,,,,1680,0,,,,,,,,,,
536,1261,0,,,,,,,,,,,,,,,,,1680,0,,,,,,,,,,
537,1263,0,3.68,3.79,3.99,3.94,4.87,0.26,0.29,3.55,,-0.04,0.02,0.92,0.0,-2.0,0.0,0.04,1680,0,,,,,,,,0.8147681355476379,1.5302678346633911,-8.340607648982257e-10
538,1265,0,,,,,,,,,,,,,,,,,1680,0,,,,,,,,,,
539,1267,0,,,,,,,,,,,,,,,,,1680,0,,,,,,,,,,
540,1269,0,,,,,,,,,,,,,,,,,1680,0,,,,,,,,,,
541,1271,0,,,,,,,,,,,,,,,,,1680,0,,,,,,,,,,
542,1273,0,3.68,3.79,3.99,3.93,4.87,0.29,0.3,3.55,,-0.0,0.03,1.06,0.0,0.0,0.0,0.03,1680,0,,,,,,,,0.8675870299339294,1.4300822019577026,0.0
543,1275,0,,,,,,,,,,,,,,,,,1680,0,,,,,,,,,,
544,1277,0,,,,,,,,,,,,,,,,,1680,0,,,,,,,,,,
545,1279,0,,,,,,,,,,,,,,,,,1680,0,,,,,,,,,,
546,1281,0,,,,,,,,,,,,,,,,,1680,0,,,,,,,,,,
547,1283,0,3.73,3.84,4.02,3.97,4.93,0.27,0.3,3.59,,-0.03,0.01,0.96,0.0,0.0,0.0,0.03,1680,0,0.0,0.0,0.0,0.0,0.0,0.0,0.0,0.8499444127082825,1.4535256624221802,0.0
548,1285,0,,,,,,,,,,,,,,,,,1620,0,,,,,,,,,,
549,1287,0,,,,,,,,,,,,,,,,,1620,0,,,,,,,,,,
550,1289,0,,,,,,,,,,,,,,,,,1620,0,,,,,,,,,,
551,1291,0,,,,,,,,,,,,,,,,,1620,0,,,,,,,,,,
552,1293,0,3.72,3.83,4.03,3.98,4.94,0.27,0.29,3.6,,-0.04,0.0,1.01,0.0,0.0,0.0,0.04,1620,0,,,,,,,,0.7948517203330994,1.5063492059707642,-8.3405149453597e-10
553,1295,0,,,,,,,,,,,,,,,,,1620,0,,,,,,,,,,
554,1297,0,,,,,,,,,,,,,,,,,1620,0,,,,,,,,,,
555,1299,0,,,,,,,,,,,,,,,,,1620,0,,,,,,,,,,
556,1301,0,,,,,,,,,,,,,,,,,1620,0,,,,,,,,,,
557,1303,0,3.67,3.81,4.06,4.0,4.94,0.31,0.31,3.57,,-0.03,0.0,0.98,0.0,2.0,0.0,0.03,1620,0,,,,,,,,0.743571937084198,1.5422992706298828,8.340654278349291e-10
558,1305,0,,,,,,,,,,,,,,,,,1620,0,,,,,,,,,,
559,1307,0,,,,,,,,,,,,,,,,,1620,0,,,,,,,,,,
560,1309,0,,,,,,,,,,,,,,,,,1620,0,,,,,,,,,,
561,1311,0,,,,,,,,,,,,,,,,,1620,0,,,,,,,,,,
562,1313,0,3.75,3.79,4.02,4.0,4.89,0.28,0.32,3.58,,-0.0,0.02,1.03,0.0,-1.0,-1.0,0.02,1620,0,,,,,,,,0.7670008540153503,1.4334049224853516,1.6680485881437335e-09
563,1315,0,,,,,,,,,,,,,,,,,1620,0,,,,,,,,,,
564,1317,0,,,,,,,,,,,,,,,,,1620,0,,,,,,,,,,
565,1319,0,,,,,,,,,,,,,,,,,1620,0,,,,,,,,,,
566,1321,0,,,,,,,,,,,,,,,,,1680,0,,,,,,,,,,
567,1323,0,3.69,3.84,4.03,3.92,4.92,0.3,0.31,3.61,,-0.04,0.01,1.02,0.0,3.0,-1.0,0.04,1680,0,0.0,0.0,0.0,0.0,0.0,0.0,0.0,0.7536408305168152,1.5154348611831665,-8.340549917384976e-10
568,1325,0,,,,,,,,,,,,,,,,,1680,0,,,,,,,,,,
569,1327,0,,,,,,,,,,,,,,,,,1680,0,,,,,,,,,,
570,1329,0,,,,,,,,,,,,,,,,,1680,0,,,,,,,,,,
571,1331,0,,,,,,,,,,,,,,,,,1680,0,,,,,,,,,,
572,1333,0,3.73,3.84,4.04,3.99,4.94,0.29,0.35,3.6,,-0.06,0.03,0.96,0.0,-3.0,0.0,0.06,1680,0,,,,,,,,0.8194138407707214,1.6163523197174072,8.340951263008378e-10
573,1335,0,,,,,,,,,,,,,,,,,1680,0,,,,,,,,,,
574,1337,0,,,,,,,,,,,,,,,,,1680,0,,,,,,,,,,
575,1339,0,,,,,,,,,,,,,,,,,1680,0,,,,,,,,,,
576,1341,0,,,,,,,,,,,,,,,,,1680,0,,,,,,,,,,
577,1343,0,3.72,3.82,4.03,3.98,4.92,0.31,0.31,3.59,,-0.02,0.03,1.02,0.0,1.0,0.0,0.04,1680,0,,,,,,,,0.8741692304611206,1.5951385498046875,0.0
578,1345,0,,,,,,,,,,,,,,,,,1680,0,,,,,,,,,,
579,1347,0,,,,,,,,,,,,,,,,,1680,0,,,,,,,,,,
580,1349,0,,,,,,,,,,,,,,,,,1680,0,,,,,,,,,,
581,1351,0,,,,,,,,,,,,,,,,,1680,0,,,,,,,,,,
582,1353,0,3.73,3.84,4.04,3.99,4.94,0.28,0.32,3.6,,-0.04,0.03,0.98,0.0,-1.0,0.0,0.05,1680,0,,,,,,,,0.929486870765686,1.6317998170852661,-8.341015100832294e-10
583,1355,0,,,,,,,,,,,,,,,,,1680,0,,,,,,,,,,
584,1357,0,,,,,,,,,,,,,,,,,1620,0,,,,,,,,,,
585,1359,0,,,,,,,,,,,,,,,,,1620,0,,,,,,,,,,
586,1361,0,,,,,,,,,,,,,,,,,1620,0,,,,,,,,,,
587,1363,0,3.69,3.8,3.99,3.93,4.88,0.24,0.27,3.55,,-0.05,0.02,1.01,0.0,0.0,0.0,0.06,1620,0,0.0,0.0,0.0,0.0,0.0,0.0,0.0,0.942312479019165,1.7070645093917847,-1.6682670800349797e-09
588,1365,0,,,,,,,,,,,,,,,,,1620,0,,,,,,,,,,
589,1367,0,,,,,,,,,,,,,,,,,1620,0,,,,,,,,,,
590,1369,0,,,,,,,,,,,,,,,,,1620,0,,,,,,,,,,
591,1371,0,,,,,,,,,,,,,,,,,1620,0,,,,,,,,,,
592,1373,0,3.72,3.83,4.03,3.98,4.92,0.31,0.31,3.59,,-0.04,0.01,0.96,0.0,0.0,0.0,0.04,1620,0,,,,,,,,0.9207907915115356,1.749362826347351,0.0
593,1375,0,,,,,,,,,,,,,,,,,1620,0,,,,,,,,,,
594,1377,0,,,,,,,,,,,,,,,,,1620,0,,,,,,,,,,
595,1379,0,,,,,,,,,,,,,,,,,1620,0,,,,,,,,,,
596,1381,0,,,,,,,,,,,,,,,,,1620,0,,,,,,,,,,
597,1383,0,3.73,3.84,4.05,3.99,4.94,0.28,0.33,3.6,,-0.01,0.02,1.06,0.0,-2.0,0.0,0.03,1620,0,,,,,,,,0.9307131171226501,1.654416561126709,-8.341109469789387e-10
598,1385,0,,,,,,,,,,,,,,,,,1620,0,,,,,,,,,,
599,1387,0,,,,,,,,,,,,,,,,,1620,0,,,,,,,,,,
600,1389,0,,,,,,,,,,,,,,,,,1620,0,,,,,,,,,,
601,1391,0,,,,,,,,,,,,,,,,,1620,0,,,,,,,,,,
602,1393,0,3.72,3.82,4.02,3.97,4.91,0.29,0.28,3.59,,-0.01,0.01,1.0,0.0,2.0,0.0,0.02,1680,0,,,,,,,,0.9086461663246155,1.6077090501785278,8.34091573587159e-10
603,1395,0,,,,,,,,,,,,,,,,,1680,0,,,,,,,,,,
604,1397,0,,,,,,,,,,,,,,,,,1680,0,,,,,,,,,,
605,1399,0,,,,,,,,,,,,,,,,,1680,0,,,,,,,,,,
606,1401,0,,,,,,,,,,,,,,,,,1680,0,,,,,,,,,,
607,1403,0,3.7,3.81,4.01,3.96,4.9,0.25,0.28,3.57,,-0.07,0.03,1.01,0.0,-4.0,0.0,0.07,1680,0,0.0,0.0,0.0,0.0,0.0,0.0,0.0,0.9571775197982788,1.712213397026062,0.0
608,1405,0,,,,,,,,,,,,,,,,,1680,0,,,,,,,,,,
609,1407,0,,,,,,,,,,,,,,,,,1680,0,,,,,,,,,,
610,1409,0,,,,,,,,,,,,,,,,,1680,0,,,,,,,,,,
611,1411,0,,,,,,,,,,,,,,,,,1680,0,,,,,,,,,,
612,1413,0,3.73,3.84,4.03,3.98,4.93,0.29,0.3,3.6,,-0.02,0.03,0.97,0.0,1.0,1.0,0.04,1680,0,,,,,,,,1.0072013139724731,1.6895973682403564,-1.6682519810018448e-09
613,1415,0,,,,,,,,,,,,,,,,,1680,0,,,,,,,,,,
614,1417,0,,,,,,,,,,,,,,,,,1680,0,,,,,,,,,,
615,1419,0,,,,,,,,,,,,,,,,,1680,0,,,,,,,,,,
616,1421,0,,,,,,,,,,,,,,,,,1680,0,,,,,,,,,,
617,1423,0,3.73,3.84,4.05,3.99,4.94,0.29,0.31,3.6,,-0.03,0.03,1.02,0.0,-2.0,0.0,0.04,1680,0,,,,,,,,1.0483354330062866,1.669264793395996,1.6682346615226606e-09
618,1425,0,,,,,,,,,,,,,,,,,1680,0,,,,,,,,,,
619,1427,0,,,,,,,,,,,,,,,,,1680,0,,,,,,,,,,
620,1429,0,,,,,,,,,,,,,,,,,1620,0,,,,,,,,,,
621,1431,0,,,,,,,,,,,,,,,,,1620,0,,,,,,,,,,
622,1433,0,3.71,3.82,4.02,3.97,4.9,0.26,0.31,3.58,,-0.04,0.02,0.99,0.0,2.0,0.0,0.05,1620,0,,,,,,,,1.0549290180206299,1.7281681299209595,-1.6682852876925836e-09
623,1435,0,,,,,,,,,,,,,,,,,1620,0,,,,,,,,,,
624,1437,0,,,,,,,,,,,,,,,,,1620,0,,,,,,,,,,
625,1439,0,,,,,,,,,,,,,,,,,1620,0,,,,,,,,,,
626,1441,0,,,,,,,,,,,,,,,,,1620,0,,,,,,,,,,
627,1443,0,3.68,3.79,3.99,3.93,4.87,0.28,0.31,3.56,,-0.04,0.01,0.95,0.0,0.0,0.0,0.04,1620,0,0.0,0.0,0.0,0.0,0.0,0.0,0.0,1.0277851819992065,1.7692021131515503,1.6683219250523962e-09
628,1445,0,,,,,,,,,,,,,,,,,1620,0,,,,,,,,,,
629,1447,0,,,,,,,,,,,,,,,,,1620,0,,,,,,,,,,
630,1449,0,,,,,,,,,,,,,,,,,1620,0,,,,,,,,,,
631,1451,0,,,,,,,,,,,,,,,,,1620,0,,,,,,,,,,
632,1453,0,3.72,3.83,4.03,3.98,4.92,0.3,0.37,3.6,,-0.0,0.03,1.06,0.0,-1.0,0.0,0.03,1620,0,,,,,,,,1.0632668733596802,1.6534572839736938,-1.6682211168017602e-09
633,1455,0,,,,,,,,,,,,,,,,,1620,0,,,,,,,,,,
634,1457,0,,,,,,,,,,,,,,,,,1620,0,,,,,,,,,,
635,1459,0,,,,,,,,,,,,,,,,,1620,0,,,,,,,,,,
636,1461,0,,,,,,,,,,,,,,,,,1620,0,,,,,,,,,,
637,1463,0,3.7,3.81,4.01,3.96,4.89,0.27,0.33,3.57,,0.01,0.01,0.97,0.0,1.0,1.0,0.02,1620,0,,,,,,,,1.0354372262954712,1.5298618078231812,0.0
638,1465,0,,,,,,,,,,,,,,,,,1680,0,,,,,,,,,,
639,1467,0,,,,,,,,,,,,,,,,,1680,0,,,,,,,,,,
640,1469,0,,,,,,,,,,,,,,,,,1680,0,,,,,,,,,,
641,1471,0,,,,,,,,,,,,,,,,,1680,0,,,,,,,,,,
642,1473,0,3.72,3.83,4.04,3.97,4.92,0.29,0.33,3.59,,-0.06,0.02,1.01,0.0,-3.0,0.0,0.07,1680,0,,,,,,,,1.0412694215774536,1.6104097366333008,1.6681854786426698e-09
643,1475,0,,,,,,,,,,,,,,,,,1680,0,,,,,,,,,,
644,1477,0,,,,,,,,,,,,,,,,,1680,0,,,,,,,,,,
645,1479,0,,,,,,,,,,,,,,,,,1680,0,,,,,,,,,,
646,1481,0,,,,,,,,,,,,,,,,,1680,0,,,,,,,,,,
647,1483,0,3.7,3.8,4.02,3.97,4.91,0.3,0.37,3.57,,-0.02,0.03,0.93,0.0,2.0,1.0,0.04,1680,0,0.0,0.0,0.0,0.0,0.0,0.0,0.0,1.0890064239501953,1.6079274415969849,-1.6681835912635279e-09
648,1485,0,,,,,,,,,,,,,,,,,1680,0,,,,,,,,,,
649,1487,0,,,,,,,,,,,,,,,,,1680,0,,,,,,,,,,
650,1489,0,,,,,,,,,,,,,,,,,1680,0,,,,,,,,,,
651,1491,0,,,,,,,,,,,,,,,,,1680,0,,,,,,,,,,
652,1493,0,3.73,3.84,4.05,3.99,4.93,0.3,0.37,3.6,,-0.01,0.03,1.04,0.0,-1.0,0.0,0.03,1680,0,,,,,,,,1.1219730377197266,1.5360702276229858,0.0
653,1495,0,,,,,,,,,,,,,,,,,1680,0,,,,,,,,,,
654,1497,0,,,,,,,,,,,,,,,,,1680,0,,,,,,,,,,
655,1499,0,,,,,,,,,,,,,,,,,1680,0,,,,,,,,,,
656,1501,0,,,,,,,,,,,,,,,,,1620,0,,,,,,,,,,
657,1503,0,3.73,3.84,4.04,3.99,4.94,0.29,0.39,3.6,,-0.03,0.01,0.98,0.0,2.0,0.0,0.03,1620,0,,,,,,,,1.0907137393951416,1.5687135457992554,0.0
658,1505,0,,,,,,,,,,,,,,,,,1620,0,,,,,,,,,,
659,1507,0,,,,,,,,,,,,,,,,,1620,0,,,,,,,,,,
660,1509,0,,,,,,,,,,,,,,,,,1620,0,,,,,,,,,,
661,1511,0,,,,,,,,,,,,,,,,,1620,0,,,,,,,,,,
662,1513,0,3.71,3.82,4.02,3.97,4.93,0.31,0.37,3.57,,-0.05,0.01,0.95,0.0,-1.0,0.0,0.05,1620,0,,,,,,,,1.0625109672546387,1.6422876119613647,1.6682117909283534e-09
663,1515,0,,,,,,,,,,,,,,,,,1620,0,,,,,,,,,,
664,1517,0,,,,,,,,,,,,,,,,,1620,0,,,,,,,,,,
665,1519,0,,,,,,,,,,,,,,,,,1620,0,,,,,,,,,,
666,1521,0,,,,,,,,,,,,,,,,,1620,0,,,,,,,,,,
667,1523,0,3.68,3.79,3.98,3.92,4.87,0.29,0.32,3.54,,-0.02,0.01,1.04,0.0,0.0,0.0,0.02,1620,0,0.0,0.0,0.0,0.0,0.0,0.0,0.0,1.0330537557601929,1.6111693382263184,0.0
668,1525,0,,,,,,,,,,,,,,,,,1620,0,,,,,,,,,,
669,1527,0,,,,,,,,,,,,,,,,,1620,0,,,,,,,,,,
670,1529,0,,,,,,,,,,,,,,,,,1620,0,,,,,,,,,,
671,1531,0,,,,,,,,,,,,,,,,,1620,0,,,,,,,,,,
672,1533,0,3.73,3.84,4.04,3.99,4.93,0.3,0.34,3.59,,-0.0,0.0,0.97,0.0,0.0,0.0,0.0,1620,0,,,,,,,,0.9738941192626953,1.5189563035964966,0.0
673,1535,0,,,,,,,,,,,,,,,,,1620,0,,,,,,,,,,
674,1537,0,,,,,,,,,,,,,,,,,1680,0,,,,,,,,,,
675,1539,0,,,,,,,,,,,,,,,,,1680,0,,,,,,,,,,
676,1541,0,,,,,,,,,,,,,,,,,1680,0,,,,,,,,,,
677,1543,0,3.73,3.84,4.04,3.98,4.93,0.3,0.3,3.59,,-0.06,0.01,1.04,0.0,0.0,0.0,0.06,1680,0,,,,,,,,0.9498425722122192,1.6204403638839722,0.0
678,1545,0,,,,,,,,,,,,,,,,,1680,0,,,,,,,,,,
679,1547,0,,,,,,,,,,,,,,,,,1680,0,,,,,,,,,,
680,1549,0,,,,,,,,,,,,,,,,,1680,0,,,,,,,,,,
681,1551,0,,,,,,,,,,,,,,,,,1680,0,,,,,,,,,,
682,1553,0,3.68,3.8,4.0,3.94,4.88,0.3,0.32,3.53,,-0.04,0.02,0.91,0.0,0.0,0.0,0.04,1680,0,,,,,,,,0.967339038848877,1.6711581945419312,0.0
683,1555,0,,,,,,,,,,,,,,,,,1680,0,,,,,,,,,,
684,1557,0,,,,,,,,,,,,,,,,,1680,0,,,,,,,,,,
685,1559,0,,,,,,,,,,,,,,,,,1680,0,,,,,,,,,,
686,1561,0,,,,,,,,,,,,,,,,,1680,0,,,,,,,,,,
687,1563,0,3.72,3.83,4.03,3.98,4.91,0.3,0.33,3.56,,-0.01,0.02,1.06,0.0,-1.0,0.0,0.02,1680,0,0.0,0.0,0.0,0.0,0.0,0.0,0.0,0.9737311601638794,1.5975029468536377,0.0
688,1565,0,,,,,,,,,,,,,,,,,1680,0,,,,,,,,,,
689,1567,0,,,,,,,,,,,,,,,,,1680,0,,,,,,,,,,
690,1569,0,,,,,,,,,,,,,,,,,1680,0,,,,,,,,,,
691,1571,0,,,,,,,,,,,,,,,,,1680,0,,,,,,,,,,
692,1573,0,3.73,3.84,4.04,3.99,4.94,0.31,0.33,3.58,,-0.04,0.01,0.96,0.0,2.0,0.0,0.04,1620,0,,,,,,,,0.9526493549346924,1.6616328954696655,0.0
693,1575,0,,,,,,,,,,,,,,,,,1620,0,,,,,,,,,,
694,1577,0,,,,,,,,,,,,,,,,,1620,0,,,,,,,,,,
695,1579,0,,,,,,,,,,,,,,,,,1620,0,,,,,,,,,,
696,1581,0,,,,,,,,,,,,,,,,,1620,0,,,,,,,,,,
697,1583,0,3.69,3.8,4.0,3.95,4.91,0.29,0.3,3.54,,-0.05,0.0,0.98,0.0,-1.0,0.0,0.05,1620,0,,,,,,,,0.8996610641479492,1.7217296361923218,0.0
698,1585,0,,,,,,,,,,,,,,,,,1620,0,,,,,,,,,,
699,1587,0,,,,,,,,,,,,,,,,,1620,0,,,,,,,,,,
700,1589,0,,,,,,,,,,,,,,,,,1620,0,,,,,,,,,,
701,1591,0,,,,,,,,,,,,,,,,,1620,0,,,,,,,,,,
702,1593,0,3.72,3.83,4.02,3.97,4.91,0.32,0.34,3.57,,-0.03,0.0,1.02,0.0,1.0,0.0,0.03,1620,0,,,,,,,,0.8498705625534058,1.729689121246338,0.0
703,1595,0,,,,,,,,,,,,,,,,,1620,0,,,,,,,,,,
704,1597,0,,,,,,,,,,,,,,,,,1620,0,,,,,,,,,,
705,1599,0,,,,,,,,,,,,,,,,,1620,0,,,,,,,,,,
706,1601,0,,,,,,,,,,,,,,,,,1620,0,,,,,,,,,,
707,1603,0,3.7,3.8,4.0,3.93,4.91,0.31,0.33,3.56,,0.0,0.01,0.98,0.0,-1.0,0.0,0.01,1620,0,0.0,0.0,0.0,0.0,0.0,0.0,0.0,0.8352634310722351,1.6245155334472656,0.0
708,1605,0,,,,,,,,,,,,,,,,,1620,0,,,,,,,,,,
709,1607,0,,,,,,,,,,,,,,,,,1620,0,,,,,,,,,,
710,1609,0,,,,,,,,,,,,,,,,,1680,0,,,,,,,,,,
711,1611,0,,,,,,,,,,,,,,,,,1680,0,,,,,,,,,,
712,1613,0,3.66,3.77,4.02,3.96,4.89,0.31,0.3,3.53,,-0.06,0.0,1.04,0.0,2.0,0.0,0.06,1680,0,,,,,,,,0.7896258234977722,1.7362878322601318,0.0
713,1615,0,,,,,,,,,,,,,,,,,1680,0,,,,,,,,,,
714,1617,0,,,,,,,,,,,,,,,,,1680,0,,,,,,,,,,
715,1619,0,,,,,,,,,,,,,,,,,1680,0,,,,,,,,,,
716,1621,0,,,,,,,,,,,,,,,,,1680,0,,,,,,,,,,
717,1623,0,3.73,3.84,4.04,3.99,4.93,0.31,0.38,3.58,,-0.03,0.02,0.91,0.0,0.0,0.0,0.04,1680,0,,,,,,,,0.8151598572731018,1.7445297241210938,-8.341499158071031e-10
718,1625,0,,,,,,,,,,,,,,,,,1680,0,,,,,,,,,,
719,1627,0,,,,,,,,,,,,,,,,,1680,0,,,,,,,,,,
720,1629,0,,,,,,,,,,,,,,,,,1680,0,,,,,,,,,,
721,1631,0,,,,,,,,,,,,,,,,,1680,0,,,,,,,,,,
722,1633,0,3.73,3.84,4.04,3.99,4.94,0.33,0.4,3.58,,0.0,0.03,1.05,0.0,0.0,0.0,0.03,1680,0,,,,,,,,0.8596015572547913,1.6502033472061157,-8.341091706220993e-10
723,1635,0,,,,,,,,,,,,,,,,,1680,0,,,,,,,,,,
724,1637,0,,,,,,,,,,,,,,,,,1680,0,,,,,,,,,,
725,1639,0,,,,,,,,,,,,,,,,,1680,0,,,,,,,,,,
726,1641,0,,,,,,,,,,,,,,,,,1680,0,,,,,,,,,,
727,1643,0,3.68,3.79,3.99,3.93,4.9,0.28,0.31,3.54,,-0.03,0.01,0.96,0.0,0.0,0.0,0.03,1680,0,0.0,0.0,0.0,0.0,0.0,0.0,0.0,0.8454731702804565,1.6577106714248657,-1.668224669515439e-09
728,1645,0,,,,,,,,,,,,,,,,,1620,0,,,,,,,,,,
729,1647,0,,,,,,,,,,,,,,,,,1620,0,,,,,,,,,,
730,1649,0,,,,,,,,,,,,,,,,,1620,0,,,,,,,,,,
731,1651,0,,,,,,,,,,,,,,,,,1620,0,,,,,,,,,,
732,1653,0,3.69,3.8,4.0,3.94,4.88,0.27,0.29,3.54,,-0.04,-0.0,1.0,0.0,0.0,0.0,0.04,1620,0,,,,,,,,0.8003007173538208,1.6915475130081177,0.0
733,1655,0,,,,,,,,,,,,,,,,,1620,0,,,,,,,,,,
734,1657,0,,,,,,,,,,,,,,,,,1620,0,,,,,,,,,,
735,1659,0,,,,,,,,,,,,,,,,,1620,0,,,,,,,,,,
736,1661,0,,,,,,,,,,,,,,,,,1620,0,,,,,,,,,,
737,1663,0,3.73,3.84,4.04,3.99,4.93,0.33,0.34,3.57,,-0.02,0.0,1.0,0.0,1.0,0.0,0.02,1620,0,,,,,,,,0.7577740550041199,1.672555923461914,0.0
738,1665,0,,,,,,,,,,,,,,,,,1620,0,,,,,,,,,,
739,1667,0,,,,,,,,,,,,,,,,,1620,0,,,,,,,,,,
740,1669,0,,,,,,,,,,,,,,,,,1620,0,,,,,,,,,,
741,1671,0,,,,,,,,,,,,,,,,,1620,0,,,,,,,,,,
742,1673,0,3.73,3.84,4.04,3.97,4.93,0.3,0.31,3.56,,0.01,0.02,1.01,0.0,-1.0,-1.0,0.02,1620,0,,,,,,,,0.7773889303207397,1.544429063796997,1.6681324099820927e-09
743,1675,0,,,,,,,,,,,,,,,,,1620,0,,,,,,,,,,
744,1677,0,,,,,,,,,,,,,,,,,1620,0,,,,,,,,,,
745,1679,0,,,,,,,,,,,,,,,,,1620,0,,,,,,,,,,
746,1681,0,,,,,,,,,,,,,,,,,1680,0,,,,,,,,,,
747,1683,0,3.72,3.83,4.01,3.96,4.92,0.31,0.31,3.55,,-0.03,0.01,1.03,0.0,2.0,-1.0,0.03,1680,0,0.0,0.0,0.0,0.0,0.0,0.0,0.0,0.7655152082443237,1.5710632801055908,1.6681535042195605e-09
748,1685,0,,,,,,,,,,,,,,,,,1680,0,,,,,,,,,,
749,1687,0,,,,,,,,,,,,,,,,,1680,0,,,,,,,,,,
750,1689,0,,,,,,,,,,,,,,,,,1680,0,,,,,,,,,,
751,1691,0,,,,,,,,,,,,,,,,,1680,0,,,,,,,,,,
752,1693,0,3.7,3.79,3.99,3.93,4.89,0.29,0.33,3.53,,-0.04,0.03,0.94,0.0,-2.0,0.0,0.05,1680,0,,,,,,,,0.8209183216094971,1.596181035041809,8.340869106504556e-10
753,1695,0,,,,,,,,,,,,,,,,,1680,0,,,,,,,,,,
754,1697,0,,,,,,,,,,,,,,,,,1680,0,,,,,,,,,,
755,1699,0,,,,,,,,,,,,,,,,,1680,0,,,,,,,,,,
756,1701,0,,,,,,,,,,,,,,,,,1680,0,,,,,,,,,,
757,1703,0,3.67,3.77,3.98,3.92,4.89,0.29,0.32,3.52,,-0.02,0.04,1.04,0.0,0.0,0.0,0.04,1680,0,,,,,,,,0.8925879597663879,1.5705152750015259,0.0
758,1705,0,,,,,,,,,,,,,,,,,1680,0,,,,,,,,,,
759,1707,0,,,,,,,,,,,,,,,,,1680,0,,,,,,,,,,
760,1709,0,,,,,,,,,,,,,,,,,1680,0,,,,,,,,,,
761,1711,0,,,,,,,,,,,,,,,,,1680,0,,,,,,,,,,
762,1713,0,3.73,3.84,4.04,3.98,4.93,0.29,0.31,3.56,,-0.03,0.02,0.96,0.0,-1.0,0.0,0.04,1680,0,,,,,,,,0.9080936908721924,1.5718077421188354,8.340770851766877e-10
763,1715,0,,,,,,,,,,,,,,,,,1680,0,,,,,,,,,,
764,1717,0,,,,,,,,,,,,,,,,,1620,0,,,,,,,,,,
765,1719,0,,,,,,,,,,,,,,,,,1620,0,,,,,,,,,,
766,1721,0,,,,,,,,,,,,,,,,,1620,0,,,,,,,,,,
767,1723,0,3.73,3.84,4.04,3.99,4.93,0.29,0.31,3.56,,-0.05,0.02,1.02,0.0,0.0,0.0,0.05,1620,0,0.0,0.0,0.0,0.0,0.0,0.0,0.0,0.9191105365753174,1.6350260972976685,0.0
768,1725,0,,,,,,,,,,,,,,,,,1620,0,,,,,,,,,,
769,1727,0,,,,,,,,,,,,,,,,,1620,0,,,,,,,,,,
770,1729,0,,,,,,,,,,,,,,,,,1620,0,,,,,,,,,,
771,1731,0,,,,,,,,,,,,,,,,,1620,0,,,,,,,,,,
772,1733,0,3.74,3.84,4.05,3.99,4.94,0.33,0.33,3.55,,-0.03,0.01,0.98,0.0,1.0,0.0,0.03,1620,0,,,,,,,,0.902085542678833,1.6510491371154785,0.0
773,1735,0,,,,,,,,,,,,,,,,,1620,0,,,,,,,,,,
774,1737,0,,,,,,,,,,,,,,,,,1620,0,,,,,,,,,,
775,1739,0,,,,,,,,,,,,,,,,,1620,0,,,,,,,,,,
776,1741,0,,,,,,,,,,,,,,,,,1620,0,,,,,,,,,,
777,1743,0,3.72,3.83,4.03,3.96,4.92,0.28,0.32,3.54,,-0.01,0.03,1.06,0.0,-2.0,-1.0,0.03,1620,0,,,,,,,,0.9381905794143677,1.5750178098678589,-8.34078361933166e-10
778,1745,0,,,,,,,,,,,,,,,,,1620,0,,,,,,,,,,
779,1747,0,,,,,,,,,,,,,,,,,1620,0,,,,,,,,,,
780,1749,0,,,,,,,,,,,,,,,,,1620,0,,,,,,,,,,
781,1751,0,,,,,,,,,,,,,,,,,1620,0,,,,,,,,,,
782,1753,0,3.71,3.8,4.0,3.95,4.91,0.3,0.3,3.53,,-0.02,0.02,1.03,0.0,2.0,0.0,0.03,1680,0,,,,,,,,0.9469612836837769,1.5717436075210571,-8.340770851766877e-10
783,1755,0,,,,,,,,,,,,,,,,,1680,0,,,,,,,,,,
784,1757,0,,,,,,,,,,,,,,,,,1680,0,,,,,,,,,,
785,1759,0,,,,,,,,,,,,,,,,,1680,0,,,,,,,,,,
786,1761,0,,,,,,,,,,,,,,,,,1680,0,,,,,,,,,,
787,1763,0,3.69,3.8,4.0,3.94,4.88,0.28,0.3,3.49,,-0.05,0.04,0.98,0.0,-3.0,0.0,0.06,1680,0,0.0,0.0,0.0,0.0,0.0,0.0,0.0,1.0163486003875732,1.609046220779419,0.0
788,1765,0,,,,,,,,,,,,,,,,,1680,0,,,,,,,,,,
789,1767,0,,,,,,,,,,,,,,,,,1680,0,,,,,,,,,,
790,1769,0,,,,,,,,,,,,,,,,,1680,0,,,,,,,,,,
791,1771,0,,,,,,,,,,,,,,,,,1680,0,,,,,,,,,,
792,1773,0,3.73,3.83,4.04,3.98,4.92,0.32,0.34,3.52,,-0.02,0.04,1.02,0.0,1.0,0.0,0.05,1680,0,,,,,,,,1.0774000883102417,1.5949021577835083,0.0
793,1775,0,,,,,,,,,,,,,,,,,1680,0,,,,,,,,,,
794,1777,0,,,,,,,,,,,,,,,,,1680,0,,,,,,,,,,
795,1779,0,,,,,,,,,,,,,,,,,1680,0,,,,,,,,,,
796,1781,0,,,,,,,,,,,,,,,,,1680,0,,,,,,,,,,
797,1783,0,3.73,3.84,4.04,3.99,4.93,0.3,0.33,3.52,,-0.03,0.03,0.99,0.0,-1.0,0.0,0.05,1680,0,,,,,,,,1.1098681688308716,1.5918159484863281,1.6681703796095348e-09
798,1785,0,,,,,,,,,,,,,,,,,1680,0,,,,,,,,,,
799,1787,0,,,,,,,,,,,,,,,,,1680,0,,,,,,,,,,
800,1789,0,,,,,,,,,,,,,,,,,1620,0,,,,,,,,,,
801,1791,0,,,,,,,,,,,,,,,,,1620,0,,,,,,,,,,
802,1793,0,3.69,3.79,4.0,3.94,4.9,0.26,0.33,3.47,,-0.04,0.02,1.02,0.0,1.0,0.0,0.05,1620,0,,,,,,,,1.1105318069458008,1.6338454484939575,-1.6682047965232982e-09
803,1795,0,,,,,,,,,,,,,,,,,1620,0,,,,,,,,,,
804,1797,0,,,,,,,,,,,,,,,,,1620,0,,,,,,,,,,
805,1799,0,,,,,,,,,,,,,,,,,1620,0,,,,,,,,,,
806,1801,0,,,,,,,,,,,,,,,,,1620,0,,,,,,,,,,
807,1803,0,3.73,3.84,4.04,3.98,4.94,0.34,0.4,3.51,,-0.03,0.0,0.95,0.0,0.0,0.0,0.03,1620,0,0.0,0.0,0.0,0.0,0.0,0.0,0.0,1.0564570426940918,1.6423768997192383,1.6682120129729583e-09
808,1805,0,,,,,,,,,,,,,,,,,1620,0,,,,,,,,,,
809,1807,0,,,,,,,,,,,,,,,,,1620,0,,,,,,,,,,
810,1809,0,,,,,,,,,,,,,,,,,1620,0,,,,,,,,,,
811,1811,0,,,,,,,,,,,,,,,,,1620,0,,,,,,,,,,
812,1813,0,3.73,3.84,4.04,3.99,4.94,0.31,0.44,3.5,,-0.01,0.02,1.07,0.0,-1.0,0.0,0.02,1620,0,,,,,,,,1.0571472644805908,1.5788213014602661,0.0
813,1815,0,,,,,,,,,,,,,,,,,1620,0,,,,,,,,,,
814,1817,0,,,,,,,,,,,,,,,,,1620,0,,,,,,,,,,
815,1819,0,,,,,,,,,,,,,,,,,1620,0,,,,,,,,,,
816,1821,0,,,,,,,,,,,,,,,,,1620,0,,,,,,,,,,
817,1823,0,3.72,3.83,4.03,3.98,4.92,0.31,0.39,3.48,,0.01,0.0,0.99,0.0,1.0,0.0,0.01,1620,0,,,,,,,,1.0063271522521973,1.4851505756378174,8.340433899078903e-10
818,1825,0,,,,,,,,,,,,,,,,,1680,0,,,,,,,,,,
819,1827,0,,,,,,,,,,,,,,,,,1680,0,,,,,,,,,,
820,1829,0,,,,,,,,,,,,,,,,,1680,0,,,,,,,,,,
821,1831,0,,,,,,,,,,,,,,,,,1680,0,,,,,,,,,,
822,1833,0,3.69,3.8,4.0,3.94,4.9,0.3,0.36,3.46,,-0.06,0.02,1.02,0.0,-3.0,0.0,0.07,1680,0,,,,,,,,1.01189124584198,1.544940710067749,-1.6681328540713025e-09
823,1835,0,,,,,,,,,,,,,,,,,1680,0,,,,,,,,,,
824,1837,0,,,,,,,,,,,,,,,,,1680,0,,,,,,,,,,
825,1839,0,,,,,,,,,,,,,,,,,1680,0,,,,,,,,,,
826,1841,0,,,,,,,,,,,,,,,,,1680,0,,,,,,,,,,
827,1843,0,3.73,3.84,4.04,3.99,4.93,0.34,0.39,3.47,,-0.02,0.02,0.96,0.0,1.0,0.0,0.03,1680,0,0.0,0.0,0.0,0.0,0.0,0.0,0.0,1.0205110311508179,1.5382567644119263,0.0
828,1845,0,,,,,,,,,,,,,,,,,1680,0,,,,,,,,,,
829,1847,0,,,,,,,,,,,,,,,,,1680,0,,,,,,,,,,
830,1849,0,,,,,,,,,,,,,,,,,1680,0,,,,,,,,,,
831,1851,0,,,,,,,,,,,,,,,,,1680,0,,,,,,,,,,
832,1853,0,3.69,3.8,4.0,3.95,4.9,0.3,0.33,3.43,,-0.02,0.02,1.03,0.0,-1.0,0.0,0.03,1680,0,,,,,,,,1.0248364210128784,1.5081839561462402,0.0
833,1855,0,,,,,,,,,,,,,,,,,1680,0,,,,,,,,,,
834,1857,0,,,,,,,,,,,,,,,,,1680,0,,,,,,,,,,
835,1859,0,,,,,,,,,,,,,,,,,1620,0,,,,,,,,,,
836,1861,0,,,,,,,,,,,,,,,,,1620,0,,,,,,,,,,
837,1863,0,3.73,3.84,4.04,3.99,4.93,0.32,0.4,3.46,,-0.03,0.02,0.99,0.0,2.0,0.0,0.04,1620,0,,,,,,,,1.031045913696289,1.5388119220733643,8.340640400561483e-10
838,1865,0,,,,,,,,,,,,,,,,,1620,0,,,,,,,,,,
839,1867,0,,,,,,,,,,,,,,,,,1620,0,,,,,,,,,,
840,1869,0,,,,,,,,,,,,,,,,,1620,0,,,,,,,,,,
841,1871,0,,,,,,,,,,,,,,,,,1620,0,,,,,,,,,,
842,1873,0,3.69,3.8,3.99,3.95,4.89,0.32,0.4,3.42,,-0.04,-0.0,0.94,0.0,-1.0,0.0,0.04,1620,0,,,,,,,,0.9831427335739136,1.5705572366714478,0.0
843,1875,0,,,,,,,,,,,,,,,,,1620,0,,,,,,,,,,
844,1877,0,,,,,,,,,,,,,,,,,1620,0,,,,,,,,,,
845,1879,0,,,,,,,,,,,,,,,,,1620,0,,,,,,,,,,
846,1881,0,,,,,,,,,,,,,,,,,1620,0,,,,,,,,,,
847,1883,0,3.73,3.84,4.04,3.99,4.94,0.32,0.42,3.45,,-0.01,0.02,1.06,0.0,0.0,0.0,0.02,1620,0,0.0,0.0,0.0,0.0,0.0,0.0,0.0,0.9876582026481628,1.5230015516281128,-8.340578783183616e-10
848,1885,0,,,,,,,,,,,,,,,,,1620,0,,,,,,,,,,
849,1887,0,,,,,,,,,,,,,,,,,1620,0,,,,,,,,,,
850,1889,0,,,,,,,,,,,,,,,,,1620,0,,,,,,,,,,
851,1891,0,,,,,,,,,,,,,,,,,1620,0,,,,,,,,,,
852,1893,0,3.73,3.84,4.04,3.99,4.93,0.33,0.39,3.44,,0.01,0.01,0.96,0.0,0.0,0.0,0.02,1620,0,,,,,,,,0.9697335362434387,1.4258339405059814,0.0
853,1895,0,,,,,,,,,,,,,,,,,1680,0,,,,,,,,,,
854,1897,0,,,,,,,,,,,,,,,,,1680,0,,,,,,,,,,
855,1899,0,,,,,,,,,,,,,,,,,1680,0,,,,,,,,,,
856,1901,0,,,,,,,,,,,,,,,,,1680,0,,,,,,,,,,
857,1903,0,3.68,3.78,3.98,3.92,4.88,0.3,0.36,3.39,,-0.06,0.01,1.03,0.0,-1.0,0.0,0.06,1680,0,,,,,,,,0.9509276151657104,1.5026917457580566,8.34050051246038e-10
858,1905,0,,,,,,,,,,,,,,,,,1680,0,,,,,,,,,,
859,1907,0,,,,,,,,,,,,,,,,,1680,0,,,,,,,,,,
860,1909,0,,,,,,,,,,,,,,,,,1680,0,,,,,,,,,,
861,1911,0,,,,,,,,,,,,,,,,,1680,0,,,,,,,,,,
862,1913,0,3.73,3.84,4.04,3.99,4.94,0.33,0.42,3.43,,-0.03,0.01,0.93,0.0,1.0,0.0,0.03,1680,0,,,,,,,,0.9357931613922119,1.5282827615737915,8.340599877421084e-10
863,1915,0,,,,,,,,,,,,,,,,,1680,0,,,,,,,,,,
864,1917,0,,,,,,,,,,,,,,,,,1680,0,,,,,,,,,,
865,1919,0,,,,,,,,,,,,,,,,,1680,0,,,,,,,,,,
866,1921,0,,,,,,,,,,,,,,,,,1680,0,,,,,,,,,,
867,1923,0,3.72,3.83,4.03,3.98,4.93,0.34,0.39,3.4,,-0.01,0.02,1.06,0.0,-1.0,0.0,0.02,1680,0,0.0,0.0,0.0,0.0,0.0,0.0,0.0,0.9423070549964905,1.4739313125610352,0.0
868,1925,0,,,,,,,,,,,,,,,,,1680,0,,,,,,,,,,
869,1927,0,,,,,,,,,,,,,,,,,1680,0,,,,,,,,,,
870,1929,0,,,,,,,,,,,,,,,,,1680,0,,,,,,,,,,
871,1931,0,,,,,,,,,,,,,,,,,1620,0,,,,,,,,,,
872,1933,0,3.71,3.82,4.02,3.96,4.9,0.31,0.41,3.38,,-0.02,0.01,0.98,0.0,2.0,0.0,0.02,1620,0,,,,,,,,0.9263672828674316,1.4803385734558105,-8.340415580398997e-10
873,1935,0,,,,,,,,,,,,,,,,,1620,0,,,,,,,,,,
874,1937,0,,,,,,,,,,,,,,,,,1620,0,,,,,,,,,,
875,1939,0,,,,,,,,,,,,,,,,,1620,0,,,,,,,,,,
876,1941,0,,,,,,,,,,,,,,,,,1620,0,,,,,,,,,,
877,1943,0,3.73,3.84,4.04,3.97,4.93,0.33,0.42,3.4,,-0.04,-0.0,0.96,0.0,-2.0,0.0,0.04,1620,0,,,,,,,,0.8853752613067627,1.500435709953308,0.0
878,1945,0,,,,,,,,,,,,,,,,,1620,0,,,,,,,,,,
879,1947,0,,,,,,,,,,,,,,,,,1620,0,,,,,,,,,,
880,1949,0,,,,,,,,,,,,,,,,,1620,0,,,,,,,,,,
881,1951,0,,,,,,,,,,,,,,,,,1620,0,,,,,,,,,,
882,1953,0,3.73,3.84,4.04,3.99,4.94,0.34,0.44,3.39,,-0.02,0.01,1.03,0.0,1.0,0.0,0.02,1620,0,,,,,,,,0.8709122538566589,1.4933792352676392,0.0
883,1955,0,,,,,,,,,,,,,,,,,1620,0,,,,,,,,,,
884,1957,0,,,,,,,,,,,,,,,,,1620,0,,,,,,,,,,
885,1959,0,,,,,,,,,,,,,,,,,1620,0,,,,,,,,,,
886,1961,0,,,,,,,,,,,,,,,,,1620,0,,,,,,,,,,
887,1963,0,3.73,3.84,4.04,3.99,4.93,0.34,0.42,3.37,,0.02,-0.0,0.97,0.0,-1.0,0.0,0.02,1620,0,0.0,0.0,0.0,0.0,0.0,0.0,0.0,0.8329065442085266,1.366729974746704,8.340005352991398e-10
888,1965,0,,,,,,,,,,,,,,,,,1620,0,,,,,,,,,,
889,1967,0,,,,,,,,,,,,,,,,,1680,0,,,,,,,,,,
890,1969,0,,,,,,,,,,,,,,,,,1680,0,,,,,,,,,,
891,1971,0,,,,,,,,,,,,,,,,,1680,0,,,,,,,,,,
892,1973,0,3.73,3.84,4.05,3.99,4.94,0.34,0.41,3.36,,-0.05,-0.0,1.04,0.0,1.0,0.0,0.05,1680,0,,,,,,,,0.7968630790710449,1.4367551803588867,0.0
893,1975,0,,,,,,,,,,,,,,,,,1680,0,,,,,,,,,,
894,1977,0,,,,,,,,,,,,,,,,,1680,0,,,,,,,,,,
895,1979,0,,,,,,,,,,,,,,,,,1680,0,,,,,,,,,,
896,1981,0,,,,,,,,,,,,,,,,,1680,0,,,,,,,,,,
897,1983,0,3.73,3.84,4.04,3.99,4.94,0.35,0.43,3.34,,-0.03,0.01,0.91,0.0,0.0,0.0,0.03,1680,0,,,,,,,,0.7896724343299866,1.4561618566513062,8.340326207445514e-10
898,1985,0,,,,,,,,,,,,,,,,,1680,0,,,,,,,,,,
899,1987,0,,,,,,,,,,,,,,,,,1680,0,,,,,,,,,,
900,1989,0,,,,,,,,,,,,,,,,,1680,0,,,,,,,,,,
901,1991,0,,,,,,,,,,,,,,,,,1680,0,,,,,,,,,,
