"Interval|""ms""|0|0|1","Utc|""ms""|0|0|1","Analog1|""""|0|5|100","Analog2|""""|0|5|50","Battery|""Volts""|0.0|20.0|1","AccelX|""G""|-3.0|3.0|50","AccelY|""G""|-3.0|3.0|50","AccelZ|""G""|-3.0|3.0|50","Yaw|""Deg/Sec""|-120|120|50","Pitch|""Deg/Sec""|-120|120|50","Roll|""Deg/Sec""|-120|120|50","Gsum|""G""|0.0|3.0|50","RPM1|""rpm""|0.0|1000000.0|1000","Latitude|""Degrees""|-180.0|180.0|25","Longitude|""Degrees""|-180.0|180.0|25","Speed|""mph""|0.0|150.0|25","Altitude|""ft""|0.0|4000.0|25"
2527883,1.70215E+12,0,0,,-0.19,0,0.72,-3,-3,-16,0.19,5,39.674294,-77.417427,10.82,1100.7
2527923,1.70215E+12,0,0,,-0.01,-0.45,0.75,0,-5,7,0.45,5,39.674294,-77.417427,10.83,1100.7
2527963,1.70215E+12,0,0,,0.05,-0.29,0.68,1,-12,25,0.3,5,39.674297,-77.417427,10.92,1100.6
2528003,1.70215E+12,0,0,,0.18,0.33,1.12,4,-14,14,0.38,5,39.674297,-77.417427,10.88,1100.6
2528043,1.70215E+12,0,0,12.83,0.17,0.2,1.62,2,-2,4,0.26,5,39.674301,-77.417427,11.02,1100.5
2528083,1.70215E+12,0,0,,0.29,0.37,1.62,0,10,-14,0.47,5,39.674301,-77.417427,11.38,1100.5
2528203,1.70215E+12,0,0,,0.27,-0.36,0.8,15,-9,7,0.45,5,39.674309,-77.417427,10.26,1100.3
2528243,1.70215E+12,0,1,,0.1,0.01,1.39,17,-4,-1,0.1,5,39.674313,-77.417427,10.79,1100.2
2528283,1.70215E+12,0,0,,0.34,-0.14,1.29,18,10,-10,0.37,5,39.674313,-77.417427,10.76,1100.2
2528323,1.70215E+12,0,0,,0.05,-0.26,0.48,20,10,5,0.27,5,39.674313,-77.417427,10.7,1100.1
2528363,1.70215E+12,0,0,,0.08,-0.2,0.61,21,1,24,0.22,5,39.674313,-77.417427,10.31,1100.1
2528403,1.70215E+12,0,0,,0.01,0.27,1.18,19,-15,5,0.27,5,39.674316,-77.417427,10.54,1100
2528443,1.70215E+12,0,0,,-0.01,0.65,0.76,14,-23,-26,0.65,4,39.674316,-77.417427,10.65,1099.9
2528483,1.70215E+12,0,0,,0.17,-0.1,1.66,12,-19,-7,0.2,4,39.67432,-77.417427,11.11,1099.8
2528523,1.70215E+12,0,0,,0.19,-0.02,1.44,11,-4,16,0.19,4,39.67432,-77.417427,11.38,1099.8
2528563,1.70215E+12,0,0,,-0.07,-0.05,0.95,10,8,9,0.08,4,39.674324,-77.417427,11.03,1099.7
2528603,1.70215E+12,0,0,,0.1,0.06,0.45,9,2,2,0.11,4,39.674328,-77.417419,10.8,1099.6
2528643,1.70215E+12,0,0,,0.18,0.05,0.86,10,-5,-2,0.19,4,39.674328,-77.417419,10.83,1099.5
2528683,1.70215E+12,0,1,,0.19,-0.14,1.17,9,-4,9,0.23,4,39.674332,-77.417419,10.8,1099.5
2528723,1.70215E+12,0,1,,-0.07,-0.02,1.14,5,3,9,0.07,4,39.674332,-77.417419,11.01,1099.4
2528763,1.70215E+12,0,0,,-0.02,0.35,0.82,2,-4,-8,0.35,4,39.674332,-77.417419,10.93,1099.3
2528923,1.70215E+12,0,1,,-0.05,-0.15,1.02,4,24,0,0.16,4,39.674339,-77.417419,10.92,1098.9
2528963,1.70215E+12,5,0,,0,0,0.56,6,26,22,0,4,39.674343,-77.417419,10.55,1098.8
2529003,1.70215E+12,0,0,,0.34,0.68,1.11,0,13,-5,0.76,4,39.674343,-77.417419,10.18,1098.7
2529043,1.70215E+12,0,0,12.92,-0.38,0.13,0.57,-5,0,-14,0.4,4,39.674347,-77.417419,10.33,1098.6
2529083,1.70215E+12,0,0,,-0.7,0.57,0.93,-10,3,-11,0.9,4,39.674347,-77.417419,10.49,1098.6
2529123,1.70215E+12,5,0,,-0.73,0.98,1.09,-17,-7,12,1.22,4,39.674351,-77.417412,11.06,1098.4
2529163,1.70215E+12,5,0,,-0.68,0.91,1.04,-34,-4,12,1.13,4,39.674351,-77.417412,11.27,1098.4
2529203,1.70215E+12,0,0,,-0.44,1.06,1.02,-45,-12,-8,1.14,4,39.674351,-77.417412,11.51,1098.3
2529243,1.70215E+12,0,0,,-0.21,0.68,0.95,-53,-5,5,0.71,4,39.674351,-77.417412,11.41,1098.2
2529283,1.70215E+12,0,0,,-0.02,0.84,0.83,-55,0,26,0.85,4,39.674355,-77.417412,11.33,1098.2
2529323,1.70215E+12,0,0,,-0.16,0.73,1.08,-65,-1,18,0.75,4,39.674358,-77.417412,11.28,1098.2
2529363,1.70215E+12,0,0,,-0.3,0.62,1.02,-71,2,25,0.69,4,39.674358,-77.417412,11.52,1098.1
2529403,1.70215E+12,0,0,,0.09,0.74,0.77,-75,-2,12,0.74,4,39.674362,-77.417412,11.2,1098.1
2529563,1.70215E+12,0,0,,-0.32,0.45,0.43,-81,4,1,0.56,4,39.67437,-77.417412,11.47,1097.9
2529603,1.70215E+12,0,0,,-0.18,0.25,0.31,-73,-4,9,0.31,4,39.67437,-77.417412,11.13,1097.8
2529643,1.70215E+12,5,0,,-0.19,0.41,0.71,-58,-6,25,0.45,4,39.67437,-77.417412,11.62,1097.7
2529683,1.70215E+12,5,0,,-0.7,0.73,0.91,-55,-12,25,1.01,4,39.674374,-77.417412,11.82,1097.7
2529723,1.70215E+12,5,0,,-0.31,1.08,0.82,-54,-17,6,1.12,4,39.674374,-77.417412,12.06,1097.6
2529763,1.70215E+12,5,0,,-0.2,0.93,0.85,-51,-18,1,0.95,4,39.674377,-77.417412,12.12,1097.6
2529803,1.70215E+12,5,0,,-0.28,0.85,0.87,-52,-20,-2,0.9,4,39.674381,-77.417412,12.01,1097.6
2529843,1.70215E+12,5,0,,0.03,0.65,1.04,-60,-17,-5,0.65,4,39.674381,-77.417412,12.31,1097.6
2529883,1.70215E+12,5,0,,0.21,0.66,1.1,-68,2,0,0.69,4,39.674385,-77.417412,12.3,1097.6
2529923,1.70215E+12,5,0,,0.17,0.64,0.52,-69,5,14,0.66,4,39.674385,-77.417419,12.06,1097.5
2529963,1.70215E+12,5,0,,0.27,0.93,0.9,-71,5,29,0.97,4,39.674389,-77.417419,11.47,1097.6
2530003,1.70215E+12,5,0,,-0.02,0.43,0.84,-71,9,18,0.43,4,39.674389,-77.417419,11.7,1097.5
2530043,1.70215E+12,5,0,12.96,-0.26,0.55,0.97,-69,9,2,0.6,4,39.674393,-77.417419,11.17,1097.5
2530163,1.70215E+12,0,0,,0.27,0.27,0.75,-52,-9,-9,0.38,4,39.674393,-77.417427,10.91,1097.5
2530203,1.70215E+12,0,0,,-0.08,0.38,0.76,-45,-13,-2,0.39,4,39.674396,-77.417427,11.17,1097.5
2530243,1.70215E+12,0,0,,-0.22,0.79,1.27,-45,4,27,0.82,4,39.674396,-77.417427,11.19,1097.4
2530283,1.70215E+12,0,0,,-0.33,0.98,1.09,-43,4,27,1.03,4,39.6744,-77.417427,11.22,1097.5
2530323,1.70215E+12,5,0,,-0.47,0.33,0.68,-44,-9,-3,0.58,4,39.6744,-77.417435,10.87,1097.5
2530363,1.70215E+12,5,0,,-0.31,0.17,0.62,-41,-9,-21,0.35,4,39.674404,-77.417435,11.19,1097.4
2530403,1.70215E+12,5,0,,0.1,0.34,0.93,-32,-11,7,0.36,4,39.674404,-77.417435,11.16,1097.5
2530443,1.70215E+12,5,0,,-0.28,0.8,0.96,-38,9,14,0.85,4,39.674404,-77.417435,11.31,1097.4
2530483,1.70215E+12,5,0,,-0.23,0.47,0.69,-40,2,5,0.52,4,39.674408,-77.417442,11.18,1097.4
2530523,1.70215E+12,0,0,,-0.27,0.33,0.85,-41,6,-14,0.43,4,39.674408,-77.417442,11.13,1097.4
2530563,1.70215E+12,0,0,,0.23,-0.1,0.79,-32,0,10,0.25,4,39.674408,-77.417442,10.95,1097.4
2530603,1.70215E+12,0,0,,0.43,1.21,0.96,-22,-12,25,1.28,4,39.674408,-77.41745,10.53,1097.3
2530643,1.70215E+12,0,0,,-0.4,1.47,1.1,-34,-10,11,1.53,4,39.674412,-77.41745,11.08,1097.3
2530683,1.70215E+12,5,0,,-0.22,0.93,0.88,-46,-10,-12,0.95,4,39.674412,-77.41745,11.52,1097.4
2530723,1.70215E+12,5,0,,-0.37,0.44,1.01,-59,4,-2,0.58,4,39.674412,-77.41745,11.21,1097.3
2530843,1.70215E+12,0,0,,0.1,0.97,0.86,-70,-9,4,0.98,4,39.674412,-77.417458,10.5,1097.3
2530883,1.70215E+12,0,0,,-0.05,0.57,0.84,-73,-2,7,0.57,4,39.674412,-77.417458,10.69,1097.3
2530923,1.70215E+12,0,0,,0.48,0.23,0.74,-71,-10,13,0.53,3,39.674412,-77.417458,10.54,1097.3
2530963,1.70215E+12,0,0,,0.43,0.87,1.09,-70,-5,0,0.97,3,39.674412,-77.417465,10.51,1097.3
2531003,1.70215E+12,5,0,,-0.12,0.81,1.26,-75,-3,-6,0.82,3,39.674412,-77.417465,10.65,1097.3
2531043,1.70215E+12,5,0,12.95,-0.66,-0.38,0.62,-65,11,-3,0.76,3,39.674412,-77.417465,10.5,1097.3
2531083,1.70215E+12,5,0,,-0.37,-0.76,0.6,-42,8,-1,0.85,3,39.674412,-77.417473,10.71,1097.3
2531123,1.70215E+12,5,0,,-0.18,-1.08,0.49,-16,-6,-2,1.09,3,39.674412,-77.417473,10.42,1097.3
2531163,1.70215E+12,0,0,,0.12,-0.27,0.71,4,-8,-6,0.3,3,39.674412,-77.417473,10.22,1097.2
2531203,1.70215E+12,0,0,,-0.49,0.03,0.73,12,-12,-12,0.49,3,39.674412,-77.41748,11.02,1097.2
2531243,1.70215E+12,0,0,,-0.3,0.06,0.91,19,-2,-19,0.3,3,39.674412,-77.41748,11.34,1097.3
2531283,1.70215E+12,5,0,,-0.09,-0.71,1.01,26,-8,-22,0.71,3,39.674412,-77.41748,11.8,1097.3
2531323,1.70215E+12,5,0,,0.19,-0.51,1.5,36,0,-15,0.55,3,39.674412,-77.417488,12.06,1097.3
2531483,1.70215E+12,0,0,,-0.31,-0.65,0.84,45,8,-16,0.72,3,39.674412,-77.417496,11.41,1097.4
2531523,1.70215E+12,0,0,,-0.35,-0.2,0.44,45,-3,-11,0.4,3,39.674412,-77.417496,11.78,1097.3
2531563,1.70215E+12,0,0,,-0.07,-0.35,1.15,44,8,-8,0.36,3,39.674412,-77.417496,11.72,1097.3
2531603,1.70215E+12,0,0,,-0.16,-0.29,1.14,44,12,-15,0.33,3,39.674412,-77.417496,12.17,1097.3
2531643,1.70215E+12,5,0,,-0.45,-0.72,0.7,45,2,-3,0.85,3,39.674412,-77.417503,11.99,1097.3
2531683,1.70215E+12,5,0,,-0.15,-0.22,0.54,43,7,0,0.26,3,39.674412,-77.417503,12.27,1097.3
2531723,1.70215E+12,5,0,,0.24,-0.03,0.78,43,5,-2,0.24,3,39.674412,-77.417511,11.81,1097.3
2531763,1.70215E+12,5,0,,0.2,-0.57,1.48,42,1,-5,0.6,3,39.674412,-77.417511,11.98,1097.4
2531803,1.70215E+12,5,0,,0.1,-0.28,0.8,45,6,-9,0.3,3,39.674412,-77.417511,12.12,1097.4
2531843,1.70215E+12,5,0,,0.14,-0.33,0.71,45,-4,4,0.35,3,39.674412,-77.417519,12.28,1097.4
2531883,1.70215E+12,0,0,,-0.58,-0.3,1.43,40,-9,-5,0.65,3,39.674412,-77.417519,12.9,1097.4
2531923,1.70215E+12,0,0,,-0.75,-0.42,1.41,35,3,-14,0.86,3,39.674412,-77.417526,12.66,1097.4
2531963,1.70215E+12,0,0,,-0.21,-0.38,0.74,35,3,-6,0.43,3,39.674412,-77.417526,12.92,1097.4
2532083,1.70215E+12,0,0,,-0.16,-0.47,0.56,42,0,-4,0.49,3,39.674412,-77.417534,12.84,1097.5
2532123,1.70215E+12,0,0,,-0.27,-0.42,0.49,39,-5,7,0.5,3,39.674412,-77.417534,12.66,1097.5
2532163,1.70215E+12,0,0,,-0.6,-0.68,0.38,44,-18,-1,0.9,3,39.674412,-77.417534,12.88,1097.5
2532203,1.70215E+12,0,0,,-0.25,-0.7,1.1,49,-12,-29,0.74,3,39.674416,-77.417534,13.19,1097.5
2532243,1.70215E+12,0,0,,0.15,-1.35,0.88,63,-7,-38,1.36,3,39.674416,-77.417542,13.67,1097.5
2532283,1.70215E+12,0,0,,0.01,-0.98,0.4,72,-13,4,0.98,3,39.674416,-77.417542,13.69,1097.5
2532323,1.70215E+12,0,0,,0.59,-0.46,1.05,77,-13,-2,0.75,3,39.674416,-77.417549,13.48,1097.6
2532363,1.70215E+12,0,0,,0.57,-0.91,0.66,83,-7,-26,1.07,3,39.674419,-77.417549,13.54,1097.6
2532403,1.70215E+12,0,0,,0.33,-0.95,0.49,93,-10,-17,1.01,3,39.674419,-77.417549,13.34,1097.6
2532443,1.70215E+12,0,0,,0.38,-0.69,0.65,98,-9,-4,0.79,3,39.674419,-77.417557,13.67,1097.7
2532483,1.70215E+12,0,0,,0.22,-0.44,0.7,100,-6,9,0.49,3,39.674423,-77.417557,13.41,1097.7
2532523,1.70215E+12,0,0,,-0.06,-0.13,0.61,92,-10,-10,0.14,3,39.674423,-77.417564,12.87,1097.7
2532563,1.70215E+12,0,0,,0.07,-0.54,0.85,86,-15,-11,0.55,3,39.674427,-77.417564,13,1097.7
2532603,1.70215E+12,0,0,,0.37,-0.88,1.06,87,-13,-2,0.95,3,39.674427,-77.417564,13.07,1097.6
2532643,1.70215E+12,0,0,,0.2,-0.64,1,91,-9,-2,0.67,3,39.674427,-77.417572,13.14,1097.6
2532803,1.70215E+12,0,0,,0.2,-1.14,0.9,97,-16,-2,1.16,3,39.674435,-77.417572,11.99,1097.6
2532843,1.70215E+12,0,0,,0.36,-0.7,0.8,100,-13,1,0.79,3,39.674435,-77.417572,11.9,1097.5
2532883,1.70215E+12,0,0,,0.22,-0.48,0.7,100,-4,-20,0.53,3,39.674438,-77.417572,12.58,1097.6
2532923,1.70215E+12,0,0,,0.6,-0.76,0.69,98,-8,-14,0.97,3,39.674438,-77.417572,12.2,1097.5
2532963,1.70215E+12,0,0,,0.34,-1,0.71,100,3,-20,1.05,3,39.674442,-77.417572,12.33,1097.5
2533003,1.70215E+12,0,0,,0.21,-0.52,0.31,95,-9,-5,0.56,3,39.674442,-77.417572,12.51,1097.4
2533043,1.70215E+12,0,0,12.75,0.13,0.08,0.56,84,-6,-5,0.16,3,39.674446,-77.417572,12.18,1097.3
2533083,1.70215E+12,0,0,,0.37,-0.71,0.95,74,-19,-13,0.8,3,39.67445,-77.41758,12.13,1097.2
2533123,1.70215E+12,0,0,,0.37,-0.57,0.95,69,-24,-25,0.68,3,39.67445,-77.41758,12.23,1097.1
2533163,1.70215E+12,0,0,,0.19,-1,1.23,71,-27,-28,1.02,3,39.67445,-77.41758,12.81,1097
2533203,1.70215E+12,0,0,,0.42,-1.43,1.22,81,-26,-28,1.49,3,39.674454,-77.41758,13.04,1096.9
2533243,1.70215E+12,0,0,,0.26,-1.14,1.37,89,-9,-14,1.17,3,39.674454,-77.41758,12.54,1096.9
2533283,1.70215E+12,0,0,,0.31,-0.57,0.88,99,5,-11,0.65,3,39.674458,-77.41758,12.35,1096.8
2533403,1.70215E+12,0,0,,0.24,-0.11,0.66,89,2,-9,0.26,3,39.674465,-77.417572,11.23,1096.6
2533443,1.70215E+12,0,0,,-0.28,-0.63,1.03,69,-12,-20,0.68,3,39.674465,-77.417572,10.83,1096.4
2533483,1.70215E+12,0,0,,-0.48,-0.73,0.97,57,-17,-3,0.88,3,39.674469,-77.417572,10.52,1096.2
2533523,1.70215E+12,0,0,,-0.01,-0.68,1.28,54,-17,3,0.68,3,39.674469,-77.417572,10.87,1096.2
2533563,1.70215E+12,0,0,,0.08,-0.8,1.07,54,-6,9,0.81,3,39.674469,-77.417572,11.65,1096.1
2533603,1.70215E+12,0,0,,0.45,-0.72,1.12,57,7,13,0.85,3,39.674469,-77.417572,10.97,1096
2533643,1.70215E+12,0,0,,0.25,-0.47,0.82,57,11,4,0.54,3,39.674469,-77.417572,10.31,1096
2533683,1.70215E+12,0,0,,-0.09,-0.02,0.71,49,2,2,0.09,3,39.674473,-77.417572,9.82,1095.9
2533723,1.70215E+12,0,0,,-0.75,0.09,0.41,36,-3,-6,0.75,3,39.674473,-77.417572,9.89,1095.8
2533763,1.70215E+12,0,0,,-0.01,-0.03,0.53,22,-16,-4,0.03,3,39.674473,-77.417572,10.77,1095.8
2533803,1.70215E+12,0,0,,-0.03,-0.42,0.54,13,-26,-2,0.42,3,39.674477,-77.417564,11.07,1095.8
2533843,1.70215E+12,0,0,,0.41,-0.59,0.73,12,-27,11,0.72,3,39.674477,-77.417564,11.4,1095.7
2533883,1.70215E+12,0,0,,0.63,-0.85,0.87,16,-26,30,1.06,3,39.674477,-77.417564,12.11,1095.7
2534043,1.70215E+12,5,0,12.91,-0.17,-1.06,0.81,57,1,6,1.07,3,39.67448,-77.417549,11.51,1095.5
2534083,1.70215E+12,5,0,,0.18,-0.33,0.98,62,8,3,0.37,3,39.674484,-77.417549,11.1,1095.5
2534123,1.70215E+12,5,0,,0.33,-0.32,0.85,59,11,-5,0.46,3,39.674484,-77.417549,10.88,1095.5
2534163,1.70215E+12,0,0,,0.51,-0.17,1.23,57,13,-12,0.54,3,39.674484,-77.417542,10.86,1095.4
2534203,1.70215E+12,0,0,,0.05,-0.51,0.83,52,2,-8,0.52,3,39.674484,-77.417542,10.78,1095.4
2534243,1.70215E+12,0,0,,-0.64,-0.32,0.73,44,-9,6,0.71,3,39.674484,-77.417542,11.44,1095.3
2534283,1.70215E+12,0,0,,-0.47,0.24,1.12,37,-4,19,0.53,2,39.674488,-77.417534,11.28,1095.2
2534323,1.70215E+12,5,0,,0.24,-0.21,0.95,32,-3,6,0.32,2,39.674488,-77.417534,11.56,1095.2
2534363,1.70215E+12,5,0,,0.15,-0.38,1,30,0,-1,0.41,2,39.674488,-77.417534,11.73,1095.1
2534403,1.70215E+12,5,0,,-0.51,-0.06,0.3,27,-2,-3,0.52,2,39.674488,-77.417534,11.99,1095.1
2534443,1.70215E+12,5,0,,-0.53,-0.37,0.34,25,-8,-13,0.64,2,39.674488,-77.417534,12.03,1095.1
2534483,1.70215E+12,0,0,,0.13,-0.62,0.83,32,-22,-9,0.63,2,39.674488,-77.417526,12.14,1095
2534523,1.70215E+12,0,0,,0.57,-1.11,1.09,43,-16,-6,1.25,2,39.674488,-77.417526,12.69,1095
2534563,1.70215E+12,0,0,,0.75,-1.2,1.09,63,-13,10,1.42,2,39.674488,-77.417526,13.13,1094.9
2534723,1.70215E+12,0,0,,-0.11,-0.5,0.33,86,-9,-19,0.51,2,39.674488,-77.417511,12.47,1094.8
2534763,1.70215E+12,0,0,,0.38,-0.16,0.92,81,-7,-18,0.41,2,39.674488,-77.417503,12.81,1094.8
2534803,1.70215E+12,0,0,,0.12,-0.81,1.11,76,-18,-16,0.82,2,39.674488,-77.417503,12.4,1094.7
2534843,1.70215E+12,0,0,,0.23,-0.93,1.02,71,-21,-16,0.96,2,39.674488,-77.417503,12.48,1094.6
2534883,1.70215E+12,0,0,,0.44,-0.92,1.21,70,-20,-3,1.02,2,39.674484,-77.417496,12.63,1094.5
2534923,1.70215E+12,0,0,,0.51,-0.84,1.04,73,-9,14,0.98,2,39.674484,-77.417496,12.63,1094.5
2534963,1.70215E+12,0,0,,0.57,-0.69,1.02,74,-1,14,0.89,2,39.674484,-77.417496,12.45,1094.5
2535003,1.70215E+12,0,0,,0.47,-0.27,0.72,78,6,20,0.54,2,39.674484,-77.417496,11.65,1094.5
2535043,1.70215E+12,0,0,12.75,0.07,-0.08,0.6,67,5,5,0.1,2,39.674484,-77.417496,10.9,1094.4
2535083,1.70215E+12,0,0,,0.34,-0.36,0.58,54,-3,-17,0.49,2,39.67448,-77.417488,10.81,1094.4
2535123,1.70215E+12,0,0,,-0.39,-0.85,0.39,40,-23,-10,0.93,2,39.67448,-77.417488,11.31,1094.4
2535163,1.70215E+12,0,0,,-0.09,-0.88,0.97,34,-24,0,0.89,2,39.67448,-77.417488,10.69,1094.3
2535203,1.70215E+12,0,0,,-0.32,-0.77,1.33,33,-18,3,0.83,2,39.67448,-77.417488,11.22,1094.3
2535323,1.70215E+12,5,0,,0.48,-0.55,0.97,62,9,-1,0.73,2,39.674477,-77.41748,9.74,1094.3
2535363,1.70215E+12,0,0,,-0.2,-0.36,0.66,57,12,-8,0.41,2,39.674473,-77.41748,9.86,1094.3
2535403,1.70215E+12,0,0,,-0.46,-0.5,0.5,50,-1,-14,0.68,2,39.674473,-77.417473,9.77,1094.2
2535443,1.70215E+12,0,0,,-0.62,-0.67,0.8,48,-6,-21,0.91,2,39.674469,-77.417473,10.34,1094.2
2535483,1.70215E+12,5,0,,-0.45,-0.74,0.52,52,-14,-6,0.86,2,39.674469,-77.417473,10.39,1094.2
2535523,1.70215E+12,5,0,,0.11,-0.6,0.73,60,-15,-7,0.61,2,39.674469,-77.417473,10.4,1094.2
2535563,1.70215E+12,5,0,,0.44,-0.93,0.98,68,-9,0,1.03,2,39.674469,-77.417465,10.94,1094.2
2535603,1.70215E+12,0,0,,0.9,-0.96,1.41,80,-13,15,1.31,2,39.674469,-77.417465,10.91,1094.1
2535643,1.70215E+12,0,0,,0.56,-0.79,1.21,83,0,4,0.97,2,39.674465,-77.417465,10.96,1094.1
2535683,1.70215E+12,0,0,,-0.17,-0.29,1.12,79,-3,-18,0.34,2,39.674465,-77.417465,10.61,1094
2535723,1.70215E+12,0,0,,-0.31,-0.38,0.55,70,0,-16,0.49,2,39.674461,-77.417465,10.44,1093.9
2535763,1.70215E+12,0,0,,-0.12,-0.36,0.74,69,-4,-3,0.38,2,39.674461,-77.417465,10.35,1093.9
2535803,1.70215E+12,5,0,,-0.23,-0.45,0.7,62,-10,-8,0.5,2,39.674458,-77.417465,10.16,1093.8
2535843,1.70215E+12,5,0,,-0.37,-0.53,0.72,53,-17,-17,0.65,2,39.674458,-77.417458,10.66,1093.8
2535883,1.70215E+12,5,0,,-0.29,-0.8,0.89,48,-18,-17,0.85,2,39.674454,-77.417458,10.81,1093.8
2536043,1.70215E+12,0,0,12.94,0.17,-0.64,0.54,54,10,17,0.66,2,39.67445,-77.417458,10.88,1093.7
2536083,1.70215E+12,0,0,,0.02,-0.01,0.75,48,2,4,0.03,2,39.67445,-77.417458,10.24,1093.7
2536123,1.70215E+12,5,0,,0.34,0.01,0.9,37,-3,0,0.34,2,39.674446,-77.417458,10.06,1093.7
2536163,1.70215E+12,5,0,,0.2,-0.2,0.83,26,-9,-10,0.28,2,39.674446,-77.417458,10.12,1093.7
2536203,1.70215E+12,0,0,,0.34,-0.86,1.19,24,-21,-18,0.92,2,39.674442,-77.417458,11.21,1093.6
2536243,1.70215E+12,0,0,,-0.06,-1.75,1.3,41,-11,-11,1.75,2,39.674442,-77.417458,11.75,1093.6
2536283,1.70215E+12,0,0,,0.22,-1.63,1.31,59,-8,-5,1.64,2,39.674438,-77.417458,11.7,1093.6
2536323,1.70215E+12,5,0,,-0.04,-1.27,1.15,79,8,5,1.27,2,39.674435,-77.417458,11.28,1093.6
2536363,1.70215E+12,5,0,,0.36,-1.14,0.85,89,8,15,1.2,2,39.674435,-77.417458,10.03,1093.6
2536403,1.70215E+12,5,0,,-0.18,-0.19,0.21,91,11,5,0.26,2,39.674431,-77.417458,10.18,1093.6
2536443,1.70215E+12,5,0,,-0.45,-0.3,0.46,86,5,-18,0.54,2,39.674431,-77.417465,9.59,1093.7
2536483,1.70215E+12,5,0,,-0.19,-0.24,0.57,73,-2,-42,0.31,2,39.674431,-77.417465,9.74,1093.7
2536523,1.70215E+12,5,0,,-0.01,-0.38,0.42,59,-10,-28,0.38,2,39.674431,-77.417465,9.97,1093.8
2536563,1.70215E+12,0,0,,0.02,-0.94,0.68,51,-20,-4,0.94,2,39.674431,-77.417465,10.95,1093.7
2536603,1.70215E+12,0,0,,-0.13,-0.95,0.92,54,-11,11,0.96,2,39.674427,-77.417465,11.06,1093.7
2536643,1.70215E+12,0,0,,0.27,-1.14,1.3,55,-8,-3,1.17,2,39.674427,-77.417465,11.47,1093.8
2536683,1.70215E+12,5,0,,0.53,-0.83,1.22,64,-1,-11,0.99,2,39.674423,-77.417465,11.55,1093.8
2536723,1.70215E+12,5,0,,0.48,-0.72,0.89,65,1,-12,0.87,2,39.674423,-77.417473,10.77,1093.8
2536763,1.70215E+12,5,0,,-0.19,-0.65,0.72,63,1,-9,0.67,2,39.674419,-77.417473,10.38,1093.8
2536803,1.70215E+12,5,0,,-0.88,-0.37,0.42,62,4,-5,0.96,2,39.674419,-77.417473,9.98,1093.8
2536843,1.70215E+12,5,0,,-0.6,-0.47,0.57,58,-3,-1,0.76,2,39.674419,-77.417473,10.45,1093.8
2536883,1.70215E+12,0,0,,-0.3,0.06,0.62,48,-16,2,0.3,2,39.674416,-77.41748,10.09,1093.8
2536923,1.70215E+12,0,0,,-0.01,-0.57,0.79,41,-25,9,0.57,2,39.674416,-77.41748,10.63,1093.8
2536963,1.70215E+12,5,0,,0.08,-0.32,1.1,34,-26,3,0.33,2,39.674412,-77.41748,10.95,1093.8
2537003,1.70215E+12,5,0,,0.07,-0.41,1.21,32,-18,-7,0.41,2,39.674412,-77.41748,11.44,1093.8
2537043,1.70215E+12,5,0,12.95,0.05,-0.7,1.23,37,-12,-4,0.7,2,39.674412,-77.417488,11.26,1093.9
2537083,1.70215E+12,0,0,,0.14,-0.91,1.02,43,-6,0,0.92,2,39.674412,-77.417488,11.25,1093.9
2537123,1.70215E+12,0,0,,0.37,-0.6,1.16,44,7,-1,0.7,2,39.674412,-77.417488,11.11,1093.9
2537163,1.70215E+12,0,0,,0.1,-0.29,1.15,43,1,-5,0.31,2,39.674412,-77.417496,10.27,1093.9
2537203,1.70215E+12,0,0,,-0.28,-0.15,0.75,38,3,-11,0.32,2,39.674412,-77.417496,10.3,1093.9
2537243,1.70215E+12,0,0,,0.13,-0.59,0.85,35,7,-1,0.6,2,39.674408,-77.417496,10.29,1093.9
2537283,1.70215E+12,0,0,,-0.19,-0.68,0.56,36,1,14,0.71,2,39.674408,-77.417496,10.16,1093.9
2537323,1.70215E+12,0,0,,-0.22,-0.45,0.74,38,1,12,0.5,2,39.674408,-77.417496,10.46,1093.9
2537363,1.70215E+12,0,0,,-0.17,-0.34,0.48,36,11,9,0.38,2,39.674408,-77.417496,10.54,1094
2537403,1.70215E+12,0,0,,-0.19,-0.51,0.83,37,10,8,0.54,2,39.674408,-77.417496,10.52,1094
2537443,1.70215E+12,0,0,,0.18,-0.65,0.82,34,5,-4,0.67,2,39.674408,-77.417503,10.61,1094
2537483,1.70215E+12,0,0,,0.09,-0.28,1.05,35,-2,-17,0.29,2,39.674404,-77.417503,10.54,1094
2537523,1.70215E+12,0,0,,-0.33,-0.4,0.96,35,-9,-9,0.52,2,39.674404,-77.417511,10.44,1094
2537563,1.70215E+12,0,0,,0.19,-0.77,1.26,46,-1,-8,0.79,2,39.674404,-77.417511,11.04,1094
2537603,1.70215E+12,0,0,,0.07,-0.54,0.86,55,-2,2,0.54,2,39.674404,-77.417511,10.43,1094
2537643,1.70215E+12,0,0,,-0.13,-0.08,0.52,50,-4,13,0.15,2,39.674404,-77.417519,10.49,1094.1
2537683,1.70215E+12,0,0,,-0.22,-0.09,0.32,43,-10,10,0.23,2,39.674404,-77.417519,10.41,1094.1
2537723,1.70215E+12,0,0,,0.25,-0.62,0.86,54,-8,-3,0.67,2,39.674404,-77.417519,10.87,1094.2
2537763,1.70215E+12,0,0,,0.3,-0.75,0.7,57,10,-6,0.81,2,39.674404,-77.417526,11.06,1094.2
2537803,1.70215E+12,0,0,,0.43,-0.65,1.06,59,7,-1,0.78,2,39.674404,-77.417526,10.4,1094.2
2537843,1.70215E+12,0,0,,0.15,-0.17,1.04,57,4,0,0.22,2,39.674404,-77.417526,10.87,1094.2
2537883,1.70215E+12,0,0,,0.24,-0.25,0.57,50,-11,5,0.34,2,39.674404,-77.417534,9.75,1094.2
2537923,1.70215E+12,0,0,,-0.15,-0.39,1.01,41,-18,-8,0.42,2,39.674404,-77.417534,10.71,1094.2
2537963,1.70215E+12,0,0,,-0.01,-0.83,1.3,49,-10,-21,0.83,2,39.674404,-77.417534,11,1094.2
2538003,1.70215E+12,0,0,,0.07,-0.99,0.59,57,-2,-1,0.99,2,39.674404,-77.417534,11.4,1094.3
2538043,1.70215E+12,0,0,12.7,-0.25,-0.75,0.28,65,0,23,0.79,2,39.674404,-77.417534,10.59,1094.3
2538083,1.70215E+12,0,0,,-0.36,0,0.7,64,-8,7,0.36,2,39.674404,-77.417534,10.67,1094.3
2538123,1.70215E+12,0,0,,-0.41,-0.55,0.99,63,-6,-20,0.69,2,39.674404,-77.417542,10.49,1094.3
2538163,1.70215E+12,0,0,,0.06,-0.6,0.73,65,-5,-9,0.6,2,39.674408,-77.417542,10.26,1094.2
2538203,1.70215E+12,0,0,,0.3,-0.5,1.1,72,-4,-7,0.59,2,39.674408,-77.417542,10.9,1094.2
2538243,1.70215E+12,0,0,,0.27,-0.76,0.94,77,-11,-3,0.81,2,39.674408,-77.417549,10.72,1094.2
2538283,1.70215E+12,0,0,,0.22,-0.94,0.74,82,-4,-2,0.97,2,39.674408,-77.417549,10.78,1094.2
2538323,1.70215E+12,0,0,,0.26,0.19,0.79,79,-2,-11,0.32,2,39.674408,-77.417549,10.85,1094.1
2538363,1.70215E+12,0,0,,0.73,-0.54,0.91,77,-3,-11,0.91,2,39.674412,-77.417557,11.08,1094.1
2538403,1.70215E+12,0,0,,0.57,-0.56,1.07,79,-3,1,0.8,2,39.674412,-77.417557,11.51,1094.2
2538443,1.70215E+12,0,0,,0.32,-0.21,1.38,75,-7,2,0.38,2,39.674412,-77.417557,11.13,1094.1
2538483,1.70215E+12,0,0,,0.21,-0.67,1.36,72,-4,-7,0.7,2,39.674412,-77.417564,11.15,1094
2538523,1.70215E+12,0,0,,0.12,-0.23,0.97,69,0,-9,0.26,2,39.674412,-77.417564,11.42,1093.9
2538563,1.70215E+12,0,0,,0.52,-0.45,0.97,65,-4,-10,0.68,2,39.674412,-77.417564,11.41,1093.8
2538603,1.70215E+12,0,0,,0.33,-0.43,0.8,66,-15,-15,0.55,2,39.674416,-77.417564,11.11,1093.7
2538643,1.70215E+12,0,0,,-0.45,-0.84,0.63,65,-14,2,0.95,2,39.674416,-77.417564,11.41,1093.6
2538683,1.70215E+12,0,0,,-0.61,-0.42,0.46,67,-15,11,0.74,2,39.674419,-77.417572,11.21,1093.5
2538723,1.70215E+12,0,0,,-0.13,-0.4,1.34,67,-16,-13,0.42,2,39.674419,-77.417572,11.67,1093.3
2538763,1.70215E+12,0,0,,-0.05,-0.99,1.26,71,-11,-26,0.99,2,39.674423,-77.417572,11.58,1093.2
2538803,1.70215E+12,0,0,,-0.19,-1.13,1.03,82,-8,-7,1.14,2,39.674423,-77.417572,11.72,1093.1
2538843,1.70215E+12,0,0,,-0.37,-0.84,1.3,87,3,1,0.92,2,39.674427,-77.417572,11.4,1093.1
2538883,1.70215E+12,0,0,,-0.11,-0.21,0.85,92,7,-3,0.24,2,39.674427,-77.417572,11.11,1093.1
2538923,1.70215E+12,0,0,,-0.7,0.13,0.98,75,5,-22,0.71,2,39.674431,-77.417572,10.6,1093.1
2538963,1.70215E+12,0,0,,-0.83,-0.28,0.92,69,-1,-20,0.88,2,39.674431,-77.417572,11.01,1093.1
2539003,1.70215E+12,0,0,,-0.39,-0.67,0.7,64,-8,-4,0.77,2,39.674431,-77.417572,11.14,1093
2539043,1.70215E+12,0,0,12.76,-0.35,-0.57,1.06,57,-10,1,0.67,2,39.674435,-77.417572,11.4,1093
2539083,1.70215E+12,0,0,,-0.59,-0.65,1.28,57,-17,-27,0.88,2,39.674435,-77.417572,12.19,1092.9
2539123,1.70215E+12,0,0,,-0.32,-1.38,1.01,60,-18,-19,1.42,2,39.674438,-77.417572,12.31,1092.8
2539163,1.70215E+12,0,0,,0.24,-1.04,0.78,71,-7,6,1.07,2,39.674438,-77.417572,12.43,1092.7
2539203,1.70215E+12,0,0,,-0.18,-0.55,0.87,76,-1,14,0.58,2,39.674442,-77.417572,12.66,1092.7
2539243,1.70215E+12,0,0,,-0.33,-0.92,1.07,80,11,2,0.98,2,39.674446,-77.417572,12.09,1092.7
2539283,1.70215E+12,0,0,,-0.23,-0.86,1.28,90,14,-30,0.89,1,39.674446,-77.417572,12.07,1092.6
2539323,1.70215E+12,0,0,,-0.79,-0.23,0.31,90,-5,-44,0.83,1,39.67445,-77.417572,11.37,1092.5
2539363,1.70215E+12,0,0,,-0.2,-0.77,0.64,84,-23,-22,0.79,1,39.67445,-77.417572,11.62,1092.5
2539403,1.70215E+12,0,0,,-0.17,-0.64,0.95,79,-26,-3,0.66,1,39.67445,-77.417572,12.25,1092.3
2539443,1.70215E+12,0,0,,-0.21,-0.64,0.94,77,-25,0,0.67,1,39.674454,-77.417572,12.51,1092.3
2539483,1.70215E+12,0,0,,0.35,-0.38,1.02,73,-19,-9,0.51,1,39.674454,-77.417572,13.06,1092.2
2539523,1.70215E+12,0,0,,0.52,-1.35,1.37,80,-12,-18,1.45,1,39.674458,-77.417572,12.7,1092.2
2539563,1.70215E+12,0,0,,0.58,-1.03,1.2,89,-5,-19,1.18,1,39.674458,-77.417572,12.21,1092.1
2539603,1.70215E+12,0,0,,0.72,-0.52,0.96,97,8,-14,0.89,1,39.674461,-77.417572,12.23,1092.1
2539643,1.70215E+12,0,0,,0.3,-0.22,1.04,91,12,-10,0.37,1,39.674465,-77.417572,11.43,1092
2539683,1.70215E+12,0,0,,0.21,-0.1,0.52,81,6,-18,0.24,1,39.674465,-77.417572,11.46,1091.9
2539723,1.70215E+12,0,0,,0.11,-0.52,0.66,66,-3,-16,0.53,1,39.674465,-77.417572,10.15,1091.6
2539763,1.70215E+12,0,0,,0.35,-0.55,1.03,57,-13,-7,0.65,1,39.674469,-77.417572,11.66,1091.5
2539803,1.70215E+12,0,0,,0.4,-0.45,1.18,53,-15,4,0.61,1,39.674469,-77.417572,11.66,1091.3
2539843,1.70215E+12,0,0,,0.11,-0.36,0.77,47,-15,3,0.38,1,39.674469,-77.417564,12.34,1091.3
2539883,1.70215E+12,0,0,,0.16,-0.17,0.78,41,-18,3,0.23,1,39.674469,-77.417564,12.31,1091.2
2539923,1.70215E+12,0,0,,0.4,-0.52,0.54,41,-20,12,0.65,1,39.674473,-77.417564,12.54,1091.2
2539963,1.70215E+12,0,0,,-0.09,-0.65,0.94,36,-22,9,0.66,1,39.674473,-77.417557,12.82,1091.2
2540003,1.70215E+12,0,0,,-0.19,-1.16,0.63,41,-20,24,1.18,1,39.674473,-77.417557,13.23,1091.1
2540043,1.70215E+12,0,0,12.76,-0.54,-0.15,1.04,37,-6,20,0.56,1,39.674477,-77.417557,12.35,1091
2540083,1.70215E+12,0,0,,-0.87,-0.36,1.32,29,-6,-18,0.94,1,39.674477,-77.417549,12.15,1090.9
2540123,1.70215E+12,0,0,,-0.73,-0.88,1.15,24,-5,-20,1.14,1,39.674477,-77.417549,12.42,1090.9
2540163,1.70215E+12,0,0,,0.17,-1.03,0.94,29,-7,-10,1.04,1,39.67448,-77.417549,12.88,1090.8
2540203,1.70215E+12,0,0,,0.08,-1.01,1.28,34,9,0,1.02,1,39.67448,-77.417542,12.82,1090.8
2540243,1.70215E+12,0,0,,0.04,-1.01,0.88,38,11,8,1.02,1,39.67448,-77.417542,12.87,1090.7
2540283,1.70215E+12,0,0,,0.01,-0.76,0.69,41,9,25,0.76,1,39.674484,-77.417542,12.27,1090.6
2540323,1.70215E+12,0,0,,-0.06,0.21,0.83,37,14,8,0.21,1,39.674484,-77.417534,11.87,1090.6
2540363,1.70215E+12,0,0,,-0.69,0.01,0.4,32,18,-6,0.7,1,39.674484,-77.417534,11.6,1090.6
2540403,1.70215E+12,0,0,,-0.76,0.26,0.26,22,9,-15,0.81,1,39.674484,-77.417534,12.31,1090.6
2540443,1.70215E+12,0,0,,-0.3,0.08,-0.16,17,-3,-7,0.31,1,39.674484,-77.417534,12.55,1090.5
2540483,1.70215E+12,0,0,,0.09,-0.57,0.28,16,-20,3,0.57,1,39.674484,-77.417534,13.18,1090.4
2540523,1.70215E+12,0,0,,0.11,-1.33,1.13,23,-24,-5,1.34,1,39.674488,-77.417526,13.49,1090.4
2540563,1.70215E+12,0,0,,0.27,-0.92,1.09,30,-24,8,0.96,1,39.674488,-77.417526,14.01,1090.4
2540603,1.70215E+12,0,0,,0.85,-1.02,1.7,46,-18,-4,1.33,1,39.674488,-77.417519,14.11,1090.4
2540643,1.70215E+12,0,0,,0.78,-1.31,1.38,60,0,-10,1.52,1,39.674488,-77.417519,14.35,1090.3
2540683,1.70215E+12,0,0,,0.69,-0.53,1.25,76,11,-18,0.87,1,39.674488,-77.417511,13.91,1090.2
2540723,1.70215E+12,0,0,,0.43,-0.67,0.71,74,9,-17,0.79,1,39.674488,-77.417511,13.88,1090.1
2540763,1.70215E+12,0,0,,0.17,-0.17,0.91,71,5,-1,0.24,1,39.674488,-77.417503,13.56,1090
2540803,1.70215E+12,0,0,,0.07,-0.08,1.05,60,-4,-10,0.11,1,39.674488,-77.417503,13.44,1089.9
2540843,1.70215E+12,0,0,,0.2,-0.85,1.25,54,-11,-5,0.87,1,39.674488,-77.417503,13.24,1089.8
2540883,1.70215E+12,0,0,,0.67,-0.64,1.43,57,-8,-3,0.93,1,39.674488,-77.417496,13.88,1089.8
2540923,1.70215E+12,0,0,,0.46,-0.83,1.35,58,4,9,0.94,1,39.674488,-77.417496,13.6,1089.7
2540963,1.70215E+12,0,0,,0.55,0.25,0.99,56,7,12,0.6,1,39.674488,-77.417496,13.69,1089.7
2541003,1.70215E+12,0,0,,0.05,-0.18,1.17,50,9,2,0.19,1,39.674488,-77.417496,13.13,1089.7
2541043,1.70215E+12,0,0,12.77,0.15,0.36,0.71,34,-3,-4,0.39,1,39.674488,-77.417488,13.29,1089.7
2541083,1.70215E+12,0,0,,0.06,-0.06,0.85,17,-13,-5,0.09,1,39.674488,-77.417488,13.27,1089.6
2541123,1.70215E+12,0,0,,0.23,-0.79,1.17,14,-19,-4,0.82,1,39.674488,-77.417488,13.56,1089.5
2541163,1.70215E+12,0,0,,0.7,-0.75,0.62,18,-15,9,1.03,1,39.674488,-77.41748,14.06,1089.5
2541203,1.70215E+12,0,0,,0.7,-0.85,1.48,30,-8,16,1.1,1,39.674484,-77.41748,14.68,1089.6
2541243,1.70215E+12,0,0,,0.34,-0.33,1.26,38,-1,6,0.47,1,39.674484,-77.417473,14.06,1089.5
2541283,1.70215E+12,0,0,,-0.15,0.04,0.77,39,2,-18,0.16,1,39.674484,-77.417473,13.67,1089.5
2541323,1.70215E+12,0,0,,-0.02,-0.96,0.67,38,-6,-22,0.96,1,39.674484,-77.417465,13.54,1089.4
2541363,1.70215E+12,0,0,,-0.33,-0.95,0.46,34,-14,-10,1.01,1,39.67448,-77.417465,13.55,1089.4
2541403,1.70215E+12,0,0,,-0.65,-0.68,0.9,36,-16,5,0.94,1,39.67448,-77.417458,14.22,1089.3
2541443,1.70215E+12,0,0,,0.11,-0.81,1.34,38,-6,-4,0.82,1,39.67448,-77.417458,14.19,1089.3
2541483,1.70215E+12,0,0,,-0.17,-1.11,0.8,47,-6,8,1.12,1,39.674477,-77.417458,14.44,1089.2
2541523,1.70215E+12,0,0,,0.19,-0.9,1.13,55,-4,-17,0.92,1,39.674477,-77.41745,14.76,1089.2
2541563,1.70215E+12,0,0,,-0.26,-0.86,0.86,64,8,-22,0.9,1,39.674477,-77.41745,14.41,1089.1
2541603,1.70215E+12,0,0,,0.01,-0.61,0.67,63,6,-5,0.61,1,39.674473,-77.41745,13.93,1089
2541643,1.70215E+12,0,0,,-0.36,-0.67,0.79,62,5,6,0.76,1,39.674473,-77.41745,13.75,1088.9
2541683,1.70215E+12,0,0,,-0.4,0.43,0.66,53,-6,6,0.59,1,39.674473,-77.41745,13.78,1089
2541723,1.70215E+12,0,0,,-0.38,-0.24,0.69,39,-11,-7,0.45,1,39.674469,-77.417442,13.67,1089
2541763,1.70215E+12,0,0,,-0.07,-0.55,0.77,32,-16,-6,0.55,1,39.674469,-77.417442,14.17,1089
2541803,1.70215E+12,0,0,,-0.06,-0.53,0.83,34,-8,2,0.53,1,39.674469,-77.417442,14.2,1088.9
2541843,1.70215E+12,0,0,,0.03,-0.09,0.95,36,-19,-2,0.09,1,39.674469,-77.417435,14.68,1089
2541883,1.70215E+12,0,0,,0.22,-1.24,1.15,41,-11,-17,1.26,1,39.674469,-77.417435,14.53,1089
2541923,1.70215E+12,0,0,,-0.26,-1.47,0.84,52,0,1,1.49,1,39.674465,-77.417435,14.41,1088.9
2541963,1.70215E+12,0,0,,0.02,0.2,0.36,59,19,18,0.2,1,39.674465,-77.417427,14.33,1088.9
2542003,1.70215E+12,0,0,,-0.67,0.45,0.41,38,16,15,0.81,1,39.674461,-77.417427,13.76,1088.9
2542043,1.70215E+12,0,0,12.79,-0.01,0.89,0.76,11,4,13,0.89,1,39.674458,-77.417427,13.32,1089
2542083,1.70215E+12,0,0,,-0.29,0.1,0.35,-6,3,7,0.31,1,39.674458,-77.417419,13.99,1088.9
2542123,1.70215E+12,0,0,,-0.12,0.13,0.87,-13,-14,6,0.17,1,39.674454,-77.417419,14.1,1089
2542163,1.70215E+12,0,0,,-0.15,-0.3,0.88,-17,-5,4,0.33,1,39.674454,-77.417419,14.34,1089
2542203,1.70215E+12,0,0,,-0.12,-0.3,0.34,-17,-6,15,0.32,1,39.67445,-77.417419,14.77,1088.9
2542243,1.70215E+12,0,0,,0.44,0.07,0.69,-22,4,15,0.45,1,39.67445,-77.417412,14.84,1088.9
2542283,1.70215E+12,0,0,,0.22,-0.13,0.83,-20,-3,29,0.25,1,39.67445,-77.417412,15.19,1088.9
2542323,1.70215E+12,0,0,,0.64,0.41,1.64,-23,-2,13,0.76,1,39.674446,-77.417412,14.99,1088.8
2542363,1.70215E+12,0,0,,0.21,0.33,1.03,-28,-1,-9,0.39,1,39.674442,-77.417412,15.53,1088.9
2542403,1.70215E+12,0,0,,0.44,-0.17,1.08,-24,5,6,0.47,1,39.674442,-77.417412,15.18,1088.8
2542443,1.70215E+12,0,0,,0.44,0.27,1.4,-22,12,15,0.51,1,39.674438,-77.417412,15.4,1088.7
2542483,1.70215E+12,0,0,,0.13,-0.13,1.01,-24,19,22,0.18,1,39.674438,-77.417412,15.47,1088.7
2542523,1.70215E+12,0,0,,0.23,0.11,0.72,-21,2,13,0.25,1,39.674435,-77.417404,15.18,1088.6
2542563,1.70215E+12,0,1,,-0.07,0.35,1.14,-14,-10,-9,0.36,1,39.674431,-77.417404,15.29,1088.6
2542603,1.70215E+12,0,0,,0.25,-0.16,1.35,-16,-8,-5,0.29,1,39.674431,-77.417404,15.82,1088.5
2542643,1.70215E+12,0,1,,-0.11,-0.33,1.13,-10,11,4,0.35,1,39.674431,-77.417397,16.36,1088.5
2542683,1.70215E+12,0,0,,0.3,-0.2,0.97,-10,19,12,0.35,1,39.674427,-77.417397,16.07,1088.4
2542723,1.70215E+12,0,0,,-0.05,-0.13,0.65,-5,9,14,0.14,1,39.674427,-77.417397,16.25,1088.3
2542763,1.70215E+12,0,0,,-0.23,0.29,0.12,-6,12,-7,0.36,1,39.674423,-77.417389,15.77,1088.3
2542803,1.70215E+12,0,1,,-0.05,0.38,0.16,-6,-9,-28,0.38,1,39.674419,-77.417389,16.11,1088.2
2542843,1.70215E+12,0,1,,-0.2,-0.57,0.7,1,-13,-3,0.6,1,39.674419,-77.417389,16.56,1088.2
2542883,1.70215E+12,0,1,,0.03,0.04,1.36,2,-4,17,0.05,1,39.674416,-77.417381,17.26,1088
2542923,1.70215E+12,0,0,,-0.44,0.47,1.11,-1,2,18,0.64,1,39.674416,-77.417381,17.55,1088
2542963,1.70215E+12,0,1,,-0.48,0.64,0.83,-5,5,-30,0.8,1,39.674412,-77.417374,17.11,1087.9
2543003,1.70215E+12,0,1,,0.15,-0.34,0.33,-6,7,-21,0.37,1,39.674412,-77.417374,17.1,1087.9
2543043,1.70215E+12,0,1,12.79,-0.24,-0.22,0.91,3,10,14,0.33,1,39.674412,-77.417374,17.44,1087.8
2543083,1.70215E+12,0,1,,-0.28,0.11,0.75,0,1,15,0.3,1,39.674408,-77.417374,17.54,1087.7
2543123,1.70215E+12,0,0,,-0.12,0.51,0.81,-4,-1,-4,0.52,1,39.674404,-77.417374,17.48,1087.6
2543163,1.70215E+12,0,1,,-0.11,0.22,1.12,-3,-3,-7,0.25,1,39.674404,-77.417366,17.46,1087.6
2543203,1.70215E+12,0,1,,-0.24,-0.4,1.08,0,1,-3,0.47,1,39.6744,-77.417366,18.09,1087.5
2543243,1.70215E+12,0,0,,-0.45,0.03,0.82,0,11,2,0.46,1,39.674396,-77.417366,18.16,1087.5
2543283,1.70215E+12,0,1,,-0.21,0.5,0.82,-4,-1,-16,0.54,1,39.674396,-77.417358,17.84,1087.4
2543323,1.70215E+12,0,1,,-0.34,-0.56,0.68,-1,6,-3,0.66,1,39.674393,-77.417358,18.37,1087.3
2543363,1.70215E+12,0,1,,-0.6,-0.38,0.84,4,6,16,0.71,1,39.674393,-77.417351,18.3,1087.3
2543403,1.70215E+12,0,0,,-0.33,0.44,0.66,-3,3,-6,0.55,1,39.674393,-77.417351,18.33,1087.2
2543443,1.70215E+12,0,1,,0.11,-0.27,1.02,-2,-6,-11,0.29,1,39.674389,-77.417351,18.46,1087.2
2543483,1.70215E+12,0,1,,0.01,-0.45,1.13,4,-6,1,0.45,1,39.674385,-77.417343,18.85,1087.1
2543523,1.70215E+12,0,0,,-0.08,0.23,1.14,2,7,3,0.25,1,39.674385,-77.417343,18.67,1087
2543563,1.70215E+12,0,0,,-0.23,-0.02,0.61,0,-4,-11,0.23,1,39.674381,-77.417336,18.48,1087
2543603,1.70215E+12,0,1,,-0.09,-0.41,0.87,2,-1,-15,0.42,1,39.674377,-77.417336,18.05,1086.9
2543643,1.70215E+12,0,1,,0.47,0.02,1.19,4,-3,12,0.47,1,39.674377,-77.417336,18.6,1086.8
2543683,1.70215E+12,0,1,,-0.14,0.08,0.75,2,-9,14,0.16,1,39.674374,-77.417336,18.26,1086.8
2543723,1.70215E+12,0,1,,-0.16,0.1,0.76,-2,-13,-10,0.19,1,39.67437,-77.417336,18.37,1086.7
2543763,1.70215E+12,0,1,,0.08,-0.08,1.15,-3,-9,-11,0.12,1,39.67437,-77.417328,18.3,1086.7
2543803,1.70215E+12,0,1,,0.06,-0.37,1.26,0,4,11,0.37,1,39.67437,-77.417328,18.51,1086.7
2543843,1.70215E+12,0,1,,-0.61,-0.3,0.96,2,11,3,0.68,1,39.674366,-77.41732,18.52,1086.6
2543883,1.70215E+12,0,1,,-0.14,0.34,0.46,0,12,-2,0.37,1,39.674366,-77.41732,18.08,1086.6
2543923,1.70215E+12,0,1,,-0.08,-0.08,0.57,0,-4,-5,0.11,1,39.674362,-77.41732,17.77,1086.5
2543963,1.70215E+12,0,1,,-0.09,-0.65,1.08,1,-1,-8,0.66,1,39.674358,-77.417313,18.08,1086.4
2544003,1.70215E+12,0,1,,-0.21,-0.35,1.06,2,8,1,0.41,1,39.674358,-77.417313,18.33,1086.3
2544043,1.70215E+12,0,1,12.8,0.47,0.2,1.28,2,10,19,0.51,1,39.674355,-77.417305,18.74,1086.2
2544083,1.70215E+12,0,0,,0.44,0.61,0.97,-1,7,2,0.75,1,39.674351,-77.417305,18.41,1086.2
2544123,1.70215E+12,0,1,,0.25,0.08,0.71,-4,4,-13,0.26,1,39.674351,-77.417297,18.63,1086.1
2544163,1.70215E+12,0,1,,0.22,-1.07,1.07,2,2,2,1.09,1,39.674351,-77.417297,18.67,1086
2544203,1.70215E+12,0,1,,0.07,0.05,1.39,0,5,-2,0.08,1,39.674347,-77.417297,19.05,1085.9
2544243,1.70215E+12,0,0,,0.33,0.29,0.95,-4,6,2,0.45,1,39.674347,-77.417297,19.06,1085.9
2544283,1.70215E+12,0,0,,0.63,0.35,0.63,1,1,9,0.72,1,39.674343,-77.417297,18.8,1085.7
2544323,1.70215E+12,0,1,,0.45,0.17,0.99,0,6,7,0.48,1,39.674339,-77.41729,18.9,1085.7
2544363,1.70215E+12,0,1,,0.4,-0.38,0.85,-1,-6,-9,0.55,1,39.674339,-77.41729,18.89,1085.7
2544403,1.70215E+12,0,1,,0.05,-0.46,0.84,-2,-14,-25,0.47,1,39.674336,-77.417282,19.49,1085.6
2544443,1.70215E+12,5,0,,0.1,-0.84,0.54,3,-14,11,0.84,1,39.674332,-77.417282,19.94,1085.6
2544483,1.70215E+12,0,0,,0.07,0.53,0.17,6,-21,27,0.54,1,39.674332,-77.417274,19.89,1085.5
2544523,1.70215E+12,5,0,,0.28,0.87,1.25,-3,-14,-21,0.91,1,39.674332,-77.417274,20.17,1085.5
2544563,1.70215E+12,5,0,,0.21,0.02,0.45,-6,-11,-28,0.21,1,39.674328,-77.417267,20.45,1085.5
2544603,1.70215E+12,0,0,,0.12,-0.72,0.71,2,-7,0,0.73,1,39.674324,-77.417267,20.38,1085.4
2544643,1.70215E+12,5,0,,0.28,-0.54,0.32,11,-3,35,0.61,1,39.674324,-77.417267,20.12,1085.3
2544683,1.70215E+12,0,0,,0.09,0.27,0.74,10,-13,15,0.29,1,39.67432,-77.417259,20.7,1085.2
2544723,1.70215E+12,0,0,,0.21,-0.37,1.47,4,-17,-23,0.43,1,39.674316,-77.417259,20.74,1085
2544763,1.70215E+12,5,0,,0.11,-0.78,0.91,5,2,-10,0.79,1,39.674313,-77.417252,20.78,1084.9
2544803,1.70215E+12,0,0,,-0.19,-0.55,1.26,8,14,26,0.59,1,39.674313,-77.417252,21.21,1084.8
2544843,1.70215E+12,5,0,,-0.31,-0.03,1.54,5,25,29,0.31,1,39.674313,-77.417252,20.37,1084.7
2544883,1.70215E+12,0,0,,-0.41,0.36,0.64,1,18,-12,0.55,1,39.674309,-77.417252,20.33,1084.5
2544923,1.70215E+12,5,0,,-0.32,-0.82,0.15,0,-2,-11,0.88,1,39.674305,-77.417244,19.99,1084.4
2544963,1.70215E+12,0,0,,-0.22,-0.73,0.93,3,-4,-3,0.76,1,39.674305,-77.417244,20.41,1084.4
2545003,1.70215E+12,0,0,,-0.32,-0.53,1.02,7,5,14,0.62,1,39.674301,-77.417236,21,1084.3
2545043,1.70215E+12,5,0,12.93,-0.43,-0.17,1.2,7,0,7,0.46,1,39.674297,-77.417236,20.97,1084.2
2545083,1.70215E+12,0,0,,-0.56,-0.26,1.01,1,15,-15,0.62,1,39.674294,-77.417229,21.39,1084.2
2545123,1.70215E+12,5,0,,-0.76,-0.39,1.17,2,19,-5,0.85,1,39.674294,-77.417229,21.47,1084.1
2545163,1.70215E+12,0,0,,-0.25,-0.45,0.79,5,19,17,0.51,1,39.674294,-77.417221,21.02,1084
2545203,1.70215E+12,5,0,,0.01,-0.27,0.55,1,9,5,0.27,1,39.67429,-77.417221,20.53,1083.9
2545243,1.70215E+12,0,0,,0.25,-0.43,0.46,1,-1,-8,0.5,1,39.674286,-77.417221,20.77,1083.9
2545283,1.70215E+12,5,0,,-0.06,-0.9,0.32,1,-9,2,0.9,1,39.674282,-77.417213,21.15,1083.8
2545323,1.70215E+12,0,0,,-0.03,-0.4,0.54,4,-14,15,0.41,1,39.674278,-77.417213,21.67,1083.8
2545363,1.70215E+12,5,0,,0.04,-0.21,0.64,1,-5,0,0.21,1,39.674278,-77.417213,22.09,1083.8
2545403,1.70215E+12,0,0,,0.04,0.01,0.91,1,1,-13,0.04,1,39.674274,-77.417213,22.27,1083.7
2545443,1.70215E+12,5,0,,0.18,-0.61,0.59,1,-3,-3,0.64,1,39.674271,-77.417206,22.36,1083.7
2545483,1.70215E+12,0,0,,-0.26,-0.3,0.35,5,-7,17,0.4,1,39.674271,-77.417206,21.95,1083.7
2545523,1.70215E+12,5,0,,-0.4,0.96,0.77,1,1,-3,1.04,1,39.674267,-77.417198,22.03,1083.6
2545563,1.70215E+12,0,0,,-0.38,0.61,0.46,-5,-8,-40,0.72,1,39.674267,-77.417198,22.45,1083.5
2545603,1.70215E+12,5,0,,-0.32,-0.74,0.81,1,-7,-10,0.81,1,39.674263,-77.417191,22.46,1083.4
2545643,1.70215E+12,0,0,,-0.61,0.09,0.75,11,2,34,0.62,1,39.674259,-77.417191,22.65,1083.3
2545683,1.70215E+12,5,0,,-0.95,0.89,1.28,4,-6,0,1.3,1,39.674255,-77.417183,22.31,1083.3
2545723,1.70215E+12,0,0,,-0.27,-0.34,1.21,0,-10,-27,0.44,1,39.674252,-77.417183,22.53,1083.2
2545763,1.70215E+12,5,0,,0.3,-0.87,0.69,4,10,21,0.92,1,39.674252,-77.417175,22.93,1083.2
2545803,1.70215E+12,0,0,,0.2,0.15,1.38,3,16,25,0.26,1,39.674252,-77.417175,22.53,1083.1
2545843,1.70215E+12,5,0,,0.12,0.45,0.71,-3,8,-18,0.46,1,39.674248,-77.417175,22.07,1083
2545883,1.70215E+12,0,0,,-0.16,-0.46,0.31,-1,14,-13,0.48,1,39.674244,-77.417175,22.43,1083
2545923,1.70215E+12,0,0,,-0.31,-0.02,-0.25,5,-3,10,0.31,1,39.67424,-77.417168,22.98,1082.9
2545963,1.70215E+12,5,0,,-0.33,0.15,1.03,5,-13,7,0.36,1,39.674236,-77.417168,22.24,1082.9
2546003,1.70215E+12,0,0,,-0.08,-0.33,0.91,1,-17,-20,0.34,1,39.674236,-77.41716,22.92,1082.9
2546043,1.70215E+12,5,0,12.95,0.15,-1.02,1.23,4,1,4,1.04,1,39.674232,-77.41716,23.53,1082.8
2546083,1.70215E+12,0,0,,-0.2,-0.09,1.26,12,31,7,0.22,1,39.674232,-77.417152,22.99,1082.8
2546123,1.70215E+12,5,0,,-0.67,0.79,0.03,9,27,3,1.04,1,39.674229,-77.417152,22.9,1082.7
2546163,1.70215E+12,0,0,,-0.84,-0.4,0.07,1,0,-16,0.93,1,39.674225,-77.417145,21.89,1082.7
2546203,1.70215E+12,0,0,,-0.18,-0.9,0.71,6,-38,-8,0.92,1,39.674221,-77.417145,22.47,1082.6
2546243,1.70215E+12,0,0,,0.35,-0.72,0.95,13,-36,19,0.8,1,39.674221,-77.417137,23.38,1082.5
2546283,1.70215E+12,0,0,,0.39,0.01,1.82,11,-14,1,0.39,1,39.674217,-77.417137,23.86,1082.5
2546323,1.70215E+12,5,0,,-0.11,0.11,1.36,8,2,-21,0.16,1,39.674213,-77.417137,24.29,1082.4
2546363,1.70215E+12,0,0,,-0.03,-0.23,-0.04,12,10,-3,0.23,1,39.674213,-77.417137,24.02,1082.3
2546403,1.70215E+12,5,0,,-0.17,-0.41,0.63,10,8,-5,0.45,1,39.67421,-77.41713,23.39,1082.3
2546443,1.70215E+12,0,0,,-0.08,-0.51,0.52,10,-10,13,0.52,1,39.674206,-77.41713,23.34,1082.2
2546483,1.70215E+12,0,0,,0.06,0.16,1.44,6,2,-19,0.17,1,39.674202,-77.417122,23.45,1082.2
2546523,1.70215E+12,5,0,,-0.39,0.39,1.52,6,21,-39,0.55,1,39.674198,-77.417122,23.67,1082.1
2546563,1.70215E+12,0,0,,-0.58,-0.56,0.09,7,22,-15,0.81,1,39.674194,-77.417114,23.7,1082
2546603,1.70215E+12,0,0,,-0.79,-0.02,0.59,7,6,19,0.79,1,39.674194,-77.417114,23.34,1081.8
2546643,1.70215E+12,0,0,,-0.06,0.68,0.86,-5,-21,-18,0.68,1,39.674194,-77.417107,22.92,1081.7
2546683,1.70215E+12,0,0,,0.13,-0.11,0.84,-9,-26,-57,0.17,1,39.67419,-77.417107,23.38,1081.7
2546723,1.70215E+12,0,0,,0.39,-0.61,1.31,0,-20,-22,0.73,1,39.674187,-77.417099,24.14,1081.7
2546763,1.70215E+12,0,0,,0.41,-0.23,1.2,8,2,23,0.47,1,39.674183,-77.417099,24.53,1081.7
2546803,1.70215E+12,0,0,,0.27,0.32,1.5,13,27,43,0.42,1,39.674179,-77.417099,23.94,1081.7
2546843,1.70215E+12,0,0,,-0.16,0.81,0.95,6,15,-33,0.83,1,39.674175,-77.417099,23.32,1081.7
2546883,1.70215E+12,0,0,,-0.03,-0.78,0.65,4,1,-45,0.78,1,39.674171,-77.417091,22.19,1081.7
2546923,1.70215E+12,0,0,,-0.18,-0.76,-0.22,0,-16,33,0.78,1,39.674171,-77.417091,22.57,1081.6
2546963,1.70215E+12,0,0,,-0.39,-0.17,0.03,-2,-31,71,0.42,1,39.674171,-77.417084,22.53,1081.6
2547003,1.70215E+12,0,0,,0.35,-0.61,1.8,-6,-18,19,0.7,1,39.674168,-77.417084,22.39,1081.6
2547043,1.70215E+12,0,1,12.7,-0.06,-0.52,0.71,7,-3,-16,0.52,1,39.674164,-77.417076,23.16,1081.7
2547083,1.70215E+12,0,0,,0.48,-0.39,1.34,8,9,-7,0.62,1,39.67416,-77.417076,22.79,1081.8
2547123,1.70215E+12,0,0,,0.07,-0.2,0.56,8,26,14,0.21,1,39.674156,-77.417076,23.5,1081.7
2547163,1.70215E+12,0,0,,-0.11,0.21,0.14,0,2,19,0.24,1,39.674152,-77.417068,22.51,1081.8
2547203,1.70215E+12,0,0,,0.3,-0.15,0.71,-1,-17,-4,0.33,1,39.674152,-77.417068,20.82,1081.7
2547243,1.70215E+12,0,0,,0.45,-0.4,1.36,-3,-26,-6,0.6,1,39.674149,-77.417061,21.32,1081.8
2547283,1.70215E+12,0,0,,0,-0.59,1.58,1,-7,8,0.59,1,39.674145,-77.417061,21.34,1081.7
2547323,1.70215E+12,0,0,,0.28,-0.15,1.69,2,15,-7,0.32,1,39.674141,-77.417061,21.55,1081.8
2547363,1.70215E+12,0,0,,0.32,-0.14,0.81,4,25,1,0.35,1,39.674137,-77.417053,20.87,1081.8
2547403,1.70215E+12,0,0,,0.09,0.18,0.24,3,16,1,0.2,1,39.674137,-77.417053,19.86,1081.8
2547443,1.70215E+12,0,0,,0.24,-0.05,0.55,0,-8,-13,0.24,1,39.674133,-77.417053,19.27,1081.7
2547483,1.70215E+12,0,0,,0.17,-0.48,0.58,-4,-14,-14,0.51,1,39.674133,-77.417053,19.22,1081.7
2547523,1.70215E+12,0,0,,0.35,-0.17,1.42,5,-15,16,0.39,1,39.67413,-77.417053,20.24,1081.7
2547563,1.70215E+12,0,0,,-0.03,-0.43,1.54,4,-4,1,0.43,1,39.67413,-77.417046,19.57,1081.7
2547603,1.70215E+12,0,0,,0.21,-0.49,1.28,8,8,-8,0.54,96,39.674126,-77.417046,19.25,1081.7
2547643,1.70215E+12,0,0,,-0.02,-0.12,1.09,10,18,-23,0.12,1997,39.674122,-77.417038,18.96,1081.7
2547683,1.70215E+12,0,0,,0.08,-0.62,0.2,16,11,-3,0.62,3891,39.674118,-77.417038,18.5,1081.6
2547723,1.70215E+12,0,0,,-0.09,-0.5,0.49,15,-7,24,0.51,5777,39.674118,-77.417038,18.13,1081.5
2547763,1.70215E+12,0,0,,0.28,0.06,1.68,13,-11,-4,0.29,7656,39.674114,-77.41703,18.51,1081.5
2547803,1.70215E+12,0,0,,-0.16,-0.52,0.91,15,-7,-12,0.55,9527,39.674114,-77.41703,18.53,1081.6
2547843,1.70215E+12,0,0,,0.18,-0.56,0.64,17,-4,-3,0.59,11391,39.67411,-77.41703,19.08,1081.5
2547883,1.70215E+12,0,0,,0.39,-0.42,1.33,20,-2,11,0.57,13248,39.67411,-77.417023,18.17,1081.6
2547923,1.70215E+12,0,0,,0.09,-0.64,0.9,23,-1,2,0.64,15096,39.674107,-77.417023,18.44,1081.6
2547963,1.70215E+12,0,0,,-0.02,-0.08,0.32,24,-8,3,0.09,16938,39.674103,-77.417023,17.6,1081.6
2548003,1.70215E+12,0,0,,0.13,-0.74,1,23,-18,-16,0.75,18772,39.674099,-77.417015,17.81,1081.6
2548043,1.70215E+12,0,0,12.75,0.35,-1.31,1.14,34,-8,-10,1.36,20599,39.674099,-77.417015,18.32,1081.6
2548083,1.70215E+12,0,0,,0.33,-0.84,1.41,43,-3,0,0.9,22419,39.674095,-77.417015,17.93,1081.6
2548123,1.70215E+12,0,0,,0.32,-0.56,0.95,47,1,-8,0.64,24231,39.674095,-77.417015,17.47,1081.6
2548163,1.70215E+12,0,0,,0.46,-0.35,0.77,49,2,-1,0.58,26036,39.674091,-77.417015,17.44,1081.5
2548203,1.70215E+12,0,0,,0.11,-0.88,0.85,49,0,3,0.88,27834,39.674091,-77.417015,17.02,1081.5
2548243,1.70215E+12,0,0,,0.33,-0.56,0.58,49,-2,-6,0.65,29625,39.674088,-77.417015,16.81,1081.5
2548283,1.70215E+12,0,0,,-0.07,-0.89,0.42,40,-22,-4,0.89,31408,39.674084,-77.417015,16.65,1081.5
2548323,1.70215E+12,0,0,,0.42,-0.56,1.34,43,-22,-3,0.7,33184,39.67408,-77.417007,16.6,1081.4
2548363,1.70215E+12,0,0,,0.27,-1.11,1.39,51,-14,-8,1.14,33479,39.67408,-77.417007,16.97,1081.4
2548403,1.70215E+12,0,0,,0.65,-1.05,1.77,62,6,-15,1.23,33346,39.674076,-77.417007,16.53,1081.5
2548443,1.70215E+12,0,0,,0.23,-0.47,0.4,64,6,0,0.52,33212,39.674072,-77.417007,16.05,1081.4
2548483,1.70215E+12,0,0,,-0.05,-0.53,0.91,60,10,-1,0.54,33080,39.674072,-77.417007,15.15,1081.3
2548523,1.70215E+12,0,0,,-0.08,-0.21,0.5,60,11,1,0.23,32948,39.674072,-77.417007,15.02,1081.3
2548563,1.70215E+12,0,0,,-0.23,0.73,0.67,53,-2,-2,0.76,32816,39.674068,-77.417,14.83,1081.3
2548603,1.70215E+12,0,0,,0.18,-0.34,0.6,38,-31,1,0.39,32685,39.674065,-77.417,14.99,1081.2
2548643,1.70215E+12,0,0,,-0.23,-0.79,0.93,34,-30,-5,0.82,32555,39.674061,-77.417,15.13,1081.2
2548683,1.70215E+12,0,0,,0.23,-0.98,1.13,36,-20,-18,1.01,32425,39.674061,-77.417,15.76,1081.2
2548723,1.70215E+12,0,0,,0.09,-1.13,1.29,51,-5,-21,1.14,32295,39.674057,-77.417,16.08,1081.2
2548763,1.70215E+12,0,0,,0.49,-1.33,0.97,67,0,-2,1.42,32166,39.674053,-77.417,15.53,1081.2
2548803,1.70215E+12,0,0,,0.71,-1.51,1.08,79,10,-18,1.67,32038,39.674053,-77.417,15.57,1081.2
2548843,1.70215E+12,0,0,,0.77,-0.66,0.77,86,12,3,1.02,31910,39.674053,-77.417,14.54,1081.2
2548883,1.70215E+12,0,0,,0,-0.78,1.05,85,1,23,0.78,31783,39.674049,-77.417,14.99,1081.2
2548923,1.70215E+12,0,0,,-0.41,-0.16,1.12,82,10,1,0.44,31656,39.674046,-77.417,14.34,1081.1
2548963,1.70215E+12,0,0,,-0.43,0.06,0.21,65,-6,-27,0.43,31529,39.674042,-77.417,14.21,1081.1
2549003,1.70215E+12,0,0,,-0.53,-0.71,0.71,51,-14,-31,0.89,31404,39.674042,-77.417,13.82,1081.2
2549043,1.70215E+12,0,0,12.77,-0.34,-0.7,0.57,42,-27,-20,0.78,31278,39.674038,-77.417,14.12,1081.1
2549083,1.70215E+12,0,0,,-0.05,-0.72,0.82,41,-21,-6,0.73,31153,39.674034,-77.417,14.44,1081.2
2549123,1.70215E+12,0,0,,0.05,-1.25,0.72,48,-19,22,1.25,31029,39.674034,-77.417007,14.63,1081.2
2549163,1.70215E+12,0,0,,0.75,-0.69,0.67,53,-10,23,1.02,30905,39.674034,-77.417007,14.38,1081.2
2549203,1.70215E+12,0,0,,0.78,-1.5,1.79,69,0,1,1.69,30782,39.67403,-77.417007,14.59,1081.2
2549243,1.70215E+12,0,0,,0.92,-1.04,1.36,78,13,-42,1.39,30659,39.67403,-77.417007,14.24,1081.2
2549283,1.70215E+12,0,0,,0.05,-1.21,1.11,86,13,-12,1.21,30536,39.674026,-77.417007,13.75,1081.2
2549323,1.70215E+12,0,0,,-0.2,-0.69,0.96,87,23,12,0.71,30415,39.674023,-77.417015,13.49,1081.3
2549363,1.70215E+12,0,0,,-0.95,0.27,0.86,77,21,-7,0.99,30293,39.674023,-77.417015,13.12,1081.3
2549403,1.70215E+12,5,0,,-0.53,0.29,0.14,50,-1,-25,0.61,30172,39.674019,-77.417015,13.09,1081.4
2549443,1.70215E+12,0,0,,-0.47,-0.36,-0.08,27,-24,-25,0.59,30052,39.674015,-77.417015,13.11,1081.4
2549483,1.70215E+12,0,0,,-0.12,-1.17,0.35,21,-38,-5,1.18,29932,39.674015,-77.417015,13.01,1081.5
2549523,1.70215E+12,0,0,,0.02,-0.61,0.97,25,-33,16,0.61,29812,39.674015,-77.417015,13.87,1081.6
2549563,1.70215E+12,0,0,,0.2,-1.27,0.75,35,-27,29,1.28,29693,39.674015,-77.417015,14.31,1081.6
2549763,1.70215E+12,0,0,,0.01,-0.97,1.08,38,-4,-34,0.97,29105,39.674007,-77.41703,13.48,1082.1
2549803,1.70215E+12,0,0,,-0.12,-1.52,0.52,47,-5,13,1.52,28989,39.674004,-77.41703,13.41,1082
2549843,1.70215E+12,0,0,,0.19,-0.31,0.78,53,-8,35,0.37,28873,39.674004,-77.41703,12.82,1082.1
2549883,1.70215E+12,0,0,,-0.27,-0.19,0.75,51,3,9,0.33,28758,39.674004,-77.417038,12.56,1082.1
2549923,1.70215E+12,0,0,,0.06,-0.36,0.81,55,-4,-17,0.37,28643,39.674,-77.417038,12.85,1082.1
2549963,1.70215E+12,0,0,,0.35,-0.48,0.46,48,-3,-20,0.6,28529,39.674,-77.417038,13.01,1082.2
2550003,1.70215E+12,0,0,,0.13,-0.92,0.95,40,-9,-6,0.93,28415,39.674,-77.417046,12.85,1082.1
2550043,1.70215E+12,5,0,12.93,0.24,-0.58,1.24,32,-16,2,0.63,28302,39.673996,-77.417046,13.11,1082.1
2550083,1.70215E+12,5,0,,0.13,-0.51,1.38,29,-15,-5,0.53,28189,39.673996,-77.417053,13.03,1082.2
2550123,1.70215E+12,5,0,,0.16,-0.87,1.29,37,5,2,0.88,28076,39.673996,-77.417053,13.13,1082.3
2550163,1.70215E+12,5,0,,-0.33,-0.84,0.83,42,14,4,0.91,27964,39.673996,-77.417053,12.49,1082.2
2550203,1.70215E+12,5,0,,-0.32,-0.48,0.85,42,19,1,0.57,27852,39.673996,-77.417053,11.92,1082.3
2550243,1.70215E+12,5,0,,-0.23,-0.4,0.55,36,12,8,0.46,27741,39.673996,-77.417053,12.06,1082.3
2550283,1.70215E+12,5,0,,-0.85,-0.38,0.21,28,0,14,0.93,27630,39.673992,-77.417053,12.1,1082.2
2550323,1.70215E+12,0,0,,-0.41,-0.35,0.33,24,-8,18,0.54,27520,39.673992,-77.417061,11.9,1082.3
2550363,1.70215E+12,0,0,,0.07,-0.79,0.56,25,-21,3,0.79,27410,39.673992,-77.417061,12.62,1082.3
2550403,1.70215E+12,0,0,,0.7,-1.18,1.41,37,-16,-17,1.37,27301,39.673992,-77.417068,12.93,1082.3
2550443,1.70215E+12,0,0,,0.79,-1.59,1.5,56,-12,-27,1.78,27192,39.673992,-77.417068,13.28,1082.3
2550483,1.70215E+12,0,0,,0.37,-1.42,1.3,71,-16,2,1.47,27083,39.673992,-77.417076,13.01,1082.3
2550523,1.70215E+12,0,0,,-0.18,-0.74,1,80,5,4,0.76,26975,39.673992,-77.417076,12.7,1082.3
2550563,1.70215E+12,0,0,,-0.39,-0.19,1.19,77,10,-20,0.43,26867,39.673992,-77.417076,12.36,1082.4
2550603,1.70215E+12,0,0,,0.06,-0.31,0.9,72,6,-26,0.31,26760,39.673992,-77.417084,12.39,1082.4
2550643,1.70215E+12,0,0,,-0.15,-0.55,0.52,67,7,-17,0.57,26653,39.673992,-77.417084,12.44,1082.4
2550683,1.70215E+12,0,0,,-0.33,-0.62,0.6,61,2,2,0.7,26547,39.673992,-77.417091,11.91,1082.4
2550723,1.70215E+12,0,0,,0.05,0.01,0.64,50,-10,3,0.05,26441,39.673992,-77.417091,11.52,1082.4
2550763,1.70215E+12,0,0,,-0.25,-0.42,0.56,38,-25,-1,0.49,26335,39.673996,-77.417091,12.26,1082.5
2550803,1.70215E+12,5,0,,-0.12,-0.97,0.65,36,-16,6,0.98,26230,39.673996,-77.417099,12.62,1082.6
2550843,1.70215E+12,5,0,,0.14,-0.47,0.47,43,-18,13,0.49,26126,39.673996,-77.417099,12.75,1082.6
2550883,1.70215E+12,5,0,,0.29,-0.44,0.71,44,-6,9,0.53,26021,39.673996,-77.417099,12.14,1082.7
2550923,1.70215E+12,5,0,,0.21,-0.71,1.12,41,-6,-2,0.74,25917,39.673996,-77.417099,12.74,1082.7
2550963,1.70215E+12,5,0,,0.33,-0.19,1.06,40,-8,5,0.38,25814,39.674,-77.417099,12.48,1082.7
2551003,1.70215E+12,5,0,,0.1,-0.23,0.97,37,-9,4,0.25,25711,39.674,-77.417107,12.77,1082.7
2551043,1.70215E+12,0,0,12.96,-0.55,-0.64,1.04,32,-11,4,0.84,25608,39.674,-77.417107,12.88,1082.7
2551083,1.70215E+12,0,0,,-0.33,-0.88,1.02,36,-9,15,0.94,25506,39.674004,-77.417107,12.88,1082.6
2551123,1.70215E+12,0,0,,-0.07,-0.77,1.38,38,-7,-5,0.77,25404,39.674004,-77.417114,13.03,1082.7
2551163,1.70215E+12,0,0,,0.19,-0.58,1.16,45,11,-2,0.61,25303,39.674004,-77.417114,12.75,1082.8
2551203,1.70215E+12,0,0,,-0.66,-0.27,0.85,41,5,5,0.71,25202,39.674007,-77.417114,13.1,1082.8
2551243,1.70215E+12,0,0,,-0.56,0.3,0.46,32,11,17,0.64,25101,39.674007,-77.417122,13.11,1082.9
2551283,1.70215E+12,0,0,,0.04,0.33,0.44,18,0,11,0.33,25001,39.674011,-77.417122,12.71,1082.9
2551323,1.70215E+12,5,0,,-0.05,0.21,0.86,5,7,5,0.22,24901,39.674011,-77.417122,13,1083
2551363,1.70215E+12,5,0,,0.15,-0.07,1.27,1,4,-3,0.17,24802,39.674015,-77.41713,13.23,1083
2551403,1.70215E+12,5,0,,0.19,0.04,1.09,1,-6,11,0.2,24703,39.674015,-77.41713,12.96,1083.1
2551443,1.70215E+12,5,0,,-0.48,0.25,0.84,4,-3,8,0.54,24604,39.674015,-77.41713,12.89,1083
2551483,1.70215E+12,5,0,,-0.68,-0.14,0.61,-1,-6,-4,0.69,24506,39.674015,-77.417137,13.29,1083.1
2551523,1.70215E+12,5,0,,-0.5,-0.48,1.19,3,1,8,0.69,24408,39.674019,-77.417137,13.61,1083.1
2551563,1.70215E+12,5,0,,-0.24,-0.22,1.36,6,6,4,0.33,24311,39.674019,-77.417137,14,1083.2
2551603,1.70215E+12,5,0,,-0.43,-0.3,0.63,9,4,-8,0.52,24213,39.674023,-77.417137,14.03,1083.2
2551643,1.70215E+12,5,0,,-0.41,-0.2,0.71,11,-10,13,0.45,24117,39.674023,-77.417137,13.79,1083.2
2551683,1.70215E+12,5,0,,-0.4,0.13,0.97,10,1,7,0.42,24021,39.674026,-77.417137,13.79,1083.3
2551723,1.70215E+12,5,0,,-0.46,-0.03,0.8,9,11,-7,0.46,23925,39.674026,-77.417145,14.73,1083.4
2551763,1.70215E+12,5,0,,0.13,-0.13,0.58,8,8,6,0.19,23829,39.67403,-77.417145,14.33,1083.4
2551803,1.70215E+12,5,0,,-0.37,-0.34,0.68,9,0,-6,0.5,23734,39.67403,-77.417145,14.37,1083.4
2551843,1.70215E+12,5,0,,-0.22,-0.21,0.91,12,-8,-1,0.31,23639,39.674034,-77.417152,14.07,1083.4
2551883,1.70215E+12,5,0,,-0.14,-0.19,1.04,15,1,6,0.23,23545,39.674034,-77.417152,14.79,1083.4
2551923,1.70215E+12,5,0,,-0.18,-0.05,0.41,15,3,7,0.19,23451,39.674034,-77.417152,14.94,1083.5
2551963,1.70215E+12,5,0,,0.04,0.12,0.99,15,5,10,0.13,23357,39.674034,-77.41716,14.74,1083.5
2552003,1.70215E+12,5,0,,-0.03,0.15,1.1,12,2,-13,0.16,23264,39.674038,-77.41716,14.98,1083.5
2552043,1.70215E+12,5,0,12.95,0.35,0.02,0.91,12,9,-12,0.35,23171,39.674042,-77.41716,14.98,1083.5
2552083,1.70215E+12,5,0,,0.01,-0.44,0.76,13,5,1,0.44,23079,39.674042,-77.417168,15.23,1083.5
2552123,1.70215E+12,0,0,,0.16,-0.02,0.56,12,1,14,0.16,22986,39.674046,-77.417168,15.1,1083.5
2552163,1.70215E+12,0,0,,-0.07,-0.05,0.81,10,-7,18,0.09,22895,39.674046,-77.417168,15.07,1083.5
2552203,1.70215E+12,0,0,,0.28,0.52,0.84,6,-2,-10,0.6,22803,39.674049,-77.417175,15.5,1083.5
2552243,1.70215E+12,0,0,,-0.06,-0.53,0.53,4,-8,-8,0.53,22712,39.674053,-77.417175,15.78,1083.6
2552283,1.70215E+12,0,0,,0.28,-0.04,1.25,7,-6,2,0.29,22622,39.674053,-77.417175,15.9,1083.6
2552323,1.70215E+12,0,0,,0.06,-0.13,1.26,7,3,2,0.15,22531,39.674053,-77.417175,15.83,1083.6
2552363,1.70215E+12,5,0,,0.21,-0.01,0.75,4,8,8,0.21,22441,39.674053,-77.417175,15.88,1083.6
2552403,1.70215E+12,5,0,,-0.23,-0.06,0.04,3,-3,-1,0.24,22352,39.674057,-77.417175,15.8,1083.6
2552443,1.70215E+12,5,0,,0.35,-0.13,1.12,0,0,-4,0.37,22263,39.674061,-77.417183,15.91,1083.6
2552483,1.70215E+12,5,0,,0.04,-0.48,0.72,3,5,4,0.48,22174,39.674061,-77.417183,16.18,1083.7
2552523,1.70215E+12,0,0,,-0.05,0.15,0.76,4,7,9,0.15,22085,39.674065,-77.417183,16.07,1083.7
2552563,1.70215E+12,0,0,,-0.08,0.19,0.58,1,-5,4,0.21,21997,39.674068,-77.417191,16.39,1083.8
2552603,1.70215E+12,0,0,,-0.07,0.51,1.23,2,2,-7,0.51,21909,39.674068,-77.417191,16.43,1083.8
2552643,1.70215E+12,5,0,,0.04,0.39,0.41,-6,12,-20,0.39,21822,39.674072,-77.417191,16.66,1083.8
2552683,1.70215E+12,5,0,,-0.43,-0.32,0.24,-2,0,-1,0.54,21735,39.674072,-77.417198,16.52,1083.8
2552723,1.70215E+12,5,0,,-0.19,-0.02,1.07,-3,-6,1,0.19,21648,39.674072,-77.417198,16.45,1083.8
2552763,1.70215E+12,0,0,,-0.2,0.2,0.98,-2,-2,9,0.28,21561,39.674076,-77.417198,16.93,1083.9
2552803,1.70215E+12,0,0,,-0.53,0.21,1.2,-3,5,13,0.57,21475,39.674076,-77.417206,17.33,1083.9
2552843,1.70215E+12,0,0,,-0.12,0.67,0.65,-6,10,-6,0.68,21390,39.67408,-77.417206,16.97,1083.9
2552883,1.70215E+12,0,0,,-0.4,-0.07,-0.09,-9,6,-11,0.41,21304,39.674084,-77.417206,17.32,1083.9
2552923,1.70215E+12,0,0,,-0.61,-0.52,0.31,-6,-14,-22,0.8,21219,39.674084,-77.417213,16.99,1083.9
2552963,1.70215E+12,0,0,,-0.13,0.05,0.93,1,-7,15,0.14,21134,39.674088,-77.417213,17.12,1083.9
2553003,1.70215E+12,0,0,,-0.01,0.54,1.17,0,-12,21,0.54,21050,39.674091,-77.417213,17.44,1083.9
2553043,1.70215E+12,0,0,12.66,-0.37,0.07,1.48,-3,-10,12,0.37,20966,39.674095,-77.417213,17.9,1084
2553083,1.70215E+12,0,0,,0.03,0.76,1.17,-12,10,-29,0.76,20882,39.674095,-77.417213,18.03,1084
2553123,1.70215E+12,0,0,,-0.18,-0.51,0.35,-8,22,-18,0.54,20799,39.674095,-77.417221,17.65,1084.1
2553163,1.70215E+12,0,0,,-0.38,-0.86,0.4,6,16,16,0.94,20716,39.674099,-77.417221,17.19,1084
2553203,1.70215E+12,0,0,,-0.69,0.05,-0.03,10,8,11,0.7,20633,39.674099,-77.417229,17.17,1084
2553243,1.70215E+12,0,0,,-0.21,0.11,0.69,5,-13,8,0.24,20551,39.674103,-77.417229,17.54,1084
2553283,1.70215E+12,0,0,,-0.26,0.06,1.36,6,-8,-26,0.27,20469,39.674107,-77.417229,17.85,1084.1
2553323,1.70215E+12,0,0,,-0.68,-0.75,0.53,8,-3,-24,1.01,20387,39.674107,-77.417236,18.53,1084.1
2553363,1.70215E+12,0,0,,-0.44,-0.63,0.51,14,3,13,0.77,20306,39.67411,-77.417236,18.26,1084.1
2553403,1.70215E+12,0,0,,-0.44,0.23,0.9,14,3,25,0.5,20225,39.674114,-77.417244,18.34,1084.1
2553443,1.70215E+12,0,0,,-0.96,0.07,1.22,8,11,11,0.96,20144,39.674114,-77.417244,18.26,1084.2
2553483,1.70215E+12,0,0,,-1.07,-0.11,0.7,3,-2,-13,1.07,20063,39.674114,-77.417244,18.39,1084.2
2553523,1.70215E+12,0,0,,-0.78,-0.2,0.66,1,-13,-17,0.81,19983,39.674118,-77.417252,18.27,1084.2
2553563,1.70215E+12,0,0,,-0.27,-0.33,0.56,4,-19,9,0.42,19904,39.674122,-77.417252,18.32,1084.2
2553603,1.70215E+12,0,0,,-0.4,-0.55,1.04,6,-26,25,0.68,19824,39.674122,-77.417252,18.83,1084.2
2553643,1.70215E+12,0,0,,-0.48,-0.1,0.93,5,-15,21,0.49,19745,39.674126,-77.417252,18.87,1084.2
2553683,1.70215E+12,0,0,,0,0.31,0.99,-5,-3,-9,0.31,19666,39.67413,-77.417252,19.34,1084.3
2553723,1.70215E+12,0,0,,0.32,0.31,1.29,-7,7,-15,0.44,19588,39.674133,-77.417259,19.01,1084.3
2553763,1.70215E+12,0,0,,0.28,-0.18,0.96,-2,13,2,0.33,19509,39.674133,-77.417259,18.8,1084.3
2553803,1.70215E+12,0,0,,0.25,-0.76,0.86,0,6,25,0.8,19432,39.674133,-77.417267,18.52,1084.3
2553843,1.70215E+12,0,0,,0.07,0.29,1.12,1,2,16,0.3,19354,39.674137,-77.417267,18.65,1084.3
2553883,1.70215E+12,0,0,,-0.02,-0.02,1.61,-4,5,-16,0.03,19277,39.674141,-77.417267,19.11,1084.3
2553923,1.70215E+12,0,0,,0.13,-0.59,0.57,2,8,-7,0.6,19200,39.674141,-77.417274,19.07,1084.4
2553963,1.70215E+12,0,0,,0.12,0.22,0.74,7,6,11,0.25,19123,39.674145,-77.417274,18.9,1084.4
2554003,1.70215E+12,0,0,,0.15,0.3,0.19,1,-3,15,0.34,19047,39.674149,-77.417282,18.91,1084.4
2554043,1.70215E+12,0,0,12.9,0.04,-0.41,0.65,-1,-9,-7,0.42,18971,39.674152,-77.417282,19.52,1084.6
2554083,1.70215E+12,5,0,,-0.05,-0.76,0.97,5,-19,-5,0.76,18895,39.674152,-77.417282,19.5,1084.5
2554123,1.70215E+12,0,0,,-0.28,-0.13,0.86,4,0,13,0.31,18820,39.674152,-77.41729,19.83,1084.6
2554163,1.70215E+12,0,0,,0.02,0.35,1.18,2,11,2,0.35,18744,39.674156,-77.41729,19.74,1084.7
2554203,1.70215E+12,5,0,,0.11,0.24,1.06,3,17,-6,0.26,18670,39.67416,-77.417297,19.73,1084.7
2554243,1.70215E+12,0,0,,0.18,-0.04,1.18,8,15,1,0.18,18595,39.674164,-77.417297,19.26,1084.7
2554283,1.70215E+12,5,0,,0.02,0.45,1.03,13,5,0,0.45,18521,39.674164,-77.417297,19.18,1084.8
2554323,1.70215E+12,5,0,,-0.26,-0.09,-0.09,11,-9,-8,0.27,18447,39.674168,-77.417297,19.25,1084.8
2554363,1.70215E+12,0,0,,-0.29,-0.6,0.48,12,-17,9,0.66,18373,39.674171,-77.417297,19.75,1084.8
2554403,1.70215E+12,0,0,,-0.39,-0.67,0.37,15,-17,2,0.78,18300,39.674171,-77.417305,19.97,1084.9
2554443,1.70215E+12,5,0,,-0.21,0.13,0.92,17,-15,-10,0.25,18227,39.674175,-77.417305,20.35,1084.9
2554483,1.70215E+12,0,0,,0.04,-0.43,1.25,13,0,-37,0.43,18154,39.674175,-77.417305,20.45,1085
2554523,1.70215E+12,5,0,,-0.15,-0.42,0.65,26,11,-6,0.45,18082,39.674179,-77.417313,20.51,1085
2554563,1.70215E+12,0,0,,-0.28,0.35,0.7,27,5,12,0.45,18009,39.674183,-77.417313,19.98,1085
2554603,1.70215E+12,0,0,,-0.37,-0.07,0.97,25,5,6,0.37,17938,39.674187,-77.41732,19.77,1085.1
2554643,1.70215E+12,5,0,,-0.43,0.23,1.01,21,5,-31,0.49,17866,39.67419,-77.41732,19.96,1085
2554683,1.70215E+12,0,0,,-0.6,-0.43,0.66,20,-8,-16,0.74,17795,39.67419,-77.41732,20.22,1085
2554723,1.70215E+12,5,0,,-0.68,-0.37,1.09,23,-4,10,0.78,17724,39.674194,-77.417328,20.11,1085
2554763,1.70215E+12,0,0,,-0.58,-0.44,1.49,24,3,5,0.72,17653,39.674194,-77.417328,20.72,1085
2554803,1.70215E+12,0,0,,-0.29,-0.37,1.25,23,12,-5,0.47,17582,39.674198,-77.417336,20.72,1085
2554843,1.70215E+12,5,0,,-0.12,-0.52,0.57,21,14,7,0.53,17512,39.674202,-77.417336,20.26,1085
2554883,1.70215E+12,0,0,,-0.18,-0.05,0.52,13,14,2,0.19,17442,39.674206,-77.417336,19.26,1085
2554923,1.70215E+12,5,0,,-0.03,-0.12,-0.04,3,-7,-5,0.12,17373,39.67421,-77.417336,19.66,1085
2554963,1.70215E+12,0,0,,0.09,-0.78,0.82,0,-30,7,0.78,17303,39.67421,-77.417336,19.69,1085
2555003,1.70215E+12,0,0,,-0.15,0.23,1.12,-4,-27,4,0.27,17234,39.674213,-77.417336,20.54,1085
2555043,1.70215E+12,5,0,12.94,-0.03,0.06,1.43,-11,-13,1,0.06,17165,39.674213,-77.417343,21.19,1085.1
