"Interval"|"ms"|0|0|1,"Utc"|"ms"|0|0|1,"Analog1"|"Volts"|0.0|5.0|200,"Analog2"|"Volts"|0.0|5.0|200,"Analog3"|"Volts"|0.0|5.0|200,"Analog4"|"Volts"|0.0|5.0|200,"Analog5"|"Volts"|0.0|5.0|200,"Analog6"|"Volts"|0.0|5.0|200,"Analog7"|"Volts"|0.0|5.0|200,"Analog8"|"Volts"|0.0|5.0|200,"Battery"|"Volts"|0.0|20.0|1,"AccelX"|"G"|-3.0|3.0|200,"AccelY"|"G"|-3.0|3.0|200,"AccelZ"|"G"|-3.0|3.0|200,"Yaw"|"Deg/Sec"|-120|120|200,"Pitch"|"Deg/Sec"|-120|120|200,"Roll"|"Deg/Sec"|-120|120|200,"Gsum"|"G"|0.0|3.0|200,"RPM"|"rpm"|0|8000|500,"RPM2"|"rpm"|0|8000|500,"Latitude"|"Degrees"|-180.0|180.0|25,"Longitude"|"Degrees"|-180.0|180.0|25,"Speed"|"mph"|0.0|150.0|25,"Altitude"|"ft"|0.0|4000.0|25,"GPSSats"|""|0|20|25,"GPSQual"|""|0|5|25,"GPSDOP"|""|0.0|20.0|25
189,0,,,,,,,,,,,,,,,,,1680,0,,,,,,,
191,0,,,,,,,,,,,,,,,,,1680,0,,,,,,,
193,0,3.73,3.85,4.05,3.99,4.93,0.45,0.55,3.54,,-0.03,0.03,0.91,0,-0,0,0.04,1680,0,,,,,,,
195,0,,,,,,,,,,,,,,,,,1680,0,,,,,,,
197,0,,,,,,,,,,,,,,,,,1680,0,,,,,,,
199,0,,,,,,,,,,,,,,,,,1680,0,,,,,,,
201,0,,,,,,,,,,,,,,,,,1680,0,,,,,,,
203,0,3.7,3.81,4.06,3.96,4.92,0.46,0.55,3.59,,0.0,0.04,1.05,0,0,-0,0.04,1680,0,0.0,0.0,0.0,0.0,0,0,0.0
205,0,,,,,,,,,,,,,,,,,1680,0,,,,,,,
207,0,,,,,,,,,,,,,,,,,1680,0,,,,,,,
209,0,,,,,,,,,,,,,,,,,1680,0,,,,,,,
211,0,,,,,,,,,,,,,,,,,1680,0,,,,,,,
213,0,3.72,3.82,4.03,3.98,4.92,0.4,0.53,3.61,,-0.03,0.01,0.95,0,0,0,0.03,1680,0,,,,,,,
215,0,,,,,,,,,,,,,,,,,1620,0,,,,,,,
217,0,,,,,,,,,,,,,,,,,1620,0,,,,,,,
219,0,,,,,,,,,,,,,,,,,1620,0,,,,,,,
221,0,,,,,,,,,,,,,,,,,1620,0,,,,,,,
223,0,3.74,3.8,4.05,3.9,4.93,0.41,0.5,3.53,,-0.05,0.01,1.0,0,-1,-0,0.05,1620,0,,,,,,,
225,0,,,,,,,,,,,,,,,,,1620,0,,,,,,,
227,0,,,,,,,,,,,,,,,,,1620,0,,,,,,,
229,0,,,,,,,,,,,,,,,,,1620,0,,,,,,,
231,0,,,,,,,,,,,,,,,,,1620,0,,,,,,,
233,0,3.7,3.8,4.0,3.94,4.88,0.46,0.51,3.56,,-0.02,0.01,0.99,0,2,-0,0.02,1620,0,,,,,,,
235,0,,,,,,,,,,,,,,,,,1620,0,,,,,,,
237,0,,,,,,,,,,,,,,,,,1620,0,,,,,,,
239,0,,,,,,,,,,,,,,,,,1620,0,,,,,,,
241,0,,,,,,,,,,,,,,,,,1620,0,,,,,,,
243,0,3.73,3.84,4.04,3.99,4.94,0.45,0.5,3.6,,0.0,0.02,1.01,0,-1,-1,0.02,1620,0,0.0,0.0,0.0,0.0,0,0,0.0
245,0,,,,,,,,,,,,,,,,,1620,0,,,,,,,
247,0,,,,,,,,,,,,,,,,,1620,0,,,,,,,
249,0,,,,,,,,,,,,,,,,,1620,0,,,,,,,
251,0,,,,,,,,,,,,,,,,,1680,0,,,,,,,
253,0,3.71,3.81,4.02,3.97,4.92,0.45,0.46,3.57,,-0.04,0.01,1.03,0,3,-1,0.04,1680,0,,,,,,,
255,0,,,,,,,,,,,,,,,,,1680,0,,,,,,,
257,0,,,,,,,,,,,,,,,,,1680,0,,,,,,,
259,0,,,,,,,,,,,,,,,,,1680,0,,,,,,,
261,0,,,,,,,,,,,,,,,,,1680,0,,,,,,,
263,0,3.7,3.81,4.01,3.97,4.91,0.44,0.48,3.58,,-0.05,0.03,0.94,0,-2,-0,0.05,1680,0,,,,,,,
265,0,,,,,,,,,,,,,,,,,1680,0,,,,,,,
267,0,,,,,,,,,,,,,,,,,1680,0,,,,,,,
269,0,,,,,,,,,,,,,,,,,1680,0,,,,,,,
271,0,,,,,,,,,,,,,,,,,1680,0,,,,,,,
273,0,3.72,3.83,4.01,3.96,4.92,0.45,0.4,3.58,,-0.01,0.03,1.04,0,0,-0,0.04,1680,0,,,,,,,
275,0,,,,,,,,,,,,,,,,,1680,0,,,,,,,
277,0,,,,,,,,,,,,,,,,,1680,0,,,,,,,
279,0,,,,,,,,,,,,,,,,,1680,0,,,,,,,
281,0,,,,,,,,,,,,,,,,,1680,0,,,,,,,
283,0,3.68,3.81,4.01,3.95,4.89,0.41,0.33,3.56,,-0.04,0.02,0.97,0,-1,-0,0.05,1680,0,0.0,0.0,0.0,0.0,0,0,0.0
285,0,,,,,,,,,,,,,,,,,1620,0,,,,,,,
287,0,,,,,,,,,,,,,,,,,1620,0,,,,,,,
289,0,,,,,,,,,,,,,,,,,1620,0,,,,,,,
291,0,,,,,,,,,,,,,,,,,1620,0,,,,,,,
293,0,3.73,3.84,4.04,3.99,4.94,0.43,0.34,3.6,,-0.05,0.01,1.01,0,-0,-1,0.05,1620,0,,,,,,,
295,0,,,,,,,,,,,,,,,,,1620,0,,,,,,,
297,0,,,,,,,,,,,,,,,,,1620,0,,,,,,,
299,0,,,,,,,,,,,,,,,,,1620,0,,,,,,,
301,0,,,,,,,,,,,,,,,,,1620,0,,,,,,,
303,0,3.72,3.82,4.02,3.97,4.91,0.47,0.35,3.59,,-0.03,0.01,0.98,0,1,-0,0.03,1620,0,,,,,,,
305,0,,,,,,,,,,,,,,,,,1620,0,,,,,,,
307,0,,,,,,,,,,,,,,,,,1620,0,,,,,,,
309,0,,,,,,,,,,,,,,,,,1620,0,,,,,,,
311,0,,,,,,,,,,,,,,,,,1620,0,,,,,,,
313,0,3.72,3.83,4.03,3.98,4.93,0.43,0.36,3.59,,-0.0,0.02,1.05,0,-1,-0,0.02,1620,0,,,,,,,
315,0,,,,,,,,,,,,,,,,,1620,0,,,,,,,
317,0,,,,,,,,,,,,,,,,,1620,0,,,,,,,
319,0,,,,,,,,,,,,,,,,,1620,0,,,,,,,
321,0,,,,,,,,,,,,,,,,,1680,0,,,,,,,
323,0,3.72,3.83,4.03,3.98,4.92,0.45,0.37,3.59,,-0.02,0.01,1.02,0,3,-0,0.03,1680,0,0.0,0.0,0.0,0.0,0,0,0.0
325,0,,,,,,,,,,,,,,,,,1680,0,,,,,,,
327,0,,,,,,,,,,,,,,,,,1680,0,,,,,,,
329,0,,,,,,,,,,,,,,,,,1680,0,,,,,,,
331,0,,,,,,,,,,,,,,,,,1680,0,,,,,,,
333,0,3.72,3.83,4.03,3.96,4.92,0.43,0.4,3.59,,-0.06,0.02,0.98,0,-3,-0,0.06,1680,0,,,,,,,
335,0,,,,,,,,,,,,,,,,,1680,0,,,,,,,
337,0,,,,,,,,,,,,,,,,,1680,0,,,,,,,
339,0,,,,,,,,,,,,,,,,,1680,0,,,,,,,
341,0,,,,,,,,,,,,,,,,,1680,0,,,,,,,
343,0,3.69,3.79,4.01,3.95,4.89,0.46,0.37,3.57,,-0.02,0.03,1.0,0,1,0,0.04,1680,0,,,,,,,
345,0,,,,,,,,,,,,,,,,,1680,0,,,,,,,
347,0,,,,,,,,,,,,,,,,,1680,0,,,,,,,
349,0,,,,,,,,,,,,,,,,,1680,0,,,,,,,
351,0,,,,,,,,,,,,,,,,,1680,0,,,,,,,
353,0,3.73,3.84,4.04,3.99,4.93,0.43,0.4,3.6,,-0.04,0.02,0.99,0,-2,-0,0.04,1680,0,,,,,,,
355,0,,,,,,,,,,,,,,,,,1680,0,,,,,,,
357,0,,,,,,,,,,,,,,,,,1620,0,,,,,,,
359,0,,,,,,,,,,,,,,,,,1620,0,,,,,,,
361,0,,,,,,,,,,,,,,,,,1620,0,,,,,,,
363,0,3.71,3.82,4.02,3.97,4.91,0.41,0.39,3.57,,-0.05,0.01,1.0,0,0,-0,0.05,1620,0,0.0,0.0,0.0,0.0,0,0,0.0
365,0,,,,,,,,,,,,,,,,,1620,0,,,,,,,
367,0,,,,,,,,,,,,,,,,,1620,0,,,,,,,
369,0,,,,,,,,,,,,,,,,,1620,0,,,,,,,
371,0,,,,,,,,,,,,,,,,,1620,0,,,,,,,
373,0,3.72,3.83,4.03,3.97,4.91,0.46,0.41,3.59,,-0.04,0.0,0.95,0,0,0,0.04,1620,0,,,,,,,
375,0,,,,,,,,,,,,,,,,,1620,0,,,,,,,
377,0,,,,,,,,,,,,,,,,,1620,0,,,,,,,
379,0,,,,,,,,,,,,,,,,,1620,0,,,,,,,
381,0,,,,,,,,,,,,,,,,,1620,0,,,,,,,
383,0,3.69,3.8,4.0,3.94,4.88,0.42,0.42,3.57,,-0.0,0.02,1.05,0,-2,-0,0.02,1620,0,,,,,,,
385,0,,,,,,,,,,,,,,,,,1620,0,,,,,,,
387,0,,,,,,,,,,,,,,,,,1620,0,,,,,,,
389,0,,,,,,,,,,,,,,,,,1620,0,,,,,,,
391,0,,,,,,,,,,,,,,,,,1620,0,,,,,,,
393,0,3.71,3.82,4.02,3.97,4.93,0.43,0.39,3.57,,0.0,0.0,0.99,0,2,0,0.0,1680,0,,,,,,,
395,0,,,,,,,,,,,,,,,,,1680,0,,,,,,,
397,0,,,,,,,,,,,,,,,,,1680,0,,,,,,,
399,0,,,,,,,,,,,,,,,,,1680,0,,,,,,,
401,0,,,,,,,,,,,,,,,,,1680,0,,,,,,,
403,0,3.73,3.84,4.04,3.99,4.94,0.43,0.41,3.6,,-0.06,0.02,1.0,0,-4,0,0.07,1680,0,0.0,0.0,0.0,0.0,0,0,0.0
405,0,,,,,,,,,,,,,,,,,1680,0,,,,,,,
407,0,,,,,,,,,,,,,,,,,1680,0,,,,,,,
409,0,,,,,,,,,,,,,,,,,1680,0,,,,,,,
411,0,,,,,,,,,,,,,,,,,1680,0,,,,,,,
413,0,3.74,3.83,4.04,3.99,4.94,0.43,0.41,3.6,,-0.02,0.02,0.96,0,1,1,0.03,1680,0,,,,,,,
415,0,,,,,,,,,,,,,,,,,1680,0,,,,,,,
417,0,,,,,,,,,,,,,,,,,1680,0,,,,,,,
419,0,,,,,,,,,,,,,,,,,1680,0,,,,,,,
421,0,,,,,,,,,,,,,,,,,1680,0,,,,,,,
423,0,3.73,3.84,4.04,3.99,4.94,0.43,0.4,3.61,,-0.03,0.03,1.0,-0,-1,-0,0.04,1680,0,,,,,,,
425,0,,,,,,,,,,,,,,,,,1680,0,,,,,,,
427,0,,,,,,,,,,,,,,,,,1680,0,,,,,,,
429,0,,,,,,,,,,,,,,,,,1620,0,,,,,,,
431,0,,,,,,,,,,,,,,,,,1620,0,,,,,,,
433,0,3.73,3.84,4.05,3.99,4.94,0.41,0.42,3.6,,-0.05,0.02,0.99,0,1,0,0.05,1620,0,,,,,,,
435,0,,,,,,,,,,,,,,,,,1620,0,,,,,,,
437,0,,,,,,,,,,,,,,,,,1620,0,,,,,,,
439,0,,,,,,,,,,,,,,,,,1620,0,,,,,,,
441,0,,,,,,,,,,,,,,,,,1620,0,,,,,,,
443,0,3.73,3.84,4.04,3.99,4.93,0.44,0.44,3.6,,-0.05,-0.01,0.94,0,-0,0,0.05,1620,0,0.0,0.0,0.0,0.0,0,0,0.0
445,0,,,,,,,,,,,,,,,,,1620,0,,,,,,,
447,0,,,,,,,,,,,,,,,,,1620,0,,,,,,,
449,0,,,,,,,,,,,,,,,,,1620,0,,,,,,,
451,0,,,,,,,,,,,,,,,,,1620,0,,,,,,,
453,0,3.73,3.83,4.04,3.99,4.92,0.43,0.47,3.6,,-0.01,0.01,1.06,0,-1,-0,0.02,1620,0,,,,,,,
455,0,,,,,,,,,,,,,,,,,1620,0,,,,,,,
457,0,,,,,,,,,,,,,,,,,1620,0,,,,,,,
459,0,,,,,,,,,,,,,,,,,1620,0,,,,,,,
461,0,,,,,,,,,,,,,,,,,1620,0,,,,,,,
463,0,3.72,3.83,4.03,3.98,4.92,0.43,0.4,3.59,,-0.0,0.01,1.01,0,2,1,0.01,1620,0,,,,,,,
465,0,,,,,,,,,,,,,,,,,1680,0,,,,,,,
467,0,,,,,,,,,,,,,,,,,1680,0,,,,,,,
469,0,,,,,,,,,,,,,,,,,1680,0,,,,,,,
471,0,,,,,,,,,,,,,,,,,1680,0,,,,,,,
473,0,3.73,3.84,4.04,3.99,4.94,0.43,0.4,3.6,,-0.07,0.02,1.02,0,-3,0,0.07,1680,0,,,,,,,
475,0,,,,,,,,,,,,,,,,,1680,0,,,,,,,
477,0,,,,,,,,,,,,,,,,,1680,0,,,,,,,
479,0,,,,,,,,,,,,,,,,,1680,0,,,,,,,
481,0,,,,,,,,,,,,,,,,,1680,0,,,,,,,
483,0,3.74,3.84,4.04,3.99,4.94,0.42,0.44,3.61,,-0.03,0.02,0.96,0,1,1,0.04,1680,0,0.0,0.0,0.0,0.0,0,0,0.0
485,0,,,,,,,,,,,,,,,,,1680,0,,,,,,,
487,0,,,,,,,,,,,,,,,,,1680,0,,,,,,,
489,0,,,,,,,,,,,,,,,,,1680,0,,,,,,,
491,0,,,,,,,,,,,,,,,,,1680,0,,,,,,,
493,0,3.71,3.82,4.03,3.97,4.93,0.41,0.41,3.6,,-0.03,0.03,1.03,0,-1,0,0.04,1680,0,,,,,,,
495,0,,,,,,,,,,,,,,,,,1680,0,,,,,,,
497,0,,,,,,,,,,,,,,,,,1680,0,,,,,,,
499,0,,,,,,,,,,,,,,,,,1620,0,,,,,,,
501,0,,,,,,,,,,,,,,,,,1620,0,,,,,,,
503,0,3.73,3.84,4.04,3.99,4.93,0.41,0.43,3.6,,-0.04,0.02,1.0,0,2,0,0.04,1620,0,,,,,,,
505,0,,,,,,,,,,,,,,,,,1620,0,,,,,,,
507,0,,,,,,,,,,,,,,,,,1620,0,,,,,,,
509,0,,,,,,,,,,,,,,,,,1620,0,,,,,,,
511,0,,,,,,,,,,,,,,,,,1620,0,,,,,,,
513,0,3.73,3.84,4.04,3.99,4.93,0.43,0.43,3.6,,-0.05,0.0,0.94,0,-1,1,0.05,1620,0,,,,,,,
515,0,,,,,,,,,,,,,,,,,1620,0,,,,,,,
517,0,,,,,,,,,,,,,,,,,1620,0,,,,,,,
519,0,,,,,,,,,,,,,,,,,1620,0,,,,,,,
521,0,,,,,,,,,,,,,,,,,1620,0,,,,,,,
523,0,3.71,3.82,4.03,3.97,4.93,0.4,0.42,3.58,,-0.01,0.02,1.06,0,-1,0,0.02,1620,0,0.0,0.0,0.0,0.0,0,0,0.0
525,0,,,,,,,,,,,,,,,,,1620,0,,,,,,,
527,0,,,,,,,,,,,,,,,,,1620,0,,,,,,,
529,0,,,,,,,,,,,,,,,,,1620,0,,,,,,,
531,0,,,,,,,,,,,,,,,,,1620,0,,,,,,,
533,0,3.7,3.81,4.01,3.93,4.89,0.4,0.38,3.57,,0.01,0.01,0.96,0,0,1,0.01,1620,0,,,,,,,
535,0,,,,,,,,,,,,,,,,,1680,0,,,,,,,
537,0,,,,,,,,,,,,,,,,,1680,0,,,,,,,
539,0,,,,,,,,,,,,,,,,,1680,0,,,,,,,
541,0,,,,,,,,,,,,,,,,,1680,0,,,,,,,
543,0,3.68,3.79,3.98,3.92,4.87,0.38,0.33,3.56,,-0.07,0.02,1.03,0,-1,0,0.08,1680,0,,,,,,,
545,0,,,,,,,,,,,,,,,,,1680,0,,,,,,,
547,0,,,,,,,,,,,,,,,,,1680,0,,,,,,,
549,0,,,,,,,,,,,,,,,,,1680,0,,,,,,,
551,0,,,,,,,,,,,,,,,,,1680,0,,,,,,,
553,0,3.68,3.79,3.98,3.92,4.87,0.4,0.38,3.55,,-0.03,0.02,0.91,0,1,1,0.04,1680,0,,,,,,,
555,0,,,,,,,,,,,,,,,,,1680,0,,,,,,,
557,0,,,,,,,,,,,,,,,,,1680,0,,,,,,,
559,0,,,,,,,,,,,,,,,,,1680,0,,,,,,,
561,0,,,,,,,,,,,,,,,,,1680,0,,,,,,,
563,0,3.68,3.78,3.98,3.92,4.87,0.39,0.36,3.55,,-0.01,0.03,1.06,0,-1,0,0.03,1680,0,0.0,0.0,0.0,0.0,0,0,0.0
565,0,,,,,,,,,,,,,,,,,1680,0,,,,,,,
567,0,,,,,,,,,,,,,,,,,1680,0,,,,,,,
569,0,,,,,,,,,,,,,,,,,1680,0,,,,,,,
571,0,,,,,,,,,,,,,,,,,1620,0,,,,,,,
573,0,3.68,3.79,3.99,3.93,4.89,0.38,0.36,3.55,,-0.03,0.01,0.97,0,2,0,0.03,1620,0,,,,,,,
575,0,,,,,,,,,,,,,,,,,1620,0,,,,,,,
577,0,,,,,,,,,,,,,,,,,1620,0,,,,,,,
579,0,,,,,,,,,,,,,,,,,1620,0,,,,,,,
581,0,,,,,,,,,,,,,,,,,1620,0,,,,,,,
583,0,3.68,3.79,3.99,3.93,4.87,0.38,0.36,3.55,,-0.05,0.0,0.96,0,-1,0,0.05,1620,0,,,,,,,
585,0,,,,,,,,,,,,,,,,,1620,0,,,,,,,
587,0,,,,,,,,,,,,,,,,,1620,0,,,,,,,
589,0,,,,,,,,,,,,,,,,,1620,0,,,,,,,
591,0,,,,,,,,,,,,,,,,,1620,0,,,,,,,
593,0,3.68,3.79,3.99,3.94,4.88,0.38,0.35,3.55,,-0.01,0.01,1.05,0,1,0,0.02,1620,0,,,,,,,
595,0,,,,,,,,,,,,,,,,,1620,0,,,,,,,
597,0,,,,,,,,,,,,,,,,,1620,0,,,,,,,
599,0,,,,,,,,,,,,,,,,,1620,0,,,,,,,
601,0,,,,,,,,,,,,,,,,,1620,0,,,,,,,
603,0,3.73,3.84,4.05,3.99,4.94,0.39,0.36,3.6,,0.02,0.01,0.96,0,-0,-0,0.02,1620,0,0.0,0.0,0.0,0.0,0,0,0.0
605,0,,,,,,,,,,,,,,,,,1620,0,,,,,,,
607,0,,,,,,,,,,,,,,,,,1680,0,,,,,,,
609,0,,,,,,,,,,,,,,,,,1680,0,,,,,,,
611,0,,,,,,,,,,,,,,,,,1680,0,,,,,,,
613,0,3.72,3.82,4.02,3.97,4.92,0.37,0.33,3.59,,-0.06,0.01,1.04,0,1,-0,0.06,1680,0,,,,,,,
615,0,,,,,,,,,,,,,,,,,1680,0,,,,,,,
617,0,,,,,,,,,,,,,,,,,1680,0,,,,,,,
619,0,,,,,,,,,,,,,,,,,1680,0,,,,,,,
621,0,,,,,,,,,,,,,,,,,1680,0,,,,,,,
623,0,3.71,3.82,4.02,3.97,4.92,0.4,0.38,3.59,,-0.03,0.02,0.89,0,0,0,0.03,1680,0,,,,,,,
625,0,,,,,,,,,,,,,,,,,1680,0,,,,,,,
627,0,,,,,,,,,,,,,,,,,1680,0,,,,,,,
629,0,,,,,,,,,,,,,,,,,1680,0,,,,,,,
631,0,,,,,,,,,,,,,,,,,1680,0,,,,,,,
633,0,3.69,3.8,4.0,3.95,4.91,0.38,0.36,3.58,,0.0,0.03,1.06,0,-0,-0,0.03,1680,0,,,,,,,
635,0,,,,,,,,,,,,,,,,,1680,0,,,,,,,
637,0,,,,,,,,,,,,,,,,,1680,0,,,,,,,
639,0,,,,,,,,,,,,,,,,,1680,0,,,,,,,
641,0,,,,,,,,,,,,,,,,,1680,0,,,,,,,
643,0,3.69,3.8,4.0,3.95,4.91,0.35,0.34,3.56,,-0.02,0.01,0.95,0,1,0,0.03,1620,0,0.0,0.0,0.0,0.0,0,0,0.0
645,0,,,,,,,,,,,,,,,,,1620,0,,,,,,,
647,0,,,,,,,,,,,,,,,,,1620,0,,,,,,,
649,0,,,,,,,,,,,,,,,,,1620,0,,,,,,,
651,0,,,,,,,,,,,,,,,,,1620,0,,,,,,,
653,0,3.69,3.8,4.0,3.95,4.9,0.33,0.31,3.56,,-0.04,0.0,0.98,0,-1,0,0.04,1620,0,,,,,,,
655,0,,,,,,,,,,,,,,,,,1620,0,,,,,,,
657,0,,,,,,,,,,,,,,,,,1620,0,,,,,,,
659,0,,,,,,,,,,,,,,,,,1620,0,,,,,,,
661,0,,,,,,,,,,,,,,,,,1620,0,,,,,,,
663,0,3.69,3.8,4.0,3.94,4.88,0.36,0.34,3.56,,-0.02,0.01,1.02,0,1,0,0.02,1620,0,,,,,,,
665,0,,,,,,,,,,,,,,,,,1620,0,,,,,,,
667,0,,,,,,,,,,,,,,,,,1620,0,,,,,,,
669,0,,,,,,,,,,,,,,,,,1620,0,,,,,,,
671,0,,,,,,,,,,,,,,,,,1620,0,,,,,,,
673,0,3.68,3.79,4.0,3.94,4.88,0.35,0.31,3.55,,0.01,0.02,0.98,0,-1,-1,0.02,1620,0,,,,,,,
675,0,,,,,,,,,,,,,,,,,1620,0,,,,,,,
677,0,,,,,,,,,,,,,,,,,1620,0,,,,,,,
679,0,,,,,,,,,,,,,,,,,1680,0,,,,,,,
681,0,,,,,,,,,,,,,,,,,1680,0,,,,,,,
683,0,3.7,3.82,4.02,3.97,4.91,0.36,0.31,3.58,,-0.06,0.01,1.04,0,2,-1,0.06,1680,0,0.0,0.0,0.0,0.0,0,0,0.0
685,0,,,,,,,,,,,,,,,,,1680,0,,,,,,,
687,0,,,,,,,,,,,,,,,,,1680,0,,,,,,,
689,0,,,,,,,,,,,,,,,,,1680,0,,,,,,,
691,0,,,,,,,,,,,,,,,,,1680,0,,,,,,,
693,0,3.73,3.84,4.04,3.99,4.93,0.35,0.36,3.59,,-0.04,0.03,0.9,0,-1,-0,0.05,1680,0,,,,,,,
695,0,,,,,,,,,,,,,,,,,1680,0,,,,,,,
697,0,,,,,,,,,,,,,,,,,1680,0,,,,,,,
699,0,,,,,,,,,,,,,,,,,1680,0,,,,,,,
701,0,,,,,,,,,,,,,,,,,1680,0,,,,,,,
703,0,3.68,3.78,3.98,3.92,4.88,0.32,0.36,3.56,,-0.0,0.04,1.06,0,0,-0,0.04,1680,0,,,,,,,
705,0,,,,,,,,,,,,,,,,,1680,0,,,,,,,
707,0,,,,,,,,,,,,,,,,,1680,0,,,,,,,
709,0,,,,,,,,,,,,,,,,,1680,0,,,,,,,
711,0,,,,,,,,,,,,,,,,,1680,0,,,,,,,
713,0,3.71,3.82,4.02,3.96,4.9,0.32,0.32,3.58,,-0.03,0.01,0.96,0,-0,-0,0.03,1680,0,,,,,,,
715,0,,,,,,,,,,,,,,,,,1620,0,,,,,,,
717,0,,,,,,,,,,,,,,,,,1620,0,,,,,,,
719,0,,,,,,,,,,,,,,,,,1620,0,,,,,,,
721,0,,,,,,,,,,,,,,,,,1620,0,,,,,,,
723,0,3.72,3.83,4.03,3.98,4.91,0.3,0.3,3.6,,-0.05,0.01,1.0,0,-1,-0,0.05,1620,0,0.0,0.0,0.0,0.0,0,0,0.0
725,0,,,,,,,,,,,,,,,,,1620,0,,,,,,,
727,0,,,,,,,,,,,,,,,,,1620,0,,,,,,,
729,0,,,,,,,,,,,,,,,,,1620,0,,,,,,,
731,0,,,,,,,,,,,,,,,,,1620,0,,,,,,,
733,0,3.73,3.83,4.04,3.99,4.93,0.35,0.35,3.6,,-0.02,0.01,1.0,0,1,0,0.03,1620,0,,,,,,,
735,0,,,,,,,,,,,,,,,,,1620,0,,,,,,,
737,0,,,,,,,,,,,,,,,,,1620,0,,,,,,,
739,0,,,,,,,,,,,,,,,,,1620,0,,,,,,,
741,0,,,,,,,,,,,,,,,,,1620,0,,,,,,,
743,0,3.73,3.83,4.04,3.99,4.94,0.31,0.33,3.6,,0.0,0.02,1.01,0,-1,-1,0.02,1620,0,,,,,,,
745,0,,,,,,,,,,,,,,,,,1620,0,,,,,,,
747,0,,,,,,,,,,,,,,,,,1620,0,,,,,,,
749,0,,,,,,,,,,,,,,,,,1620,0,,,,,,,
751,0,,,,,,,,,,,,,,,,,1680,0,,,,,,,
753,0,3.73,3.84,4.04,3.99,4.94,0.33,0.34,3.61,,-0.05,0.01,1.05,0,3,-1,0.05,1680,0,,,,,,,
755,0,,,,,,,,,,,,,,,,,1680,0,,,,,,,
757,0,,,,,,,,,,,,,,,,,1680,0,,,,,,,
759,0,,,,,,,,,,,,,,,,,1680,0,,,,,,,
761,0,,,,,,,,,,,,,,,,,1680,0,,,,,,,
763,0,3.72,3.83,4.03,3.98,4.94,0.32,0.37,3.6,,-0.05,0.03,0.93,0,-2,-0,0.05,1680,0,0.0,0.0,0.0,0.0,0,0,0.0
765,0,,,,,,,,,,,,,,,,,1680,0,,,,,,,
767,0,,,,,,,,,,,,,,,,,1680,0,,,,,,,
769,0,,,,,,,,,,,,,,,,,1680,0,,,,,,,
771,0,,,,,,,,,,,,,,,,,1680,0,,,,,,,
773,0,3.72,3.83,4.03,3.98,4.93,0.32,0.36,3.59,,-0.01,0.04,1.05,0,1,-0,0.04,1680,0,,,,,,,
775,0,,,,,,,,,,,,,,,,,1680,0,,,,,,,
777,0,,,,,,,,,,,,,,,,,1680,0,,,,,,,
779,0,,,,,,,,,,,,,,,,,1680,0,,,,,,,
781,0,,,,,,,,,,,,,,,,,1680,0,,,,,,,
783,0,3.72,3.83,4.03,3.98,4.93,0.28,0.33,3.58,,-0.04,0.01,0.96,0,-1,-0,0.04,1680,0,,,,,,,
785,0,,,,,,,,,,,,,,,,,1620,0,,,,,,,
787,0,,,,,,,,,,,,,,,,,1620,0,,,,,,,
789,0,,,,,,,,,,,,,,,,,1620,0,,,,,,,
791,0,,,,,,,,,,,,,,,,,1620,0,,,,,,,
793,0,3.69,3.79,4.0,3.94,4.88,0.26,0.29,3.56,,-0.05,0.0,1.01,0,-0,-0,0.05,1620,0,,,,,,,
795,0,,,,,,,,,,,,,,,,,1620,0,,,,,,,
797,0,,,,,,,,,,,,,,,,,1620,0,,,,,,,
799,0,,,,,,,,,,,,,,,,,1620,0,,,,,,,
801,0,,,,,,,,,,,,,,,,,1620,0,,,,,,,
803,0,3.69,3.79,4.0,3.92,4.88,0.31,0.31,3.55,,-0.03,0.0,0.98,0,1,0,0.03,1620,0,0.0,0.0,0.0,0.0,0,0,0.0
805,0,,,,,,,,,,,,,,,,,1620,0,,,,,,,
807,0,,,,,,,,,,,,,,,,,1620,0,,,,,,,
809,0,,,,,,,,,,,,,,,,,1620,0,,,,,,,
811,0,,,,,,,,,,,,,,,,,1620,0,,,,,,,
813,0,3.73,3.84,4.04,3.99,4.93,0.3,0.34,3.6,,-0.0,0.02,1.03,0,-1,-0,0.02,1620,0,,,,,,,
815,0,,,,,,,,,,,,,,,,,1620,0,,,,,,,
817,0,,,,,,,,,,,,,,,,,1620,0,,,,,,,
819,0,,,,,,,,,,,,,,,,,1620,0,,,,,,,
821,0,,,,,,,,,,,,,,,,,1680,0,,,,,,,
823,0,3.73,3.84,4.04,3.99,4.93,0.31,0.33,3.6,,-0.03,0.01,1.03,0,2,-1,0.04,1680,0,,,,,,,
825,0,,,,,,,,,,,,,,,,,1680,0,,,,,,,
827,0,,,,,,,,,,,,,,,,,1680,0,,,,,,,
829,0,,,,,,,,,,,,,,,,,1680,0,,,,,,,
831,0,,,,,,,,,,,,,,,,,1680,0,,,,,,,
833,0,3.72,3.83,4.03,3.98,4.92,0.31,0.34,3.59,,-0.06,0.02,0.95,0,-3,-0,0.06,1680,0,,,,,,,
835,0,,,,,,,,,,,,,,,,,1680,0,,,,,,,
837,0,,,,,,,,,,,,,,,,,1680,0,,,,,,,
839,0,,,,,,,,,,,,,,,,,1680,0,,,,,,,
841,0,,,,,,,,,,,,,,,,,1680,0,,,,,,,
843,0,3.68,3.79,3.98,3.92,4.87,0.3,0.31,3.55,,-0.02,0.02,1.02,0,1,0,0.03,1680,0,0.0,0.0,0.0,0.0,0,0,0.0
845,0,,,,,,,,,,,,,,,,,1680,0,,,,,,,
847,0,,,,,,,,,,,,,,,,,1680,0,,,,,,,
849,0,,,,,,,,,,,,,,,,,1680,0,,,,,,,
851,0,,,,,,,,,,,,,,,,,1680,0,,,,,,,
853,0,3.73,3.84,4.04,3.99,4.93,0.3,0.35,3.6,,-0.04,0.02,0.96,0,-2,-0,0.04,1680,0,,,,,,,
855,0,,,,,,,,,,,,,,,,,1680,0,,,,,,,
857,0,,,,,,,,,,,,,,,,,1620,0,,,,,,,
859,0,,,,,,,,,,,,,,,,,1620,0,,,,,,,
861,0,,,,,,,,,,,,,,,,,1620,0,,,,,,,
863,0,3.69,3.8,4.0,3.94,4.9,0.29,0.34,3.57,,-0.05,0.01,1.0,0,1,-0,0.05,1620,0,,,,,,,
865,0,,,,,,,,,,,,,,,,,1620,0,,,,,,,
867,0,,,,,,,,,,,,,,,,,1620,0,,,,,,,
869,0,,,,,,,,,,,,,,,,,1620,0,,,,,,,
871,0,,,,,,,,,,,,,,,,,1620,0,,,,,,,
873,0,3.73,3.84,4.04,3.98,4.94,0.34,0.37,3.6,,-0.03,0.0,0.96,0,0,0,0.03,1620,0,,,,,,,
875,0,,,,,,,,,,,,,,,,,1620,0,,,,,,,
877,0,,,,,,,,,,,,,,,,,1620,0,,,,,,,
879,0,,,,,,,,,,,,,,,,,1620,0,,,,,,,
881,0,,,,,,,,,,,,,,,,,1620,0,,,,,,,
883,0,3.69,3.82,4.02,3.96,4.9,0.31,0.36,3.57,,0.0,0.02,1.05,0,-2,-0,0.02,1620,0,0.0,0.0,0.0,0.0,0,0,0.0
885,0,,,,,,,,,,,,,,,,,1620,0,,,,,,,
887,0,,,,,,,,,,,,,,,,,1620,0,,,,,,,
889,0,,,,,,,,,,,,,,,,,1620,0,,,,,,,
891,0,,,,,,,,,,,,,,,,,1620,0,,,,,,,
893,0,3.71,3.82,4.02,3.97,4.93,0.33,0.32,3.59,,-0.0,0.01,1.01,0,2,0,0.01,1680,0,,,,,,,
895,0,,,,,,,,,,,,,,,,,1680,0,,,,,,,
897,0,,,,,,,,,,,,,,,,,1680,0,,,,,,,
899,0,,,,,,,,,,,,,,,,,1680,0,,,,,,,
901,0,,,,,,,,,,,,,,,,,1680,0,,,,,,,
903,0,3.73,3.83,4.04,3.98,4.92,0.32,0.32,3.59,,-0.06,0.02,0.99,0,-3,0,0.06,1680,0,,,,,,,
905,0,,,,,,,,,,,,,,,,,1680,0,,,,,,,
907,0,,,,,,,,,,,,,,,,,1680,0,,,,,,,
909,0,,,,,,,,,,,,,,,,,1680,0,,,,,,,
911,0,,,,,,,,,,,,,,,,,1680,0,,,,,,,
913,0,3.73,3.84,4.04,3.99,4.93,0.34,0.33,3.6,,-0.02,0.03,0.99,0,1,1,0.03,1680,0,,,,,,,
915,0,,,,,,,,,,,,,,,,,1680,0,,,,,,,
917,0,,,,,,,,,,,,,,,,,1680,0,,,,,,,
919,0,,,,,,,,,,,,,,,,,1680,0,,,,,,,
921,0,,,,,,,,,,,,,,,,,1680,0,,,,,,,
923,0,3.68,3.78,3.98,3.92,4.88,0.31,0.27,3.55,,-0.03,0.03,1.01,-0,-1,0,0.04,1680,0,0.0,0.0,0.0,0.0,0,0,0.0
925,0,,,,,,,,,,,,,,,,,1680,0,,,,,,,
927,0,,,,,,,,,,,,,,,,,1680,0,,,,,,,
929,0,,,,,,,,,,,,,,,,,1620,0,,,,,,,
931,0,,,,,,,,,,,,,,,,,1620,0,,,,,,,
933,0,3.73,3.84,4.04,3.99,4.93,0.29,0.32,3.6,,-0.04,0.02,1.01,0,2,0,0.05,1620,0,,,,,,,
935,0,,,,,,,,,,,,,,,,,1620,0,,,,,,,
937,0,,,,,,,,,,,,,,,,,1620,0,,,,,,,
939,0,,,,,,,,,,,,,,,,,1620,0,,,,,,,
941,0,,,,,,,,,,,,,,,,,1620,0,,,,,,,
943,0,3.7,3.81,4.03,3.97,4.91,0.34,0.32,3.58,,-0.04,0.01,0.95,0,-0,0,0.04,1620,0,,,,,,,
945,0,,,,,,,,,,,,,,,,,1620,0,,,,,,,
947,0,,,,,,,,,,,,,,,,,1620,0,,,,,,,
949,0,,,,,,,,,,,,,,,,,1620,0,,,,,,,
951,0,,,,,,,,,,,,,,,,,1620,0,,,,,,,
953,0,3.73,3.84,4.04,3.99,4.94,0.31,0.37,3.61,,-0.01,0.02,1.06,0,-1,0,0.02,1620,0,,,,,,,
955,0,,,,,,,,,,,,,,,,,1620,0,,,,,,,
957,0,,,,,,,,,,,,,,,,,1620,0,,,,,,,
959,0,,,,,,,,,,,,,,,,,1620,0,,,,,,,
961,0,,,,,,,,,,,,,,,,,1620,0,,,,,,,
963,0,3.71,3.82,4.02,3.97,4.9,0.3,0.31,3.57,,0.01,0.01,0.99,0,1,1,0.02,1620,0,0.0,0.0,0.0,0.0,0,0,0.0
965,0,,,,,,,,,,,,,,,,,1680,0,,,,,,,
967,0,,,,,,,,,,,,,,,,,1680,0,,,,,,,
969,0,,,,,,,,,,,,,,,,,1680,0,,,,,,,
971,0,,,,,,,,,,,,,,,,,1680,0,,,,,,,
973,0,3.72,3.83,4.03,3.98,4.94,0.3,0.3,3.59,,-0.07,0.02,1.02,0,-3,0,0.07,1680,0,,,,,,,
975,0,,,,,,,,,,,,,,,,,1680,0,,,,,,,
977,0,,,,,,,,,,,,,,,,,1680,0,,,,,,,
979,0,,,,,,,,,,,,,,,,,1680,0,,,,,,,
981,0,,,,,,,,,,,,,,,,,1680,0,,,,,,,
983,0,3.72,3.83,4.03,3.98,4.92,0.3,0.35,3.59,,-0.03,0.02,0.94,0,1,1,0.04,1680,0,,,,,,,
985,0,,,,,,,,,,,,,,,,,1680,0,,,,,,,
987,0,,,,,,,,,,,,,,,,,1680,0,,,,,,,
989,0,,,,,,,,,,,,,,,,,1680,0,,,,,,,
991,0,,,,,,,,,,,,,,,,,1680,0,,,,,,,
993,0,3.74,3.84,4.05,3.99,4.94,0.28,0.33,3.6,,-0.02,0.03,1.04,0,-1,0,0.03,1680,0,,,,,,,
995,0,,,,,,,,,,,,,,,,,1680,0,,,,,,,
997,0,,,,,,,,,,,,,,,,,1680,0,,,,,,,
999,0,,,,,,,,,,,,,,,,,1680,0,,,,,,,
1001,0,,,,,,,,,,,,,,,,,1620,0,,,,,,,
1003,0,3.68,3.78,3.99,3.92,4.87,0.25,0.31,3.55,,-0.04,0.01,0.98,0,2,0,0.04,1620,0,0.0,0.0,0.0,0.0,0,0,0.0
1005,0,,,,,,,,,,,,,,,,,1620,0,,,,,,,
1007,0,,,,,,,,,,,,,,,,,1620,0,,,,,,,
1009,0,,,,,,,,,,,,,,,,,1620,0,,,,,,,
1011,0,,,,,,,,,,,,,,,,,1620,0,,,,,,,
1013,0,3.7,3.81,3.99,3.94,4.9,0.27,0.33,3.57,,-0.05,-0.0,0.94,0,-1,1,0.05,1620,0,,,,,,,
1015,0,,,,,,,,,,,,,,,,,1620,0,,,,,,,
1017,0,,,,,,,,,,,,,,,,,1620,0,,,,,,,
1019,0,,,,,,,,,,,,,,,,,1620,0,,,,,,,
1021,0,,,,,,,,,,,,,,,,,1620,0,,,,,,,
1023,0,3.73,3.84,4.04,3.99,4.93,0.28,0.34,3.6,,-0.02,0.01,1.05,0,-0,0,0.02,1620,0,,,,,,,
1025,0,,,,,,,,,,,,,,,,,1620,0,,,,,,,
1027,0,,,,,,,,,,,,,,,,,1620,0,,,,,,,
1029,0,,,,,,,,,,,,,,,,,1620,0,,,,,,,
1031,0,,,,,,,,,,,,,,,,,1620,0,,,,,,,
1033,0,3.68,3.79,3.99,3.94,4.89,0.26,0.3,3.57,,0.01,0.01,0.97,0,0,0,0.01,1620,0,,,,,,,
1035,0,,,,,,,,,,,,,,,,,1620,0,,,,,,,
1037,0,,,,,,,,,,,,,,,,,1680,0,,,,,,,
1039,0,,,,,,,,,,,,,,,,,1680,0,,,,,,,
1041,0,,,,,,,,,,,,,,,,,1680,0,,,,,,,
1043,0,3.72,3.82,4.03,3.97,4.91,0.26,0.28,3.59,13.48,-0.07,0.02,1.04,0,-1,0,0.07,1680,0,0.0,0.0,0.0,0.0,0,0,0.0
1045,0,,,,,,,,,,,,,,,,,1680,0,,,,,,,
1047,0,,,,,,,,,,,,,,,,,1680,0,,,,,,,
1049,0,,,,,,,,,,,,,,,,,1680,0,,,,,,,
1051,0,,,,,,,,,,,,,,,,,1680,0,,,,,,,
1053,0,3.73,3.84,4.04,3.99,4.94,0.29,0.36,3.6,,-0.03,0.02,0.91,0,1,1,0.04,1680,0,,,,,,,
1055,0,,,,,,,,,,,,,,,,,1680,0,,,,,,,
1057,0,,,,,,,,,,,,,,,,,1680,0,,,,,,,
1059,0,,,,,,,,,,,,,,,,,1680,0,,,,,,,
1061,0,,,,,,,,,,,,,,,,,1680,0,,,,,,,
1063,0,3.68,3.79,3.98,3.92,4.88,0.27,0.32,3.56,,-0.01,0.03,1.07,0,-1,0,0.03,1680,0,,,,,,,
1065,0,,,,,,,,,,,,,,,,,1680,0,,,,,,,
1067,0,,,,,,,,,,,,,,,,,1680,0,,,,,,,
1069,0,,,,,,,,,,,,,,,,,1680,0,,,,,,,
1071,0,,,,,,,,,,,,,,,,,1620,0,,,,,,,
1073,0,3.73,3.84,4.05,3.99,4.94,0.27,0.36,3.6,,-0.03,0.01,0.97,0,2,0,0.03,1620,0,,,,,,,
1075,0,,,,,,,,,,,,,,,,,1620,0,,,,,,,
1077,0,,,,,,,,,,,,,,,,,1620,0,,,,,,,
1079,0,,,,,,,,,,,,,,,,,1620,0,,,,,,,
1081,0,,,,,,,,,,,,,,,,,1620,0,,,,,,,
1083,0,3.68,3.81,4.01,3.95,4.89,0.27,0.34,3.56,,-0.05,0.0,0.97,0,-1,1,0.05,1620,0,0.0,0.0,0.0,0.0,0,0,0.0
1085,0,,,,,,,,,,,,,,,,,1620,0,,,,,,,
1087,0,,,,,,,,,,,,,,,,,1620,0,,,,,,,
1089,0,,,,,,,,,,,,,,,,,1620,0,,,,,,,
1091,0,,,,,,,,,,,,,,,,,1620,0,,,,,,,
1093,0,3.71,3.82,4.02,3.97,4.93,0.28,0.37,3.6,,-0.01,0.02,1.04,0,1,0,0.02,1620,0,,,,,,,
1095,0,,,,,,,,,,,,,,,,,1620,0,,,,,,,
1097,0,,,,,,,,,,,,,,,,,1620,0,,,,,,,
1099,0,,,,,,,,,,,,,,,,,1620,0,,,,,,,
1101,0,,,,,,,,,,,,,,,,,1620,0,,,,,,,
1103,0,3.72,3.83,4.03,3.97,4.91,0.28,0.36,3.58,,0.01,0.01,0.97,0,-0,-0,0.02,1620,0,,,,,,,
1105,0,,,,,,,,,,,,,,,,,1620,0,,,,,,,
1107,0,,,,,,,,,,,,,,,,,1680,0,,,,,,,
1109,0,,,,,,,,,,,,,,,,,1680,0,,,,,,,
1111,0,,,,,,,,,,,,,,,,,1680,0,,,,,,,
1113,0,3.73,3.84,4.04,3.99,4.92,0.28,0.36,3.6,,-0.06,0.01,1.04,0,0,-0,0.06,1680,0,,,,,,,
1115,0,,,,,,,,,,,,,,,,,1680,0,,,,,,,
1117,0,,,,,,,,,,,,,,,,,1680,0,,,,,,,
1119,0,,,,,,,,,,,,,,,,,1680,0,,,,,,,
1121,0,,,,,,,,,,,,,,,,,1680,0,,,,,,,
1123,0,3.69,3.8,4.0,3.94,4.9,0.26,0.38,3.56,,-0.03,0.03,0.9,0,0,0,0.04,1680,0,0.0,0.0,0.0,0.0,0,0,0.0
1125,0,,,,,,,,,,,,,,,,,1680,0,,,,,,,
1127,0,,,,,,,,,,,,,,,,,1680,0,,,,,,,
1129,0,,,,,,,,,,,,,,,,,1680,0,,,,,,,
1131,0,,,,,,,,,,,,,,,,,1680,0,,,,,,,
1133,0,3.73,3.84,4.04,3.99,4.93,0.3,0.4,3.6,,0.0,0.04,1.06,0,-0,-0,0.04,1680,0,,,,,,,
1135,0,,,,,,,,,,,,,,,,,1680,0,,,,,,,
1137,0,,,,,,,,,,,,,,,,,1680,0,,,,,,,
1139,0,,,,,,,,,,,,,,,,,1680,0,,,,,,,
1141,0,,,,,,,,,,,,,,,,,1680,0,,,,,,,
1143,0,3.71,3.82,4.0,3.95,4.91,0.26,0.34,3.58,,-0.02,0.01,0.96,0,1,0,0.03,1620,0,,,,,,,
1145,0,,,,,,,,,,,,,,,,,1620,0,,,,,,,
1147,0,,,,,,,,,,,,,,,,,1620,0,,,,,,,
1149,0,,,,,,,,,,,,,,,,,1620,0,,,,,,,
1151,0,,,,,,,,,,,,,,,,,1620,0,,,,,,,
1153,0,3.73,3.84,4.04,3.99,4.94,0.26,0.33,3.6,,-0.05,0.0,0.97,0,-1,0,0.05,1620,0,,,,,,,
1155,0,,,,,,,,,,,,,,,,,1620,0,,,,,,,
1157,0,,,,,,,,,,,,,,,,,1620,0,,,,,,,
1159,0,,,,,,,,,,,,,,,,,1620,0,,,,,,,
1161,0,,,,,,,,,,,,,,,,,1620,0,,,,,,,
1163,0,3.72,3.82,4.03,3.97,4.91,0.3,0.34,3.58,,-0.02,0.01,1.01,0,1,0,0.02,1620,0,0.0,0.0,0.0,0.0,0,0,0.0
1165,0,,,,,,,,,,,,,,,,,1620,0,,,,,,,
1167,0,,,,,,,,,,,,,,,,,1620,0,,,,,,,
1169,0,,,,,,,,,,,,,,,,,1620,0,,,,,,,
1171,0,,,,,,,,,,,,,,,,,1620,0,,,,,,,
1173,0,3.72,3.83,4.03,3.98,4.91,0.28,0.32,3.59,,0.01,0.01,0.98,-0,-1,-0,0.02,1620,0,,,,,,,
1175,0,,,,,,,,,,,,,,,,,1620,0,,,,,,,
1177,0,,,,,,,,,,,,,,,,,1620,0,,,,,,,
1179,0,,,,,,,,,,,,,,,,,1680,0,,,,,,,
1181,0,,,,,,,,,,,,,,,,,1680,0,,,,,,,
1183,0,3.71,3.82,4.02,3.96,4.9,0.28,0.3,3.58,,-0.06,0.01,1.04,0,2,-1,0.06,1680,0,,,,,,,
1185,0,,,,,,,,,,,,,,,,,1680,0,,,,,,,
1187,0,,,,,,,,,,,,,,,,,1680,0,,,,,,,
1189,0,,,,,,,,,,,,,,,,,1680,0,,,,,,,
1191,0,,,,,,,,,,,,,,,,,1680,0,,,,,,,
1193,0,3.68,3.78,3.98,3.92,4.88,0.26,0.31,3.55,,-0.04,0.03,0.9,0,-1,-0,0.05,1680,0,,,,,,,
1195,0,,,,,,,,,,,,,,,,,1680,0,,,,,,,
1197,0,,,,,,,,,,,,,,,,,1680,0,,,,,,,
1199,0,,,,,,,,,,,,,,,,,1680,0,,,,,,,
1201,0,,,,,,,,,,,,,,,,,1680,0,,,,,,,
1203,0,3.68,3.79,3.98,3.94,4.88,0.29,0.32,3.55,,-0.0,0.03,1.06,0,-0,-0,0.03,1680,0,0.0,0.0,0.0,0.0,0,0,0.0
1205,0,,,,,,,,,,,,,,,,,1680,0,,,,,,,
1207,0,,,,,,,,,,,,,,,,,1680,0,,,,,,,
1209,0,,,,,,,,,,,,,,,,,1680,0,,,,,,,
1211,0,,,,,,,,,,,,,,,,,1680,0,,,,,,,
1213,0,3.66,3.76,4.02,3.96,4.88,0.26,0.27,3.55,,-0.03,0.01,0.96,0,-0,0,0.03,1620,0,,,,,,,
1215,0,,,,,,,,,,,,,,,,,1620,0,,,,,,,
1217,0,,,,,,,,,,,,,,,,,1620,0,,,,,,,
1219,0,,,,,,,,,,,,,,,,,1620,0,,,,,,,
1221,0,,,,,,,,,,,,,,,,,1620,0,,,,,,,
1223,0,3.73,3.84,4.04,3.99,4.93,0.26,0.29,3.6,,-0.05,0.0,0.99,0,-1,-0,0.05,1620,0,,,,,,,
1225,0,,,,,,,,,,,,,,,,,1620,0,,,,,,,
1227,0,,,,,,,,,,,,,,,,,1620,0,,,,,,,
1229,0,,,,,,,,,,,,,,,,,1620,0,,,,,,,
1231,0,,,,,,,,,,,,,,,,,1620,0,,,,,,,
1233,0,3.73,3.84,4.04,3.99,4.93,0.31,0.34,3.6,,-0.02,0.0,1.0,0,1,0,0.02,1620,0,,,,,,,
1235,0,,,,,,,,,,,,,,,,,1620,0,,,,,,,
1237,0,,,,,,,,,,,,,,,,,1620,0,,,,,,,
1239,0,,,,,,,,,,,,,,,,,1620,0,,,,,,,
1241,0,,,,,,,,,,,,,,,,,1620,0,,,,,,,
1243,0,3.72,3.82,4.02,3.97,4.91,0.28,0.29,3.59,,0.01,0.01,1.0,0,-1,-1,0.02,1620,0,0.0,0.0,0.0,0.0,0,0,0.0
1245,0,,,,,,,,,,,,,,,,,1620,0,,,,,,,
1247,0,,,,,,,,,,,,,,,,,1620,0,,,,,,,
1249,0,,,,,,,,,,,,,,,,,1680,0,,,,,,,
1251,0,,,,,,,,,,,,,,,,,1680,0,,,,,,,
1253,0,3.69,3.8,4.0,3.94,4.88,0.29,0.27,3.57,,-0.03,0.01,1.04,0,2,-1,0.03,1680,0,,,,,,,
1255,0,,,,,,,,,,,,,,,,,1680,0,,,,,,,
1257,0,,,,,,,,,,,,,,,,,1680,0,,,,,,,
1259,0,,,,,,,,,,,,,,,,,1680,0,,,,,,,
1261,0,,,,,,,,,,,,,,,,,1680,0,,,,,,,
1263,0,3.68,3.79,3.99,3.94,4.87,0.26,0.29,3.55,,-0.04,0.02,0.92,0,-2,0,0.04,1680,0,,,,,,,
1265,0,,,,,,,,,,,,,,,,,1680,0,,,,,,,
1267,0,,,,,,,,,,,,,,,,,1680,0,,,,,,,
1269,0,,,,,,,,,,,,,,,,,1680,0,,,,,,,
1271,0,,,,,,,,,,,,,,,,,1680,0,,,,,,,
1273,0,3.68,3.79,3.99,3.93,4.87,0.29,0.3,3.55,,-0.0,0.03,1.06,0,0,-0,0.03,1680,0,,,,,,,
1275,0,,,,,,,,,,,,,,,,,1680,0,,,,,,,
1277,0,,,,,,,,,,,,,,,,,1680,0,,,,,,,
1279,0,,,,,,,,,,,,,,,,,1680,0,,,,,,,
1281,0,,,,,,,,,,,,,,,,,1680,0,,,,,,,
1283,0,3.73,3.84,4.02,3.97,4.93,0.27,0.3,3.59,,-0.03,0.01,0.96,-0,-0,0,0.03,1680,0,0.0,0.0,0.0,0.0,0,0,0.0
1285,0,,,,,,,,,,,,,,,,,1620,0,,,,,,,
1287,0,,,,,,,,,,,,,,,,,1620,0,,,,,,,
1289,0,,,,,,,,,,,,,,,,,1620,0,,,,,,,
1291,0,,,,,,,,,,,,,,,,,1620,0,,,,,,,
1293,0,3.72,3.83,4.03,3.98,4.94,0.27,0.29,3.6,,-0.04,0.0,1.01,0,-0,-0,0.04,1620,0,,,,,,,
1295,0,,,,,,,,,,,,,,,,,1620,0,,,,,,,
1297,0,,,,,,,,,,,,,,,,,1620,0,,,,,,,
1299,0,,,,,,,,,,,,,,,,,1620,0,,,,,,,
1301,0,,,,,,,,,,,,,,,,,1620,0,,,,,,,
1303,0,3.67,3.81,4.06,4.0,4.94,0.31,0.31,3.57,,-0.03,0.0,0.98,0,2,0,0.03,1620,0,,,,,,,
1305,0,,,,,,,,,,,,,,,,,1620,0,,,,,,,
1307,0,,,,,,,,,,,,,,,,,1620,0,,,,,,,
1309,0,,,,,,,,,,,,,,,,,1620,0,,,,,,,
1311,0,,,,,,,,,,,,,,,,,1620,0,,,,,,,
1313,0,3.75,3.79,4.02,4.0,4.89,0.28,0.32,3.58,,-0.0,0.02,1.03,0,-1,-1,0.02,1620,0,,,,,,,
1315,0,,,,,,,,,,,,,,,,,1620,0,,,,,,,
1317,0,,,,,,,,,,,,,,,,,1620,0,,,,,,,
1319,0,,,,,,,,,,,,,,,,,1620,0,,,,,,,
1321,0,,,,,,,,,,,,,,,,,1680,0,,,,,,,
1323,0,3.69,3.84,4.03,3.92,4.92,0.3,0.31,3.61,,-0.04,0.01,1.02,0,3,-1,0.04,1680,0,0.0,0.0,0.0,0.0,0,0,0.0
1325,0,,,,,,,,,,,,,,,,,1680,0,,,,,,,
1327,0,,,,,,,,,,,,,,,,,1680,0,,,,,,,
1329,0,,,,,,,,,,,,,,,,,1680,0,,,,,,,
1331,0,,,,,,,,,,,,,,,,,1680,0,,,,,,,
1333,0,3.73,3.84,4.04,3.99,4.94,0.29,0.35,3.6,,-0.06,0.03,0.96,0,-3,-0,0.06,1680,0,,,,,,,
1335,0,,,,,,,,,,,,,,,,,1680,0,,,,,,,
1337,0,,,,,,,,,,,,,,,,,1680,0,,,,,,,
1339,0,,,,,,,,,,,,,,,,,1680,0,,,,,,,
1341,0,,,,,,,,,,,,,,,,,1680,0,,,,,,,
1343,0,3.72,3.82,4.03,3.98,4.92,0.31,0.31,3.59,,-0.02,0.03,1.02,0,1,0,0.04,1680,0,,,,,,,
1345,0,,,,,,,,,,,,,,,,,1680,0,,,,,,,
1347,0,,,,,,,,,,,,,,,,,1680,0,,,,,,,
1349,0,,,,,,,,,,,,,,,,,1680,0,,,,,,,
1351,0,,,,,,,,,,,,,,,,,1680,0,,,,,,,
1353,0,3.73,3.84,4.04,3.99,4.94,0.28,0.32,3.6,,-0.04,0.03,0.98,0,-1,-0,0.05,1680,0,,,,,,,
1355,0,,,,,,,,,,,,,,,,,1680,0,,,,,,,
1357,0,,,,,,,,,,,,,,,,,1620,0,,,,,,,
1359,0,,,,,,,,,,,,,,,,,1620,0,,,,,,,
1361,0,,,,,,,,,,,,,,,,,1620,0,,,,,,,
1363,0,3.69,3.8,3.99,3.93,4.88,0.24,0.27,3.55,,-0.05,0.02,1.01,0,0,-0,0.06,1620,0,0.0,0.0,0.0,0.0,0,0,0.0
1365,0,,,,,,,,,,,,,,,,,1620,0,,,,,,,
1367,0,,,,,,,,,,,,,,,,,1620,0,,,,,,,
1369,0,,,,,,,,,,,,,,,,,1620,0,,,,,,,
1371,0,,,,,,,,,,,,,,,,,1620,0,,,,,,,
1373,0,3.72,3.83,4.03,3.98,4.92,0.31,0.31,3.59,,-0.04,0.01,0.96,0,0,0,0.04,1620,0,,,,,,,
1375,0,,,,,,,,,,,,,,,,,1620,0,,,,,,,
1377,0,,,,,,,,,,,,,,,,,1620,0,,,,,,,
1379,0,,,,,,,,,,,,,,,,,1620,0,,,,,,,
1381,0,,,,,,,,,,,,,,,,,1620,0,,,,,,,
1383,0,3.73,3.84,4.05,3.99,4.94,0.28,0.33,3.6,,-0.01,0.02,1.06,0,-2,-0,0.03,1620,0,,,,,,,
1385,0,,,,,,,,,,,,,,,,,1620,0,,,,,,,
1387,0,,,,,,,,,,,,,,,,,1620,0,,,,,,,
1389,0,,,,,,,,,,,,,,,,,1620,0,,,,,,,
1391,0,,,,,,,,,,,,,,,,,1620,0,,,,,,,
1393,0,3.72,3.82,4.02,3.97,4.91,0.29,0.28,3.59,,-0.01,0.01,1.0,0,2,0,0.02,1680,0,,,,,,,
1395,0,,,,,,,,,,,,,,,,,1680,0,,,,,,,
1397,0,,,,,,,,,,,,,,,,,1680,0,,,,,,,
1399,0,,,,,,,,,,,,,,,,,1680,0,,,,,,,
1401,0,,,,,,,,,,,,,,,,,1680,0,,,,,,,
1403,0,3.7,3.81,4.01,3.96,4.9,0.25,0.28,3.57,,-0.07,0.03,1.01,0,-4,0,0.07,1680,0,0.0,0.0,0.0,0.0,0,0,0.0
1405,0,,,,,,,,,,,,,,,,,1680,0,,,,,,,
1407,0,,,,,,,,,,,,,,,,,1680,0,,,,,,,
1409,0,,,,,,,,,,,,,,,,,1680,0,,,,,,,
1411,0,,,,,,,,,,,,,,,,,1680,0,,,,,,,
1413,0,3.73,3.84,4.03,3.98,4.93,0.29,0.3,3.6,,-0.02,0.03,0.97,0,1,1,0.04,1680,0,,,,,,,
1415,0,,,,,,,,,,,,,,,,,1680,0,,,,,,,
1417,0,,,,,,,,,,,,,,,,,1680,0,,,,,,,
1419,0,,,,,,,,,,,,,,,,,1680,0,,,,,,,
1421,0,,,,,,,,,,,,,,,,,1680,0,,,,,,,
1423,0,3.73,3.84,4.05,3.99,4.94,0.29,0.31,3.6,,-0.03,0.03,1.02,0,-2,0,0.04,1680,0,,,,,,,
1425,0,,,,,,,,,,,,,,,,,1680,0,,,,,,,
1427,0,,,,,,,,,,,,,,,,,1680,0,,,,,,,
1429,0,,,,,,,,,,,,,,,,,1620,0,,,,,,,
1431,0,,,,,,,,,,,,,,,,,1620,0,,,,,,,
1433,0,3.71,3.82,4.02,3.97,4.9,0.26,0.31,3.58,,-0.04,0.02,0.99,0,2,0,0.05,1620,0,,,,,,,
1435,0,,,,,,,,,,,,,,,,,1620,0,,,,,,,
1437,0,,,,,,,,,,,,,,,,,1620,0,,,,,,,
1439,0,,,,,,,,,,,,,,,,,1620,0,,,,,,,
1441,0,,,,,,,,,,,,,,,,,1620,0,,,,,,,
1443,0,3.68,3.79,3.99,3.93,4.87,0.28,0.31,3.56,,-0.04,0.01,0.95,0,-0,0,0.04,1620,0,0.0,0.0,0.0,0.0,0,0,0.0
1445,0,,,,,,,,,,,,,,,,,1620,0,,,,,,,
1447,0,,,,,,,,,,,,,,,,,1620,0,,,,,,,
1449,0,,,,,,,,,,,,,,,,,1620,0,,,,,,,
1451,0,,,,,,,,,,,,,,,,,1620,0,,,,,,,
1453,0,3.72,3.83,4.03,3.98,4.92,0.3,0.37,3.6,,-0.0,0.03,1.06,0,-1,0,0.03,1620,0,,,,,,,
1455,0,,,,,,,,,,,,,,,,,1620,0,,,,,,,
1457,0,,,,,,,,,,,,,,,,,1620,0,,,,,,,
1459,0,,,,,,,,,,,,,,,,,1620,0,,,,,,,
1461,0,,,,,,,,,,,,,,,,,1620,0,,,,,,,
1463,0,3.7,3.81,4.01,3.96,4.89,0.27,0.33,3.57,,0.01,0.01,0.97,0,1,1,0.02,1620,0,,,,,,,
1465,0,,,,,,,,,,,,,,,,,1680,0,,,,,,,
1467,0,,,,,,,,,,,,,,,,,1680,0,,,,,,,
1469,0,,,,,,,,,,,,,,,,,1680,0,,,,,,,
1471,0,,,,,,,,,,,,,,,,,1680,0,,,,,,,
1473,0,3.72,3.83,4.04,3.97,4.92,0.29,0.33,3.59,,-0.06,0.02,1.01,0,-3,0,0.07,1680,0,,,,,,,
1475,0,,,,,,,,,,,,,,,,,1680,0,,,,,,,
1477,0,,,,,,,,,,,,,,,,,1680,0,,,,,,,
1479,0,,,,,,,,,,,,,,,,,1680,0,,,,,,,
1481,0,,,,,,,,,,,,,,,,,1680,0,,,,,,,
1483,0,3.7,3.8,4.02,3.97,4.91,0.3,0.37,3.57,,-0.02,0.03,0.93,0,2,1,0.04,1680,0,0.0,0.0,0.0,0.0,0,0,0.0
1485,0,,,,,,,,,,,,,,,,,1680,0,,,,,,,
1487,0,,,,,,,,,,,,,,,,,1680,0,,,,,,,
1489,0,,,,,,,,,,,,,,,,,1680,0,,,,,,,
1491,0,,,,,,,,,,,,,,,,,1680,0,,,,,,,
1493,0,3.73,3.84,4.05,3.99,4.93,0.3,0.37,3.6,,-0.01,0.03,1.04,0,-1,0,0.03,1680,0,,,,,,,
1495,0,,,,,,,,,,,,,,,,,1680,0,,,,,,,
1497,0,,,,,,,,,,,,,,,,,1680,0,,,,,,,
1499,0,,,,,,,,,,,,,,,,,1680,0,,,,,,,
1501,0,,,,,,,,,,,,,,,,,1620,0,,,,,,,
1503,0,3.73,3.84,4.04,3.99,4.94,0.29,0.39,3.6,,-0.03,0.01,0.98,0,2,0,0.03,1620,0,,,,,,,
1505,0,,,,,,,,,,,,,,,,,1620,0,,,,,,,
1507,0,,,,,,,,,,,,,,,,,1620,0,,,,,,,
1509,0,,,,,,,,,,,,,,,,,1620,0,,,,,,,
1511,0,,,,,,,,,,,,,,,,,1620,0,,,,,,,
1513,0,3.71,3.82,4.02,3.97,4.93,0.31,0.37,3.57,,-0.05,0.01,0.95,0,-1,0,0.05,1620,0,,,,,,,
1515,0,,,,,,,,,,,,,,,,,1620,0,,,,,,,
1517,0,,,,,,,,,,,,,,,,,1620,0,,,,,,,
1519,0,,,,,,,,,,,,,,,,,1620,0,,,,,,,
1521,0,,,,,,,,,,,,,,,,,1620,0,,,,,,,
1523,0,3.68,3.79,3.98,3.92,4.87,0.29,0.32,3.54,,-0.02,0.01,1.04,0,0,0,0.02,1620,0,0.0,0.0,0.0,0.0,0,0,0.0
1525,0,,,,,,,,,,,,,,,,,1620,0,,,,,,,
1527,0,,,,,,,,,,,,,,,,,1620,0,,,,,,,
1529,0,,,,,,,,,,,,,,,,,1620,0,,,,,,,
1531,0,,,,,,,,,,,,,,,,,1620,0,,,,,,,
1533,0,3.73,3.84,4.04,3.99,4.93,0.3,0.34,3.59,,-0.0,0.0,0.97,0,-0,0,0.0,1620,0,,,,,,,
1535,0,,,,,,,,,,,,,,,,,1620,0,,,,,,,
1537,0,,,,,,,,,,,,,,,,,1680,0,,,,,,,
1539,0,,,,,,,,,,,,,,,,,1680,0,,,,,,,
1541,0,,,,,,,,,,,,,,,,,1680,0,,,,,,,
1543,0,3.73,3.84,4.04,3.98,4.93,0.3,0.3,3.59,,-0.06,0.01,1.04,0,-0,0,0.06,1680,0,,,,,,,
1545,0,,,,,,,,,,,,,,,,,1680,0,,,,,,,
1547,0,,,,,,,,,,,,,,,,,1680,0,,,,,,,
1549,0,,,,,,,,,,,,,,,,,1680,0,,,,,,,
1551,0,,,,,,,,,,,,,,,,,1680,0,,,,,,,
1553,0,3.68,3.8,4.0,3.94,4.88,0.3,0.32,3.53,,-0.04,0.02,0.91,0,0,0,0.04,1680,0,,,,,,,
1555,0,,,,,,,,,,,,,,,,,1680,0,,,,,,,
1557,0,,,,,,,,,,,,,,,,,1680,0,,,,,,,
1559,0,,,,,,,,,,,,,,,,,1680,0,,,,,,,
1561,0,,,,,,,,,,,,,,,,,1680,0,,,,,,,
1563,0,3.72,3.83,4.03,3.98,4.91,0.3,0.33,3.56,,-0.01,0.02,1.06,-0,-1,0,0.02,1680,0,0.0,0.0,0.0,0.0,0,0,0.0
1565,0,,,,,,,,,,,,,,,,,1680,0,,,,,,,
1567,0,,,,,,,,,,,,,,,,,1680,0,,,,,,,
1569,0,,,,,,,,,,,,,,,,,1680,0,,,,,,,
1571,0,,,,,,,,,,,,,,,,,1680,0,,,,,,,
1573,0,3.73,3.84,4.04,3.99,4.94,0.31,0.33,3.58,,-0.04,0.01,0.96,0,2,0,0.04,1620,0,,,,,,,
1575,0,,,,,,,,,,,,,,,,,1620,0,,,,,,,
1577,0,,,,,,,,,,,,,,,,,1620,0,,,,,,,
1579,0,,,,,,,,,,,,,,,,,1620,0,,,,,,,
1581,0,,,,,,,,,,,,,,,,,1620,0,,,,,,,
1583,0,3.69,3.8,4.0,3.95,4.91,0.29,0.3,3.54,,-0.05,0.0,0.98,0,-1,0,0.05,1620,0,,,,,,,
1585,0,,,,,,,,,,,,,,,,,1620,0,,,,,,,
1587,0,,,,,,,,,,,,,,,,,1620,0,,,,,,,
1589,0,,,,,,,,,,,,,,,,,1620,0,,,,,,,
1591,0,,,,,,,,,,,,,,,,,1620,0,,,,,,,
1593,0,3.72,3.83,4.02,3.97,4.91,0.32,0.34,3.57,,-0.03,0.0,1.02,0,1,0,0.03,1620,0,,,,,,,
1595,0,,,,,,,,,,,,,,,,,1620,0,,,,,,,
1597,0,,,,,,,,,,,,,,,,,1620,0,,,,,,,
1599,0,,,,,,,,,,,,,,,,,1620,0,,,,,,,
1601,0,,,,,,,,,,,,,,,,,1620,0,,,,,,,
1603,0,3.7,3.8,4.0,3.93,4.91,0.31,0.33,3.56,,0.0,0.01,0.98,0,-1,-0,0.01,1620,0,0.0,0.0,0.0,0.0,0,0,0.0
1605,0,,,,,,,,,,,,,,,,,1620,0,,,,,,,
1607,0,,,,,,,,,,,,,,,,,1620,0,,,,,,,
1609,0,,,,,,,,,,,,,,,,,1680,0,,,,,,,
1611,0,,,,,,,,,,,,,,,,,1680,0,,,,,,,
1613,0,3.66,3.77,4.02,3.96,4.89,0.31,0.3,3.53,,-0.06,0.0,1.04,0,2,-0,0.06,1680,0,,,,,,,
1615,0,,,,,,,,,,,,,,,,,1680,0,,,,,,,
1617,0,,,,,,,,,,,,,,,,,1680,0,,,,,,,
1619,0,,,,,,,,,,,,,,,,,1680,0,,,,,,,
1621,0,,,,,,,,,,,,,,,,,1680,0,,,,,,,
1623,0,3.73,3.84,4.04,3.99,4.93,0.31,0.38,3.58,,-0.03,0.02,0.91,0,-0,-0,0.04,1680,0,,,,,,,
1625,0,,,,,,,,,,,,,,,,,1680,0,,,,,,,
1627,0,,,,,,,,,,,,,,,,,1680,0,,,,,,,
1629,0,,,,,,,,,,,,,,,,,1680,0,,,,,,,
1631,0,,,,,,,,,,,,,,,,,1680,0,,,,,,,
1633,0,3.73,3.84,4.04,3.99,4.94,0.33,0.4,3.58,,0.0,0.03,1.05,0,0,-0,0.03,1680,0,,,,,,,
1635,0,,,,,,,,,,,,,,,,,1680,0,,,,,,,
1637,0,,,,,,,,,,,,,,,,,1680,0,,,,,,,
1639,0,,,,,,,,,,,,,,,,,1680,0,,,,,,,
1641,0,,,,,,,,,,,,,,,,,1680,0,,,,,,,
1643,0,3.68,3.79,3.99,3.93,4.9,0.28,0.31,3.54,,-0.03,0.01,0.96,0,0,-0,0.03,1680,0,0.0,0.0,0.0,0.0,0,0,0.0
1645,0,,,,,,,,,,,,,,,,,1620,0,,,,,,,
1647,0,,,,,,,,,,,,,,,,,1620,0,,,,,,,
1649,0,,,,,,,,,,,,,,,,,1620,0,,,,,,,
1651,0,,,,,,,,,,,,,,,,,1620,0,,,,,,,
1653,0,3.69,3.8,4.0,3.94,4.88,0.27,0.29,3.54,,-0.04,-0.0,1.0,0,-0,-0,0.04,1620,0,,,,,,,
1655,0,,,,,,,,,,,,,,,,,1620,0,,,,,,,
1657,0,,,,,,,,,,,,,,,,,1620,0,,,,,,,
1659,0,,,,,,,,,,,,,,,,,1620,0,,,,,,,
1661,0,,,,,,,,,,,,,,,,,1620,0,,,,,,,
1663,0,3.73,3.84,4.04,3.99,4.93,0.33,0.34,3.57,,-0.02,0.0,1.0,0,1,-0,0.02,1620,0,,,,,,,
1665,0,,,,,,,,,,,,,,,,,1620,0,,,,,,,
1667,0,,,,,,,,,,,,,,,,,1620,0,,,,,,,
1669,0,,,,,,,,,,,,,,,,,1620,0,,,,,,,
1671,0,,,,,,,,,,,,,,,,,1620,0,,,,,,,
1673,0,3.73,3.84,4.04,3.97,4.93,0.3,0.31,3.56,,0.01,0.02,1.01,0,-1,-1,0.02,1620,0,,,,,,,
1675,0,,,,,,,,,,,,,,,,,1620,0,,,,,,,
1677,0,,,,,,,,,,,,,,,,,1620,0,,,,,,,
1679,0,,,,,,,,,,,,,,,,,1620,0,,,,,,,
1681,0,,,,,,,,,,,,,,,,,1680,0,,,,,,,
1683,0,3.72,3.83,4.01,3.96,4.92,0.31,0.31,3.55,,-0.03,0.01,1.03,0,2,-1,0.03,1680,0,0.0,0.0,0.0,0.0,0,0,0.0
1685,0,,,,,,,,,,,,,,,,,1680,0,,,,,,,
1687,0,,,,,,,,,,,,,,,,,1680,0,,,,,,,
1689,0,,,,,,,,,,,,,,,,,1680,0,,,,,,,
1691,0,,,,,,,,,,,,,,,,,1680,0,,,,,,,
1693,0,3.7,3.79,3.99,3.93,4.89,0.29,0.33,3.53,,-0.04,0.03,0.94,0,-2,-0,0.05,1680,0,,,,,,,
1695,0,,,,,,,,,,,,,,,,,1680,0,,,,,,,
1697,0,,,,,,,,,,,,,,,,,1680,0,,,,,,,
1699,0,,,,,,,,,,,,,,,,,1680,0,,,,,,,
1701,0,,,,,,,,,,,,,,,,,1680,0,,,,,,,
1703,0,3.67,3.77,3.98,3.92,4.89,0.29,0.32,3.52,,-0.02,0.04,1.04,0,0,-0,0.04,1680,0,,,,,,,
1705,0,,,,,,,,,,,,,,,,,1680,0,,,,,,,
1707,0,,,,,,,,,,,,,,,,,1680,0,,,,,,,
1709,0,,,,,,,,,,,,,,,,,1680,0,,,,,,,
1711,0,,,,,,,,,,,,,,,,,1680,0,,,,,,,
1713,0,3.73,3.84,4.04,3.98,4.93,0.29,0.31,3.56,,-0.03,0.02,0.96,0,-1,-0,0.04,1680,0,,,,,,,
1715,0,,,,,,,,,,,,,,,,,1680,0,,,,,,,
1717,0,,,,,,,,,,,,,,,,,1620,0,,,,,,,
1719,0,,,,,,,,,,,,,,,,,1620,0,,,,,,,
1721,0,,,,,,,,,,,,,,,,,1620,0,,,,,,,
1723,0,3.73,3.84,4.04,3.99,4.93,0.29,0.31,3.56,,-0.05,0.02,1.02,0,-0,-0,0.05,1620,0,0.0,0.0,0.0,0.0,0,0,0.0
1725,0,,,,,,,,,,,,,,,,,1620,0,,,,,,,
1727,0,,,,,,,,,,,,,,,,,1620,0,,,,,,,
1729,0,,,,,,,,,,,,,,,,,1620,0,,,,,,,
1731,0,,,,,,,,,,,,,,,,,1620,0,,,,,,,
1733,0,3.74,3.84,4.05,3.99,4.94,0.33,0.33,3.55,,-0.03,0.01,0.98,0,1,0,0.03,1620,0,,,,,,,
1735,0,,,,,,,,,,,,,,,,,1620,0,,,,,,,
1737,0,,,,,,,,,,,,,,,,,1620,0,,,,,,,
1739,0,,,,,,,,,,,,,,,,,1620,0,,,,,,,
1741,0,,,,,,,,,,,,,,,,,1620,0,,,,,,,
1743,0,3.72,3.83,4.03,3.96,4.92,0.28,0.32,3.54,,-0.01,0.03,1.06,0,-2,-1,0.03,1620,0,,,,,,,
1745,0,,,,,,,,,,,,,,,,,1620,0,,,,,,,
1747,0,,,,,,,,,,,,,,,,,1620,0,,,,,,,
1749,0,,,,,,,,,,,,,,,,,1620,0,,,,,,,
1751,0,,,,,,,,,,,,,,,,,1620,0,,,,,,,
1753,0,3.71,3.8,4.0,3.95,4.91,0.3,0.3,3.53,,-0.02,0.02,1.03,0,2,-0,0.03,1680,0,,,,,,,
1755,0,,,,,,,,,,,,,,,,,1680,0,,,,,,,
1757,0,,,,,,,,,,,,,,,,,1680,0,,,,,,,
1759,0,,,,,,,,,,,,,,,,,1680,0,,,,,,,
1761,0,,,,,,,,,,,,,,,,,1680,0,,,,,,,
1763,0,3.69,3.8,4.0,3.94,4.88,0.28,0.3,3.49,,-0.05,0.04,0.98,0,-3,-0,0.06,1680,0,0.0,0.0,0.0,0.0,0,0,0.0
1765,0,,,,,,,,,,,,,,,,,1680,0,,,,,,,
1767,0,,,,,,,,,,,,,,,,,1680,0,,,,,,,
1769,0,,,,,,,,,,,,,,,,,1680,0,,,,,,,
1771,0,,,,,,,,,,,,,,,,,1680,0,,,,,,,
1773,0,3.73,3.83,4.04,3.98,4.92,0.32,0.34,3.52,,-0.02,0.04,1.02,0,1,0,0.05,1680,0,,,,,,,
1775,0,,,,,,,,,,,,,,,,,1680,0,,,,,,,
1777,0,,,,,,,,,,,,,,,,,1680,0,,,,,,,
1779,0,,,,,,,,,,,,,,,,,1680,0,,,,,,,
1781,0,,,,,,,,,,,,,,,,,1680,0,,,,,,,
1783,0,3.73,3.84,4.04,3.99,4.93,0.3,0.33,3.52,,-0.03,0.03,0.99,0,-1,-0,0.05,1680,0,,,,,,,
1785,0,,,,,,,,,,,,,,,,,1680,0,,,,,,,
1787,0,,,,,,,,,,,,,,,,,1680,0,,,,,,,
1789,0,,,,,,,,,,,,,,,,,1620,0,,,,,,,
1791,0,,,,,,,,,,,,,,,,,1620,0,,,,,,,
1793,0,3.69,3.79,4.0,3.94,4.9,0.26,0.33,3.47,,-0.04,0.02,1.02,0,1,-0,0.05,1620,0,,,,,,,
1795,0,,,,,,,,,,,,,,,,,1620,0,,,,,,,
1797,0,,,,,,,,,,,,,,,,,1620,0,,,,,,,
1799,0,,,,,,,,,,,,,,,,,1620,0,,,,,,,
1801,0,,,,,,,,,,,,,,,,,1620,0,,,,,,,
1803,0,3.73,3.84,4.04,3.98,4.94,0.34,0.4,3.51,,-0.03,0.0,0.95,0,0,0,0.03,1620,0,0.0,0.0,0.0,0.0,0,0,0.0
1805,0,,,,,,,,,,,,,,,,,1620,0,,,,,,,
1807,0,,,,,,,,,,,,,,,,,1620,0,,,,,,,
1809,0,,,,,,,,,,,,,,,,,1620,0,,,,,,,
1811,0,,,,,,,,,,,,,,,,,1620,0,,,,,,,
1813,0,3.73,3.84,4.04,3.99,4.94,0.31,0.44,3.5,,-0.01,0.02,1.07,0,-1,-0,0.02,1620,0,,,,,,,
1815,0,,,,,,,,,,,,,,,,,1620,0,,,,,,,
1817,0,,,,,,,,,,,,,,,,,1620,0,,,,,,,
1819,0,,,,,,,,,,,,,,,,,1620,0,,,,,,,
1821,0,,,,,,,,,,,,,,,,,1620,0,,,,,,,
1823,0,3.72,3.83,4.03,3.98,4.92,0.31,0.39,3.48,,0.01,0.0,0.99,0,1,0,0.01,1620,0,,,,,,,
1825,0,,,,,,,,,,,,,,,,,1680,0,,,,,,,
1827,0,,,,,,,,,,,,,,,,,1680,0,,,,,,,
1829,0,,,,,,,,,,,,,,,,,1680,0,,,,,,,
1831,0,,,,,,,,,,,,,,,,,1680,0,,,,,,,
1833,0,3.69,3.8,4.0,3.94,4.9,0.3,0.36,3.46,,-0.06,0.02,1.02,0,-3,0,0.07,1680,0,,,,,,,
1835,0,,,,,,,,,,,,,,,,,1680,0,,,,,,,
1837,0,,,,,,,,,,,,,,,,,1680,0,,,,,,,
1839,0,,,,,,,,,,,,,,,,,1680,0,,,,,,,
1841,0,,,,,,,,,,,,,,,,,1680,0,,,,,,,
1843,0,3.73,3.84,4.04,3.99,4.93,0.34,0.39,3.47,,-0.02,0.02,0.96,0,1,0,0.03,1680,0,0.0,0.0,0.0,0.0,0,0,0.0
1845,0,,,,,,,,,,,,,,,,,1680,0,,,,,,,
1847,0,,,,,,,,,,,,,,,,,1680,0,,,,,,,
1849,0,,,,,,,,,,,,,,,,,1680,0,,,,,,,
1851,0,,,,,,,,,,,,,,,,,1680,0,,,,,,,
1853,0,3.69,3.8,4.0,3.95,4.9,0.3,0.33,3.43,,-0.02,0.02,1.03,0,-1,0,0.03,1680,0,,,,,,,
1855,0,,,,,,,,,,,,,,,,,1680,0,,,,,,,
1857,0,,,,,,,,,,,,,,,,,1680,0,,,,,,,
1859,0,,,,,,,,,,,,,,,,,1620,0,,,,,,,
1861,0,,,,,,,,,,,,,,,,,1620,0,,,,,,,
1863,0,3.73,3.84,4.04,3.99,4.93,0.32,0.4,3.46,,-0.03,0.02,0.99,0,2,0,0.04,1620,0,,,,,,,
1865,0,,,,,,,,,,,,,,,,,1620,0,,,,,,,
1867,0,,,,,,,,,,,,,,,,,1620,0,,,,,,,
1869,0,,,,,,,,,,,,,,,,,1620,0,,,,,,,
1871,0,,,,,,,,,,,,,,,,,1620,0,,,,,,,
1873,0,3.69,3.8,3.99,3.95,4.89,0.32,0.4,3.42,,-0.04,-0.0,0.94,0,-1,0,0.04,1620,0,,,,,,,
1875,0,,,,,,,,,,,,,,,,,1620,0,,,,,,,
1877,0,,,,,,,,,,,,,,,,,1620,0,,,,,,,
1879,0,,,,,,,,,,,,,,,,,1620,0,,,,,,,
1881,0,,,,,,,,,,,,,,,,,1620,0,,,,,,,
1883,0,3.73,3.84,4.04,3.99,4.94,0.32,0.42,3.45,,-0.01,0.02,1.06,0,-0,0,0.02,1620,0,0.0,0.0,0.0,0.0,0,0,0.0
1885,0,,,,,,,,,,,,,,,,,1620,0,,,,,,,
1887,0,,,,,,,,,,,,,,,,,1620,0,,,,,,,
1889,0,,,,,,,,,,,,,,,,,1620,0,,,,,,,
1891,0,,,,,,,,,,,,,,,,,1620,0,,,,,,,
1893,0,3.73,3.84,4.04,3.99,4.93,0.33,0.39,3.44,,0.01,0.01,0.96,0,0,0,0.02,1620,0,,,,,,,
1895,0,,,,,,,,,,,,,,,,,1680,0,,,,,,,
1897,0,,,,,,,,,,,,,,,,,1680,0,,,,,,,
1899,0,,,,,,,,,,,,,,,,,1680,0,,,,,,,
1901,0,,,,,,,,,,,,,,,,,1680,0,,,,,,,
1903,0,3.68,3.78,3.98,3.92,4.88,0.3,0.36,3.39,,-0.06,0.01,1.03,0,-1,0,0.06,1680,0,,,,,,,
1905,0,,,,,,,,,,,,,,,,,1680,0,,,,,,,
1907,0,,,,,,,,,,,,,,,,,1680,0,,,,,,,
1909,0,,,,,,,,,,,,,,,,,1680,0,,,,,,,
1911,0,,,,,,,,,,,,,,,,,1680,0,,,,,,,
1913,0,3.73,3.84,4.04,3.99,4.94,0.33,0.42,3.43,,-0.03,0.01,0.93,0,1,0,0.03,1680,0,,,,,,,
1915,0,,,,,,,,,,,,,,,,,1680,0,,,,,,,
1917,0,,,,,,,,,,,,,,,,,1680,0,,,,,,,
1919,0,,,,,,,,,,,,,,,,,1680,0,,,,,,,
1921,0,,,,,,,,,,,,,,,,,1680,0,,,,,,,
1923,0,3.72,3.83,4.03,3.98,4.93,0.34,0.39,3.4,,-0.01,0.02,1.06,0,-1,-0,0.02,1680,0,0.0,0.0,0.0,0.0,0,0,0.0
1925,0,,,,,,,,,,,,,,,,,1680,0,,,,,,,
1927,0,,,,,,,,,,,,,,,,,1680,0,,,,,,,
1929,0,,,,,,,,,,,,,,,,,1680,0,,,,,,,
1931,0,,,,,,,,,,,,,,,,,1620,0,,,,,,,
1933,0,3.71,3.82,4.02,3.96,4.9,0.31,0.41,3.38,,-0.02,0.01,0.98,0,2,0,0.02,1620,0,,,,,,,
1935,0,,,,,,,,,,,,,,,,,1620,0,,,,,,,
1937,0,,,,,,,,,,,,,,,,,1620,0,,,,,,,
1939,0,,,,,,,,,,,,,,,,,1620,0,,,,,,,
1941,0,,,,,,,,,,,,,,,,,1620,0,,,,,,,
1943,0,3.73,3.84,4.04,3.97,4.93,0.33,0.42,3.4,,-0.04,-0.0,0.96,0,-2,0,0.04,1620,0,,,,,,,
1945,0,,,,,,,,,,,,,,,,,1620,0,,,,,,,
1947,0,,,,,,,,,,,,,,,,,1620,0,,,,,,,
1949,0,,,,,,,,,,,,,,,,,1620,0,,,,,,,
1951,0,,,,,,,,,,,,,,,,,1620,0,,,,,,,
1953,0,3.73,3.84,4.04,3.99,4.94,0.34,0.44,3.39,,-0.02,0.01,1.03,0,1,0,0.02,1620,0,,,,,,,
1955,0,,,,,,,,,,,,,,,,,1620,0,,,,,,,
1957,0,,,,,,,,,,,,,,,,,1620,0,,,,,,,
1959,0,,,,,,,,,,,,,,,,,1620,0,,,,,,,
1961,0,,,,,,,,,,,,,,,,,1620,0,,,,,,,
1963,0,3.73,3.84,4.04,3.99,4.93,0.34,0.42,3.37,,0.02,-0.0,0.97,0,-1,-0,0.02,1620,0,0.0,0.0,0.0,0.0,0,0,0.0
1965,0,,,,,,,,,,,,,,,,,1620,0,,,,,,,
1967,0,,,,,,,,,,,,,,,,,1680,0,,,,,,,
1969,0,,,,,,,,,,,,,,,,,1680,0,,,,,,,
1971,0,,,,,,,,,,,,,,,,,1680,0,,,,,,,
1973,0,3.73,3.84,4.05,3.99,4.94,0.34,0.41,3.36,,-0.05,-0.0,1.04,0,1,0,0.05,1680,0,,,,,,,
1975,0,,,,,,,,,,,,,,,,,1680,0,,,,,,,
1977,0,,,,,,,,,,,,,,,,,1680,0,,,,,,,
1979,0,,,,,,,,,,,,,,,,,1680,0,,,,,,,
1981,0,,,,,,,,,,,,,,,,,1680,0,,,,,,,
1983,0,3.73,3.84,4.04,3.99,4.94,0.35,0.43,3.34,,-0.03,0.01,0.91,0,-0,0,0.03,1680,0,,,,,,,
1985,0,,,,,,,,,,,,,,,,,1680,0,,,,,,,
1987,0,,,,,,,,,,,,,,,,,1680,0,,,,,,,
1989,0,,,,,,,,,,,,,,,,,1680,0,,,,,,,
1991,0,,,,,,,,,,,,,,,,,1680,0,,,,,,,
1993,0,3.71,3.81,4.01,3.96,4.92,0.33,0.4,3.29,,-0.0,0.03,1.06,0,-0,-0,0.03,1680,0,,,,,,,
1995,0,,,,,,,,,,,,,,,,,1680,0,,,,,,,
1997,0,,,,,,,,,,,,,,,,,1680,0,,,,,,,
1999,0,,,,,,,,,,,,,,,,,1680,0,,,,,,,
2001,0,,,,,,,,,,,,,,,,,1680,0,,,,,,,
2003,0,3.73,3.84,4.04,3.99,4.94,0.32,0.37,3.31,,-0.02,0.01,0.96,0,0,0,0.02,1620,0,0.0,0.0,0.0,0.0,0,0,0.0
2005,0,,,,,,,,,,,,,,,,,1620,0,,,,,,,
2007,0,,,,,,,,,,,,,,,,,1620,0,,,,,,,
2009,0,,,,,,,,,,,,,,,,,1620,0,,,,,,,
2011,0,,,,,,,,,,,,,,,,,1620,0,,,,,,,
2013,0,3.74,3.84,4.05,4.0,4.94,0.31,0.36,3.3,,-0.04,0.0,0.98,0,-1,-0,0.04,1620,0,,,,,,,
2015,0,,,,,,,,,,,,,,,,,1620,0,,,,,,,
2017,0,,,,,,,,,,,,,,,,,1620,0,,,,,,,
2019,0,,,,,,,,,,,,,,,,,1620,0,,,,,,,
2021,0,,,,,,,,,,,,,,,,,1620,0,,,,,,,
2023,0,3.72,3.81,4.01,3.96,4.92,0.34,0.4,3.26,,-0.02,0.01,1.0,0,2,-0,0.03,1620,0,,,,,,,
2025,0,,,,,,,,,,,,,,,,,1620,0,,,,,,,
2027,0,,,,,,,,,,,,,,,,,1620,0,,,,,,,
2029,0,,,,,,,,,,,,,,,,,1620,0,,,,,,,
2031,0,,,,,,,,,,,,,,,,,1620,0,,,,,,,
2033,0,3.73,3.84,4.04,3.99,4.94,0.33,0.42,3.25,,0.01,0.01,0.99,0,-1,-1,0.01,1620,0,,,,,,,
2035,0,,,,,,,,,,,,,,,,,1620,0,,,,,,,
2037,0,,,,,,,,,,,,,,,,,1620,0,,,,,,,
2039,0,,,,,,,,,,,,,,,,,1680,0,,,,,,,
2041,0,,,,,,,,,,,,,,,,,1680,0,,,,,,,
2043,0,3.73,3.84,4.04,3.99,4.95,0.35,0.4,3.23,13.49,-0.04,0.01,1.03,0,3,-1,0.04,1680,0,0.0,0.0,0.0,0.0,0,0,0.0
2045,0,,,,,,,,,,,,,,,,,1680,0,,,,,,,
2047,0,,,,,,,,,,,,,,,,,1680,0,,,,,,,
2049,0,,,,,,,,,,,,,,,,,1680,0,,,,,,,
2051,0,,,,,,,,,,,,,,,,,1680,0,,,,,,,
2053,0,3.7,3.8,4.01,3.95,4.91,0.32,0.42,3.18,,-0.04,0.02,0.92,0,-2,-1,0.04,1680,0,,,,,,,
2055,0,,,,,,,,,,,,,,,,,1680,0,,,,,,,
2057,0,,,,,,,,,,,,,,,,,1680,0,,,,,,,
2059,0,,,,,,,,,,,,,,,,,1680,0,,,,,,,
2061,0,,,,,,,,,,,,,,,,,1680,0,,,,,,,
2063,0,3.73,3.84,4.04,3.99,4.93,0.35,0.45,3.2,,-0.0,0.04,1.04,0,1,-0,0.04,1680,0,,,,,,,
2065,0,,,,,,,,,,,,,,,,,1680,0,,,,,,,
2067,0,,,,,,,,,,,,,,,,,1680,0,,,,,,,
2069,0,,,,,,,,,,,,,,,,,1680,0,,,,,,,
2071,0,,,,,,,,,,,,,,,,,1680,0,,,,,,,
2073,0,3.7,3.81,4.0,3.94,4.9,0.32,0.39,3.16,,-0.02,0.02,0.96,0,-1,-0,0.03,1680,0,,,,,,,
2075,0,,,,,,,,,,,,,,,,,1620,0,,,,,,,
2077,0,,,,,,,,,,,,,,,,,1620,0,,,,,,,
2079,0,,,,,,,,,,,,,,,,,1620,0,,,,,,,
2081,0,,,,,,,,,,,,,,,,,1620,0,,,,,,,
2083,0,3.72,3.83,4.01,3.95,4.92,0.31,0.37,3.14,,-0.04,0.02,1.01,0,0,-1,0.04,1620,0,0.0,0.0,0.0,0.0,0,0,0.0
2085,0,,,,,,,,,,,,,,,,,1620,0,,,,,,,
2087,0,,,,,,,,,,,,,,,,,1620,0,,,,,,,
2089,0,,,,,,,,,,,,,,,,,1620,0,,,,,,,
2091,0,,,,,,,,,,,,,,,,,1620,0,,,,,,,
2093,0,3.73,3.84,4.05,3.99,4.94,0.37,0.38,3.13,,-0.02,0.01,0.96,-0,1,-0,0.02,1620,0,,,,,,,
2095,0,,,,,,,,,,,,,,,,,1620,0,,,,,,,
2097,0,,,,,,,,,,,,,,,,,1620,0,,,,,,,
2099,0,,,,,,,,,,,,,,,,,1620,0,,,,,,,
2101,0,,,,,,,,,,,,,,,,,1620,0,,,,,,,
2103,0,3.74,3.84,4.04,3.99,4.93,0.34,0.4,3.11,,-0.0,0.02,1.04,-0,-1,-1,0.02,1620,0,,,,,,,
2105,0,,,,,,,,,,,,,,,,,1620,0,,,,,,,
2107,0,,,,,,,,,,,,,,,,,1620,0,,,,,,,
2109,0,,,,,,,,,,,,,,,,,1620,0,,,,,,,
2111,0,,,,,,,,,,,,,,,,,1680,0,,,,,,,
2113,0,3.68,3.78,3.98,3.92,4.87,0.33,0.32,3.05,,-0.01,0.01,1.02,-0,3,-1,0.01,1680,0,,,,,,,
2115,0,,,,,,,,,,,,,,,,,1680,0,,,,,,,
2117,0,,,,,,,,,,,,,,,,,1680,0,,,,,,,
2119,0,,,,,,,,,,,,,,,,,1680,0,,,,,,,
2121,0,,,,,,,,,,,,,,,,,1680,0,,,,,,,
2123,0,3.73,3.84,4.03,3.98,4.92,0.34,0.36,3.09,,-0.05,0.02,1.0,-0,-3,-1,0.05,1680,0,0.0,0.0,0.0,0.0,0,0,0.0
2125,0,,,,,,,,,,,,,,,,,1680,0,,,,,,,
2127,0,,,,,,,,,,,,,,,,,1680,0,,,,,,,
2129,0,,,,,,,,,,,,,,,,,1680,0,,,,,,,
2131,0,,,,,,,,,,,,,,,,,1680,0,,,,,,,
2133,0,3.72,3.83,4.03,3.98,4.94,0.33,0.34,3.1,,-0.0,0.03,1.0,-0,1,-0,0.03,1680,0,,,,,,,
2135,0,,,,,,,,,,,,,,,,,1680,0,,,,,,,
2137,0,,,,,,,,,,,,,,,,,1680,0,,,,,,,
2139,0,,,,,,,,,,,,,,,,,1680,0,,,,,,,
2141,0,,,,,,,,,,,,,,,,,1680,0,,,,,,,
2143,0,3.67,3.78,3.98,3.93,4.87,0.31,0.32,3.03,,-0.02,0.02,1.0,-0,-1,-1,0.03,1680,0,,,,,,,
2145,0,,,,,,,,,,,,,,,,,1680,0,,,,,,,
2147,0,,,,,,,,,,,,,,,,,1620,0,,,,,,,
2149,0,,,,,,,,,,,,,,,,,1620,0,,,,,,,
2151,0,,,,,,,,,,,,,,,,,1620,0,,,,,,,
2153,0,3.69,3.8,3.98,3.92,4.88,0.29,0.33,3.04,,-0.04,0.03,1.01,-0,1,-0,0.05,1620,0,,,,,,,
2155,0,,,,,,,,,,,,,,,,,1620,0,,,,,,,
2157,0,,,,,,,,,,,,,,,,,1620,0,,,,,,,
2159,0,,,,,,,,,,,,,,,,,1620,0,,,,,,,
2161,0,,,,,,,,,,,,,,,,,1620,0,,,,,,,
2163,0,3.69,3.82,4.02,3.96,4.9,0.35,0.37,3.04,,-0.04,0.01,0.95,-0,0,-0,0.04,1620,0,0.0,0.0,0.0,0.0,0,0,0.0
2165,0,,,,,,,,,,,,,,,,,1620,0,,,,,,,
2167,0,,,,,,,,,,,,,,,,,1620,0,,,,,,,
2169,0,,,,,,,,,,,,,,,,,1620,0,,,,,,,
2171,0,,,,,,,,,,,,,,,,,1620,0,,,,,,,
2173,0,3.73,3.84,4.04,3.99,4.94,0.32,0.43,3.08,,-0.02,0.02,1.04,-0,-1,-0,0.03,1620,0,,,,,,,
2175,0,,,,,,,,,,,,,,,,,1620,0,,,,,,,
2177,0,,,,,,,,,,,,,,,,,1620,0,,,,,,,
2179,0,,,,,,,,,,,,,,,,,1620,0,,,,,,,
2181,0,,,,,,,,,,,,,,,,,1620,0,,,,,,,
2183,0,3.69,3.8,4.0,3.94,4.9,0.31,0.37,3.03,,-0.01,0.01,0.99,-0,1,0,0.02,1680,0,,,,,,,
2185,0,,,,,,,,,,,,,,,,,1680,0,,,,,,,
2187,0,,,,,,,,,,,,,,,,,1680,0,,,,,,,
2189,0,,,,,,,,,,,,,,,,,1680,0,,,,,,,
2191,0,,,,,,,,,,,,,,,,,1680,0,,,,,,,
2193,0,3.73,3.84,4.04,3.99,4.93,0.33,0.37,3.08,,-0.08,0.03,1.02,-0,-3,-0,0.08,1680,0,,,,,,,
2195,0,,,,,,,,,,,,,,,,,1680,0,,,,,,,
2197,0,,,,,,,,,,,,,,,,,1680,0,,,,,,,
2199,0,,,,,,,,,,,,,,,,,1680,0,,,,,,,
2201,0,,,,,,,,,,,,,,,,,1680,0,,,,,,,
2203,0,3.73,3.83,4.04,3.98,4.93,0.34,0.36,3.08,,-0.04,0.02,0.97,-0,1,0,0.05,1680,0,0.0,0.0,0.0,0.0,0,0,0.0
2205,0,,,,,,,,,,,,,,,,,1680,0,,,,,,,
2207,0,,,,,,,,,,,,,,,,,1680,0,,,,,,,
2209,0,,,,,,,,,,,,,,,,,1680,0,,,,,,,
2211,0,,,,,,,,,,,,,,,,,1680,0,,,,,,,
2213,0,3.72,3.83,4.03,3.95,4.91,0.3,0.31,3.08,,-0.04,0.03,1.03,-0,-1,-0,0.05,1680,0,,,,,,,
2215,0,,,,,,,,,,,,,,,,,1680,0,,,,,,,
2217,0,,,,,,,,,,,,,,,,,1680,0,,,,,,,
2219,0,,,,,,,,,,,,,,,,,1620,0,,,,,,,
2221,0,,,,,,,,,,,,,,,,,1620,0,,,,,,,
2223,0,3.68,3.78,4.01,3.95,4.88,0.3,0.29,3.05,,-0.05,0.02,1.0,-0,2,0,0.06,1620,0,,,,,,,
2225,0,,,,,,,,,,,,,,,,,1620,0,,,,,,,
2227,0,,,,,,,,,,,,,,,,,1620,0,,,,,,,
2229,0,,,,,,,,,,,,,,,,,1620,0,,,,,,,
2231,0,,,,,,,,,,,,,,,,,1620,0,,,,,,,
2233,0,3.73,3.84,4.04,3.99,4.93,0.33,0.3,3.11,,-0.06,0.01,0.96,-0,-1,0,0.07,1620,0,,,,,,,
2235,0,,,,,,,,,,,,,,,,,1620,0,,,,,,,
2237,0,,,,,,,,,,,,,,,,,1620,0,,,,,,,
2239,0,,,,,,,,,,,,,,,,,1620,0,,,,,,,
2241,0,,,,,,,,,,,,,,,,,1620,0,,,,,,,
2243,0,3.72,3.82,4.02,3.97,4.93,0.3,0.29,3.12,,-0.03,0.02,1.06,-0,-1,0,0.04,1620,0,0.0,0.0,0.0,0.0,0,0,0.0
2245,0,,,,,,,,,,,,,,,,,1620,0,,,,,,,
2247,0,,,,,,,,,,,,,,,,,1620,0,,,,,,,
2249,0,,,,,,,,,,,,,,,,,1620,0,,,,,,,
2251,0,,,,,,,,,,,,,,,,,1620,0,,,,,,,
2253,0,3.72,3.82,4.02,3.97,4.9,0.3,0.24,3.12,,-0.0,0.02,0.98,-0,0,1,0.02,1620,0,,,,,,,
2255,0,,,,,,,,,,,,,,,,,1680,0,,,,,,,
2257,0,,,,,,,,,,,,,,,,,1680,0,,,,,,,
2259,0,,,,,,,,,,,,,,,,,1680,0,,,,,,,
2261,0,,,,,,,,,,,,,,,,,1680,0,,,,,,,
2263,0,3.71,3.82,4.02,3.96,4.9,0.3,0.25,3.13,,-0.1,0.02,1.03,0,-2,0,0.1,1680,0,,,,,,,
2265,0,,,,,,,,,,,,,,,,,1680,0,,,,,,,
2267,0,,,,,,,,,,,,,,,,,1680,0,,,,,,,
2269,0,,,,,,,,,,,,,,,,,1680,0,,,,,,,
2271,0,,,,,,,,,,,,,,,,,1680,0,,,,,,,
2273,0,3.74,3.84,4.05,3.99,4.93,0.31,0.32,3.16,,-0.05,0.02,0.92,0,0,1,0.05,1680,0,,,,,,,
2275,0,,,,,,,,,,,,,,,,,1680,0,,,,,,,
2277,0,,,,,,,,,,,,,,,,,1680,0,,,,,,,
2279,0,,,,,,,,,,,,,,,,,1680,0,,,,,,,
2281,0,,,,,,,,,,,,,,,,,1680,0,,,,,,,
2283,0,3.68,3.78,3.98,3.92,4.87,0.3,0.25,3.11,,-0.03,0.02,1.05,-0,-1,0,0.04,1680,0,0.0,0.0,0.0,0.0,0,0,0.0
2285,0,,,,,,,,,,,,,,,,,1680,0,,,,,,,
2287,0,,,,,,,,,,,,,,,,,1680,0,,,,,,,
2289,0,,,,,,,,,,,,,,,,,1680,0,,,,,,,
2291,0,,,,,,,,,,,,,,,,,1620,0,,,,,,,
2293,0,3.73,3.84,4.05,3.99,4.94,0.3,0.29,3.17,,-0.04,-0.0,0.97,-0,2,1,0.04,1620,0,,,,,,,
2295,0,,,,,,,,,,,,,,,,,1620,0,,,,,,,
2297,0,,,,,,,,,,,,,,,,,1620,0,,,,,,,
2299,0,,,,,,,,,,,,,,,,,1620,0,,,,,,,
2301,0,,,,,,,,,,,,,,,,,1620,0,,,,,,,
2303,0,3.69,3.8,4.0,3.95,4.9,0.3,0.28,3.15,,-0.07,-0.01,0.96,-0,-1,1,0.07,1620,0,,,,,,,
2305,0,,,,,,,,,,,,,,,,,1620,0,,,,,,,
2307,0,,,,,,,,,,,,,,,,,1620,0,,,,,,,
2309,0,,,,,,,,,,,,,,,,,1620,0,,,,,,,
2311,0,,,,,,,,,,,,,,,,,1620,0,,,,,,,
2313,0,3.73,3.84,4.04,3.98,4.92,0.32,0.25,3.17,,-0.02,0.0,1.03,0,0,0,0.02,1620,0,,,,,,,
2315,0,,,,,,,,,,,,,,,,,1620,0,,,,,,,
2317,0,,,,,,,,,,,,,,,,,1620,0,,,,,,,
2319,0,,,,,,,,,,,,,,,,,1620,0,,,,,,,
2321,0,,,,,,,,,,,,,,,,,1620,0,,,,,,,
2323,0,3.73,3.84,4.04,3.99,4.94,0.29,0.23,3.19,,0.0,-0.01,0.98,-0,-0,0,0.01,1620,0,0.0,0.0,0.0,0.0,0,0,0.0
2325,0,,,,,,,,,,,,,,,,,1620,0,,,,,,,
2327,0,,,,,,,,,,,,,,,,,1680,0,,,,,,,
2329,0,,,,,,,,,,,,,,,,,1680,0,,,,,,,
2331,0,,,,,,,,,,,,,,,,,1680,0,,,,,,,
2333,0,3.68,3.78,3.98,3.92,4.87,0.3,0.17,3.15,,-0.07,-0.01,1.04,0,0,0,0.07,1680,0,,,,,,,
2335,0,,,,,,,,,,,,,,,,,1680,0,,,,,,,
2337,0,,,,,,,,,,,,,,,,,1680,0,,,,,,,
2339,0,,,,,,,,,,,,,,,,,1680,0,,,,,,,
2341,0,,,,,,,,,,,,,,,,,1680,0,,,,,,,
2343,0,3.73,3.84,4.04,3.99,4.94,0.31,0.24,3.2,,-0.04,-0.0,0.92,-0,-0,0,0.04,1680,0,,,,,,,
2345,0,,,,,,,,,,,,,,,,,1680,0,,,,,,,
2347,0,,,,,,,,,,,,,,,,,1680,0,,,,,,,
2349,0,,,,,,,,,,,,,,,,,1680,0,,,,,,,
2351,0,,,,,,,,,,,,,,,,,1680,0,,,,,,,
2353,0,3.7,3.81,3.97,3.92,4.89,0.29,0.2,3.17,,-0.0,0.01,1.06,-0,-0,-0,0.01,1680,0,,,,,,,
2355,0,,,,,,,,,,,,,,,,,1680,0,,,,,,,
2357,0,,,,,,,,,,,,,,,,,1680,0,,,,,,,
2359,0,,,,,,,,,,,,,,,,,1680,0,,,,,,,
2361,0,,,,,,,,,,,,,,,,,1680,0,,,,,,,
2363,0,3.67,3.81,4.0,3.94,4.88,0.29,0.18,3.15,,-0.02,0.0,0.97,-0,1,0,0.02,1620,0,0.0,0.0,0.0,0.0,0,0,0.0
2365,0,,,,,,,,,,,,,,,,,1620,0,,,,,,,
2367,0,,,,,,,,,,,,,,,,,1620,0,,,,,,,
2369,0,,,,,,,,,,,,,,,,,1620,0,,,,,,,
2371,0,,,,,,,,,,,,,,,,,1620,0,,,,,,,
2373,0,3.73,3.84,4.04,3.99,4.94,0.3,0.21,3.21,,-0.04,-0.0,0.99,-0,-1,1,0.04,1620,0,,,,,,,
2375,0,,,,,,,,,,,,,,,,,1620,0,,,,,,,
2377,0,,,,,,,,,,,,,,,,,1620,0,,,,,,,
2379,0,,,,,,,,,,,,,,,,,1620,0,,,,,,,
2381,0,,,,,,,,,,,,,,,,,1620,0,,,,,,,
2383,0,3.69,3.8,3.99,3.93,4.87,0.3,0.19,3.15,,-0.02,0.01,1.0,-0,1,1,0.02,1620,0,,,,,,,
2385,0,,,,,,,,,,,,,,,,,1620,0,,,,,,,
2387,0,,,,,,,,,,,,,,,,,1620,0,,,,,,,
2389,0,,,,,,,,,,,,,,,,,1620,0,,,,,,,
2391,0,,,,,,,,,,,,,,,,,1620,0,,,,,,,
2393,0,3.74,3.85,4.04,3.99,4.94,0.3,0.25,3.21,,0.01,0.0,0.99,-0,-1,0,0.01,1620,0,,,,,,,
2395,0,,,,,,,,,,,,,,,,,1620,0,,,,,,,
2397,0,,,,,,,,,,,,,,,,,1620,0,,,,,,,
2399,0,,,,,,,,,,,,,,,,,1680,0,,,,,,,
2401,0,,,,,,,,,,,,,,,,,1680,0,,,,,,,
2403,0,3.72,3.83,4.02,3.97,4.91,0.3,0.23,3.2,,-0.04,0.01,1.03,0,2,0,0.04,1680,0,0.0,0.0,0.0,0.0,0,0,0.0
2405,0,,,,,,,,,,,,,,,,,1680,0,,,,,,,
2407,0,,,,,,,,,,,,,,,,,1680,0,,,,,,,
2409,0,,,,,,,,,,,,,,,,,1680,0,,,,,,,
2411,0,,,,,,,,,,,,,,,,,1680,0,,,,,,,
2413,0,3.69,3.8,3.99,3.92,4.87,0.29,0.24,3.17,,-0.04,0.02,0.93,0,-1,0,0.05,1680,0,,,,,,,
2415,0,,,,,,,,,,,,,,,,,1680,0,,,,,,,
2417,0,,,,,,,,,,,,,,,,,1680,0,,,,,,,
2419,0,,,,,,,,,,,,,,,,,1680,0,,,,,,,
2421,0,,,,,,,,,,,,,,,,,1680,0,,,,,,,
2423,0,3.73,3.84,4.04,3.99,4.93,0.33,0.28,3.22,,0.0,0.03,1.04,0,-0,0,0.03,1680,0,,,,,,,
2425,0,,,,,,,,,,,,,,,,,1680,0,,,,,,,
2427,0,,,,,,,,,,,,,,,,,1680,0,,,,,,,
2429,0,,,,,,,,,,,,,,,,,1680,0,,,,,,,
2431,0,,,,,,,,,,,,,,,,,1680,0,,,,,,,
2433,0,3.69,3.8,3.99,3.93,4.87,0.28,0.21,3.18,,-0.02,0.02,0.96,-0,-0,0,0.03,1680,0,,,,,,,
2435,0,,,,,,,,,,,,,,,,,1620,0,,,,,,,
2437,0,,,,,,,,,,,,,,,,,1620,0,,,,,,,
2439,0,,,,,,,,,,,,,,,,,1620,0,,,,,,,
2441,0,,,,,,,,,,,,,,,,,1620,0,,,,,,,
2443,0,3.7,3.81,4.01,3.95,4.91,0.28,0.2,3.22,,-0.04,0.02,1.0,0,-1,0,0.04,1620,0,0.0,0.0,0.0,0.0,0,0,0.0
2445,0,,,,,,,,,,,,,,,,,1620,0,,,,,,,
2447,0,,,,,,,,,,,,,,,,,1620,0,,,,,,,
2449,0,,,,,,,,,,,,,,,,,1620,0,,,,,,,
2451,0,,,,,,,,,,,,,,,,,1620,0,,,,,,,
2453,0,3.73,3.85,4.04,3.99,4.94,0.33,0.23,3.24,,-0.02,0.01,0.97,0,1,0,0.03,1620,0,,,,,,,
2455,0,,,,,,,,,,,,,,,,,1620,0,,,,,,,
2457,0,,,,,,,,,,,,,,,,,1620,0,,,,,,,
2459,0,,,,,,,,,,,,,,,,,1620,0,,,,,,,
2461,0,,,,,,,,,,,,,,,,,1620,0,,,,,,,
2463,0,3.73,3.85,4.04,3.99,4.94,0.3,0.22,3.24,,-0.0,0.02,1.02,0,-1,-0,0.02,1620,0,,,,,,,
2465,0,,,,,,,,,,,,,,,,,1620,0,,,,,,,
2467,0,,,,,,,,,,,,,,,,,1620,0,,,,,,,
2469,0,,,,,,,,,,,,,,,,,1620,0,,,,,,,
2471,0,,,,,,,,,,,,,,,,,1680,0,,,,,,,
2473,0,3.74,3.85,4.04,3.99,4.94,0.32,0.19,3.24,,-0.02,0.02,1.01,0,3,-1,0.03,1680,0,,,,,,,
2475,0,,,,,,,,,,,,,,,,,1680,0,,,,,,,
2477,0,,,,,,,,,,,,,,,,,1680,0,,,,,,,
2479,0,,,,,,,,,,,,,,,,,1680,0,,,,,,,
2481,0,,,,,,,,,,,,,,,,,1680,0,,,,,,,
2483,0,3.73,3.85,4.04,3.99,4.94,0.31,0.21,3.24,,-0.05,0.03,0.96,0,-2,-0,0.05,1680,0,0.0,0.0,0.0,0.0,0,0,0.0
2485,0,,,,,,,,,,,,,,,,,1680,0,,,,,,,
2487,0,,,,,,,,,,,,,,,,,1680,0,,,,,,,
2489,0,,,,,,,,,,,,,,,,,1680,0,,,,,,,
2491,0,,,,,,,,,,,,,,,,,1680,0,,,,,,,
2493,0,3.71,3.84,4.03,3.98,4.92,0.31,0.19,3.22,,-0.01,0.03,1.01,0,1,-0,0.03,1680,0,,,,,,,
2495,0,,,,,,,,,,,,,,,,,1680,0,,,,,,,
2497,0,,,,,,,,,,,,,,,,,1680,0,,,,,,,
2499,0,,,,,,,,,,,,,,,,,1680,0,,,,,,,
2501,0,,,,,,,,,,,,,,,,,1680,0,,,,,,,
2503,0,3.71,3.82,4.01,3.96,4.9,0.29,0.17,3.21,,-0.03,0.02,0.98,-0,-1,-0,0.04,1680,0,,,,,,,
2505,0,,,,,,,,,,,,,,,,,1620,0,,,,,,,
2507,0,,,,,,,,,,,,,,,,,1620,0,,,,,,,
2509,0,,,,,,,,,,,,,,,,,1620,0,,,,,,,
2511,0,,,,,,,,,,,,,,,,,1620,0,,,,,,,
2513,0,3.68,3.79,3.98,3.92,4.87,0.26,0.15,3.19,,-0.04,0.01,1.0,0,0,-0,0.05,1620,0,,,,,,,
2515,0,,,,,,,,,,,,,,,,,1620,0,,,,,,,
2517,0,,,,,,,,,,,,,,,,,1620,0,,,,,,,
2519,0,,,,,,,,,,,,,,,,,1620,0,,,,,,,
2521,0,,,,,,,,,,,,,,,,,1620,0,,,,,,,
2523,0,3.68,3.79,3.98,3.92,4.88,0.31,0.17,3.19,,-0.04,0.01,0.97,0,1,0,0.04,1620,0,0.0,0.0,0.0,0.0,0,0,0.0
2525,0,,,,,,,,,,,,,,,,,1620,0,,,,,,,
2527,0,,,,,,,,,,,,,,,,,1620,0,,,,,,,
2529,0,,,,,,,,,,,,,,,,,1620,0,,,,,,,
2531,0,,,,,,,,,,,,,,,,,1620,0,,,,,,,
2533,0,3.71,3.83,4.02,3.97,4.93,0.28,0.2,3.22,,-0.01,0.01,1.04,0,-1,-0,0.01,1620,0,,,,,,,
2535,0,,,,,,,,,,,,,,,,,1620,0,,,,,,,
2537,0,,,,,,,,,,,,,,,,,1620,0,,,,,,,
2539,0,,,,,,,,,,,,,,,,,1620,0,,,,,,,
2541,0,,,,,,,,,,,,,,,,,1620,0,,,,,,,
2543,0,3.73,3.85,4.04,3.99,4.94,0.31,0.2,3.25,,-0.02,0.0,1.02,0,3,-0,0.02,1680,0,,,,,,,
2545,0,,,,,,,,,,,,,,,,,1680,0,,,,,,,
2547,0,,,,,,,,,,,,,,,,,1680,0,,,,,,,
2549,0,,,,,,,,,,,,,,,,,1680,0,,,,,,,
2551,0,,,,,,,,,,,,,,,,,1680,0,,,,,,,
2553,0,3.73,3.84,4.04,3.99,4.94,0.29,0.21,3.24,,-0.06,0.02,0.99,0,-4,-0,0.06,1680,0,,,,,,,
2555,0,,,,,,,,,,,,,,,,,1680,0,,,,,,,
2557,0,,,,,,,,,,,,,,,,,1680,0,,,,,,,
2559,0,,,,,,,,,,,,,,,,,1680,0,,,,,,,
2561,0,,,,,,,,,,,,,,,,,1680,0,,,,,,,
2563,0,3.69,3.79,3.98,3.92,4.88,0.29,0.17,3.2,,-0.02,0.02,1.0,0,1,0,0.03,1680,0,0.0,0.0,0.0,0.0,0,0,0.0
2565,0,,,,,,,,,,,,,,,,,1680,0,,,,,,,
2567,0,,,,,,,,,,,,,,,,,1680,0,,,,,,,
2569,0,,,,,,,,,,,,,,,,,1680,0,,,,,,,
2571,0,,,,,,,,,,,,,,,,,1680,0,,,,,,,
2573,0,3.69,3.8,4.0,3.94,4.9,0.28,0.17,3.22,,-0.03,0.02,1.01,0,-2,-0,0.04,1680,0,,,,,,,
2575,0,,,,,,,,,,,,,,,,,1680,0,,,,,,,
2577,0,,,,,,,,,,,,,,,,,1620,0,,,,,,,
2579,0,,,,,,,,,,,,,,,,,1620,0,,,,,,,
2581,0,,,,,,,,,,,,,,,,,1620,0,,,,,,,
2583,0,3.73,3.85,4.04,3.99,4.94,0.28,0.19,3.24,,-0.04,0.02,1.0,0,1,-0,0.05,1620,0,,,,,,,
2585,0,,,,,,,,,,,,,,,,,1620,0,,,,,,,
2587,0,,,,,,,,,,,,,,,,,1620,0,,,,,,,
2589,0,,,,,,,,,,,,,,,,,1620,0,,,,,,,
2591,0,,,,,,,,,,,,,,,,,1620,0,,,,,,,
2593,0,3.73,3.85,4.04,3.99,4.93,0.31,0.19,3.24,,-0.04,0.0,0.96,0,-0,0,0.04,1620,0,,,,,,,
2595,0,,,,,,,,,,,,,,,,,1620,0,,,,,,,
2597,0,,,,,,,,,,,,,,,,,1620,0,,,,,,,
2599,0,,,,,,,,,,,,,,,,,1620,0,,,,,,,
2601,0,,,,,,,,,,,,,,,,,1620,0,,,,,,,
2603,0,3.72,3.83,4.02,3.97,4.91,0.29,0.2,3.24,,-0.01,0.01,1.05,0,-1,0,0.01,1620,0,0.0,0.0,0.0,0.0,0,0,0.0
2605,0,,,,,,,,,,,,,,,,,1620,0,,,,,,,
2607,0,,,,,,,,,,,,,,,,,1620,0,,,,,,,
2609,0,,,,,,,,,,,,,,,,,1620,0,,,,,,,
2611,0,,,,,,,,,,,,,,,,,1620,0,,,,,,,
2613,0,3.69,3.8,3.99,3.96,4.9,0.28,0.17,3.22,,0.0,0.0,1.0,0,2,0,0.0,1680,0,,,,,,,
2615,0,,,,,,,,,,,,,,,,,1680,0,,,,,,,
2617,0,,,,,,,,,,,,,,,,,1680,0,,,,,,,
2619,0,,,,,,,,,,,,,,,,,1680,0,,,,,,,
2621,0,,,,,,,,,,,,,,,,,1680,0,,,,,,,
2623,0,3.72,3.83,4.0,3.95,4.91,0.27,0.19,3.23,,-0.07,0.02,1.01,0,-3,0,0.07,1680,0,,,,,,,
2625,0,,,,,,,,,,,,,,,,,1680,0,,,,,,,
2627,0,,,,,,,,,,,,,,,,,1680,0,,,,,,,
2629,0,,,,,,,,,,,,,,,,,1680,0,,,,,,,
2631,0,,,,,,,,,,,,,,,,,1680,0,,,,,,,
2633,0,3.73,3.85,4.04,3.99,4.93,0.3,0.21,3.25,,-0.03,0.02,0.95,0,1,1,0.03,1680,0,,,,,,,
2635,0,,,,,,,,,,,,,,,,,1680,0,,,,,,,
2637,0,,,,,,,,,,,,,,,,,1680,0,,,,,,,
2639,0,,,,,,,,,,,,,,,,,1680,0,,,,,,,
2641,0,,,,,,,,,,,,,,,,,1680,0,,,,,,,
2643,0,3.71,3.82,4.01,3.96,4.9,0.29,0.19,3.22,,-0.02,0.03,1.02,0,-1,-0,0.04,1680,0,0.0,0.0,0.0,0.0,0,0,0.0
2645,0,,,,,,,,,,,,,,,,,1680,0,,,,,,,
2647,0,,,,,,,,,,,,,,,,,1680,0,,,,,,,
2649,0,,,,,,,,,,,,,,,,,1620,0,,,,,,,
2651,0,,,,,,,,,,,,,,,,,1620,0,,,,,,,
2653,0,3.69,3.81,4.0,3.95,4.91,0.28,0.22,3.21,,-0.03,0.02,0.99,0,2,0,0.04,1620,0,,,,,,,
2655,0,,,,,,,,,,,,,,,,,1620,0,,,,,,,
2657,0,,,,,,,,,,,,,,,,,1620,0,,,,,,,
2659,0,,,,,,,,,,,,,,,,,1620,0,,,,,,,
2661,0,,,,,,,,,,,,,,,,,1620,0,,,,,,,
